자동차정비업체명,자동차정비업체종류,소재지도로명주소,소재지지번주소,위도,경도,사업등록일자,면적,영업상태,폐업일자,휴업시작일자,휴업종료일자,운영시작시각,운영종료시각,전화번호,관리기관명,관리기관전화번호,데이터기준일자
진부1급자동차정비공장,1,강원특별자치도 평창군 진부면 까치골길15,강원특별자치도 평창군 진부면 하진부리 195-6,37.64781601,128.5628996,1994-12-24,2036,1,,,,,,033-336-2233,강원특별자치도 평창군,033-330-2285,2023-07-31
(주)평창현림1급자동차정비공장,3,강원특별자치도 평창군 평창읍 서동로 2793,강원특별자치도 평창군 평창읍 상리 92-1,37.367337,128.423802,1996-07-15,3422,1,,,,,,033-333-6464,강원특별자치도 평창군,033-330-2285,2023-07-31
속사카공업사,3,강원특별자치도 평창군 용평면 운두령로 9,강원특별자치도 평창군 용평면 속사리 459-25,37.638545,128.495851,1997-12-16,270,1,,,,,,033-335-1123,강원특별자치도 평창군,033-330-2285,2023-07-31
장평자동차공업사,3,강원특별자치도 평창군 용평면 경강로 1644,강원특별자치도 평창군 용평면 장평리 339-17,37.584837,128.414846,1997-12-17,302,1,,,,,,033-333-1745,강원특별자치도 평창군,033-330-2285,2023-07-31
뽀빠이카센타,3,강원특별자치도 평창군 봉평면 애강나무길 158,강원특별자치도 평창군 봉평면 원길리 276,37.618684,128.374129,1997-12-17,587,1,,,,,,033-335-8827,강원특별자치도 평창군,033-330-2285,2023-07-31
대화밧데리,3,강원특별자치도 평창군 대화면 대화중앙로 71,강원특별자치도 평창군 대화면 대화리 948-3,37.495347,128.456504,1998-06-15,284,1,,,,,,033-333-8809,강원특별자치도 평창군,033-330-2285,2023-07-31
한국지엠 평창바로서비스,3,강원특별자치도 평창군 진부면 진부중앙로 169,강원특별자치도 평창군 진부면 하진부리 28-18,37.645862,128.5631861,1998-08-21,330,1,,,,,,033-336-6691,강원특별자치도 평창군,033-330-2285,2023-07-31
동부자동차공업사,3,강원특별자치도 평창군 진부면 진부중앙로 160,강원특별자치도 평창군 진부면 하진부리 31-3,37.64488835,128.563057,1998-10-01,396,1,,,,,,033-335-4980,강원특별자치도 평창군,033-330-2285,2023-07-31
한국타이어 대화점,3,강원특별자치도 평창군 대화면 대화중앙로 83,강원특별자치도 평창군 대화면 대화리 959-2,37.49643327,128.4561531,1998-10-15,295,1,,,,,,033-333-2780,강원특별자치도 평창군,033-330-2285,2023-07-31
그린카센타,3,강원특별자치도 평창군 진부면 진벌길 4-9,강원특별자치도 평창군 진부면 상진부리 261-5,37.64740058,128.565248,1998-11-04,373.95,1,,,,,,033-336-8572,강원특별자치도 평창군,033-330-2285,2023-07-31
봉평카센타,3,강원특별자치도 평창군 봉평면 기풍로 113,강원특별자치도 평창군 봉평면 창동리 270-9,37.61273713,128.377868,1998-11-13,194.04,1,,,,,,033-335-0024,강원특별자치도 평창군,033-330-2285,2023-07-31
삼성카센타,3,강원특별자치도 평창군 진부면 진부중앙로 169-1,강원특별자치도 평창군 진부면 하진부리 28-12,37.645905,128.562674,1998-11-27,118.9,1,,,,,,033-333-0951,강원특별자치도 평창군,033-330-2285,2023-07-31
대화대성카센터,3,강원특별자치도 평창군 대화면 대화중앙로 163,강원특별자치도 평창군 대화면 대화리 1163-2,37.503677,128.454915,1998-11-27,150,1,,,,,,033-334-2400,강원특별자치도 평창군,033-330-2285,2023-07-31
오토오아시스 진부점,3,강원특별자치도 평창군 진부면 진부중앙로 184-1,강원특별자치도 평창군 진부면 상진부리 262-2,37.646832,128.564533,1999-05-12,110,1,,,,,,033-336-8844,강원특별자치도 평창군,033-330-2285,2023-07-31
평창카센타,3,강원특별자치도 평창군 평창읍 노성로 273,강원특별자치도 평창군 평창읍 중리 111,37.368966,128.405363,1999-05-18,293,1,,,,,,033-333-1662,강원특별자치도 평창군,033-330-2285,2023-07-31
기아오토큐 대화점,3,강원특별자치도 평창군 대화면 평창대로 601,강원특별자치도 평창군 대화면 하안미리 1416-7,37.476055,128.448175,1999-11-03,168,1,,,,,,033-333-1925,강원특별자치도 평창군,033-330-2285,2023-07-31
횡계점 기아오토큐,3,강원특별자치도 평창군 대관령면 대관령로 64,강원특별자치도 평창군 대관령면 횡계리 369-23,37.673897,128.703491,2000-01-28,113.8,1,,,,,,033-335-8591,강원특별자치도 평창군,033-330-2285,2023-07-31
애니카랜드 대관령점,3,강원특별자치도 평창군 대관령면 경강로 5166,강원특별자치도 평창군 대관령면 횡계리 590-7,37.681704,128.697881,2000-12-29,330,1,,,,,,033-336-7282,강원특별자치도 평창군,033-330-2285,2023-07-31
평창점 현대자동차,3,강원특별자치도 평창군 평창읍 서동로 2553,강원특별자치도 평창군 평창읍 중리 268-3,37.36723939,128.4011019,2001-01-06,152.255,1,,,,,,033-332-0907,강원특별자치도 평창군,033-330-2285,2023-07-31
정밀공업사,3,강원특별자치도 평창군 방림면 평창대로 19,강원특별자치도 평창군 방림면 방림리 770-1,37.432934,128.418638,2001-01-29,309.3,1,,,,,,033-334-3001,강원특별자치도 평창군,033-330-2285,2023-07-31
대한카공업사,3,강원특별자치도 평창군 대화면 대화중앙로 163,강원특별자치도 평창군 대화면 대화리 1163-2,37.503677,128.454915,2001-03-13,134.56,1,,,,,,033-332-9320,강원특별자치도 평창군,033-330-2285,2023-07-31
오토타운,3,강원특별자치도 평창군 진부면 청송로 69,강원특별자치도 평창군 진부면 하진부리 171-6,37.636944,128.554185,2001-07-21,128,1,,,,,,033-335-9579,강원특별자치도 평창군,033-330-2285,2023-07-31
운교자동차공업사,3,강원특별자치도 평창군 방림면 운지로 8,강원특별자치도 평창군 방림면 운교리 1182-3,37.43077846,128.285197,2002-06-01,636,1,,,,,,033-332-6212,강원특별자치도 평창군,033-330-2285,2023-07-31
애니카랜드 평창점,3,강원특별자치도 평창군 평창읍 평창중앙로 249,강원특별자치도 평창군 평창읍 후평리 773-3,37.376151,128.391453,2002-10-21,560,1,,,,,,033-333-0500,강원특별자치도 평창군,033-330-2285,2023-07-31
태원카센타,3,강원특별자치도 평창군 진부면 진부중앙로 176-2,강원특별자치도 평창군 진부면 하진부리 25-6,37.645723,128.563944,2002-12-03,180,1,,,,,,033-335-8582,강원특별자치도 평창군,033-330-2285,2023-07-31
현대자동차장평점,1,강원특별자치도 평창군 용평면 평창대로 1900,강원특별자치도 평창군 용평면 장평리 289-4,37.576474,128.4218997,2003-02-04,470,1,,,,,,033-334-3341,강원특별자치도 평창군,033-330-2285,2023-07-31
700카프라자,3,강원특별자치도 평창군 봉평면 백운동길 150,강원특별자치도 평창군 봉평면 무이리 337-2,37.612307,128.333835,2003-05-14,180.78,1,,,,,,033-330-6777,강원특별자치도 평창군,033-330-2285,2023-07-31
장평하이테크1급서비스,3,강원특별자치도 평창군 용평면 경강로 1828-2,강원특별자치도 평창군 용평면 용전리 291,37.59880278,128.4239334,2003-07-10,1000,1,,,,,,033-334-2525,강원특별자치도 평창군,033-330-2285,2023-07-31
진부점 현대자동차,3,강원특별자치도 평창군 진부면 청송로 81,강원특별자치도 평창군 진부면 하진부리 148-17,37.636972,128.555327,2003-12-23,793,1,,,,,,033-335-7785,강원특별자치도 평창군,033-330-2285,2023-07-31
기아자동차공업사,3,강원특별자치도 평창군 평창읍 군청길 31,강원특별자치도 평창군 평창읍 하리 259-3,37.367842,128.3893029,2004-11-19,129,1,,,,,,033-334-5556,강원특별자치도 평창군,033-330-2285,2023-07-31
동성1급자동차 봉평정비공장,3,강원특별자치도 평창군 봉평면 성황골길 6,강원특별자치도 평창군 봉평면 평촌리 590-1,37.60364772,128.378051,2006-02-23,500,1,,,,,,033-336-6610,강원특별자치도 평창군,033-330-2285,2023-07-31
삼일공업사,1,강원특별자치도 평창군 평창읍 노성로 59,강원특별자치도 평창군 평창읍 하리 128-9,37.368618,128.393355,2007-05-15,200,1,,,,,,033-330-2560,강원특별자치도 평창군,033-330-2285,2023-07-31
동부1급자동차정비,3,강원특별자치도 평창군 진부면 진고개로 41-2,강원특별자치도 평창군 진부면 간평리 502-5,37.671712,128.594084,2008-07-28,2000,1,,,,,,033-333-8909,강원특별자치도 평창군,033-330-2285,2023-07-31
봉평점기아오토큐,3,강원특별자치도 평창군 봉평면 기풍로 121-13,강원특별자치도 평창군 봉평면 창동리 425-11,37.612918,128.376918,2009-08-25,602,1,,,,,,033-335-0210,강원특별자치도 평창군,033-330-2285,2023-07-31
신창공업사,3,강원특별자치도 평창군 대화면 대화중앙로 29,강원특별자치도 평창군 대화면 대화리 847-5,37.491754,128.4574201159,2009-12-18,291,1,,,,,,070-8879-8822,강원특별자치도 평창군,033-330-2285,2023-07-31
현대카클리닉(한국타이어대관령올림픽점),2,강원특별자치도 평창군 대관령면 대관령로 74-3,강원특별자치도 평창군 대관령면 횡계리 366-11,37.67292893,128.7042252,2010-11-01,1043,1,,,,,,033-366-8277,강원특별자치도 평창군,033-330-2285,2023-07-31
평창밧데리,3,강원특별자치도 평창군 평창읍 향교길 42,강원특별자치도 평창군 평창읍 하리 66,37.367194,128.391581,2010-11-08,388,1,,,,,,033-332-2851,강원특별자치도 평창군,033-330-2285,2023-07-31
대관령농협 농기계/자동차부분정비 센터,3,강원특별자치도 평창군 대관령면 경강로 5161,강원특별자치도 평창군 대관령면 횡계리 377-343,37.682132,128.698406,2012-08-17,1608,1,,,,,,033-335-5969,강원특별자치도 평창군,033-330-2285,2023-07-31
진영카센타,3,강원특별자치도 평창군 대관령면 올림픽로 43-1,강원특별자치도 평창군 대관령면 횡계리 373-3,37.674932,128.700962,2013-12-30,794,1,,,,,,033-335-5284,강원특별자치도 평창군,033-330-2285,2023-07-31
남산카공업사,3,강원특별자치도 평창군 대화면 던짓골길 3-16,강원특별자치도 평창군 대화면 대화리 1191-7,37.505409,128.456826,2014-11-03,237,1,,,,,,033-334-9701,강원특별자치도 평창군,033-330-2285,2023-07-31
평창1급자동차공업사,3,강원특별자치도 평창군 평창읍 하평길 99,강원특별자치도 평창군 평창읍 하리 240-2,37.369177,128.388168,2015-01-02,1712,1,,,,,,033-332-7884,강원특별자치도 평창군,033-330-2285,2023-07-31
호랭이카,3,강원특별자치도 평창군 진부면 청송로 24,강원특별자치도 평창군 진부면 하진부리 240-10,37.636361,128.548902,2015-02-04,1095,1,,,,,,033-336-6003,강원특별자치도 평창군,033-330-2285,2023-07-31
애니카랜드 대관령점,2,강원특별자치도 평창군 대관령면 경강로 5166,강원특별자치도 평창군 대관령면 횡계리 590-7,37.681704,128.697881,2015-06-25,698.5,1,,,,,,033-336-7282,강원특별자치도 평창군,033-330-2285,2023-07-31
대관령 모터스,1,강원특별자치도 평창군 대관령면 경강로 5149-4,강원특별자치도 평창군 대관령면 횡계리 377-284,37.683107,128.698524,2015-06-29,1040,1,,,,,,033-335-5511,강원특별자치도 평창군,033-330-2285,2023-07-31
대성카센터,3,강원특별자치도 평창군 진부면 경강로 3561,강원특별자치도 평창군 진부면 하진부리 326-1,37.633477,128.556392,2016-01-22,917,1,,,,,,033-336-5094,강원특별자치도 평창군,033-330-2285,2023-07-31
쌍용자동차 평창서비스프라자,3,강원특별자치도 평창군 진부면 진부중앙로 161,강원특별자치도 평창군 진부면 하진부리 29-2,37.644991,128.562587,2016-08-16,296,1,,,,,,000-0000-0000,강원특별자치도 평창군,033-330-2285,2023-07-31
횡계밧데리,3,강원특별자치도 평창군 대관령면 반장골길 9-6,강원특별자치도 평창군 대관령면 유천리 202-17,37.673666,128.633491,2017-07-14,330,1,,,,,,033-335-6330,강원특별자치도 평창군,033-330-2285,2023-07-31
대화농협수리센터,3,강원특별자치도 평창군 대화면 우전길 27-1,강원특별자치도 평창군 대화면 대화리 966-3,37.498099,128.454897,2018-10-05,271.64,1,,,,,,033-334-2728,강원특별자치도 평창군,033-330-2285,2023-07-31
맥가이버제이모터스,3,강원특별자치도 평창군 진부면 진벌2길 45,강원특별자치도 평창군 진부면 상진부리 250-29,37.645639,128.566828,2020-01-15,289,1,,,,,,000-0000-0000,강원특별자치도 평창군,033-330-2285,2023-07-31
