자동차정비업체명,자동차정비업체종류,소재지도로명주소,소재지지번주소,위도,경도,사업등록일자,면적,영업상태,폐업일자,휴업시작일자,휴업종료일자,운영시작시각,운영종료시각,전화번호,관리기관명,관리기관전화번호,데이터기준일자
원흥산업,01,강원특별자치도 원주시 치악로 1517(관설동 1457),강원특별자치도 원주시 관설동 1457,37.3197433,127.9656641,1967-12-01,3940,01,,,,09:00,18:00,033-761-2908,강원특별자치도 원주시청,033-737-3522,2025-12-30
아우토반,01,"강원특별자치도 원주시 치악로 1900(봉산동 1048-2, 1048-3, 1048-7)",강원특별자치도 원주시 봉산동 1048-3,37.350493,127.956311,1997-01-15,1386,01,,,,09:00,18:00,033-743-3892,강원특별자치도 원주시청,033-737-3522,2025-12-30
(자)신흥공업사,01,"강원특별자치도 원주시 강변로 577(학성동 94, 94-1, 94-2, 99-5, 99-6, 94-12, 99-2)",강원특별자치도 원주시 학성동 94,37.35475031,127.951697,1997-01-15,4923,01,,,,09:00,18:00,033-742-3533,강원특별자치도 원주시청,033-737-3522,2025-12-30
기아자동차㈜원주서비스센터,01,강원특별자치도 원주시 로아노크로 30,강원특별자치도 원주시 무실동 441-8,37.34178835,127.9257954,1997-01-15,13211,01,,,,09:00,18:00,033-743-8585,강원특별자치도 원주시청,033-737-3522,2025-12-30
진광카독크,01,강원특별자치도 원주시 흥업면 북원로 1570(흥업리 392-1),강원특별자치도 원주시 흥업면 흥업리 392-1,37.28935977,127.916041,1993-05-07,1612,01,,,,09:00,18:00,033-763-5451,강원특별자치도 원주시청,033-737-3522,2025-12-30
(주)안전공업사,01,강원특별자치도 원주시 호저로 21(우산동 405-14),강원특별자치도 원주시 우산동 405-39,37.37904676,127.9419871,1994-02-28,1200,01,,,,09:00,18:00,033-733-6000,강원특별자치도 원주시청,033-737-3522,2025-12-30
영서자동차종합정비공장,01,강원특별자치도 원주시 흥업면 남원로 15(흥업리 561-9),강원특별자치도 원주시 흥업면 흥업리 561-9,37.2978959,127.9181064,1995-05-27,1763,01,,,,09:00,18:00,033-766-8900,강원특별자치도 원주시청,033-737-3522,2025-12-30
이레카마스타,01,강원특별자치도 원주시 호저면 원문로 502,강원특별자치도 원주시 호저면 만종리 495-3,37.36097905,127.9061314,1997-01-15,1385,01,,,,09:00,18:00,033-761-3531,강원특별자치도 원주시청,033-737-3522,2025-12-30
(합)순호공업사,01,"강원특별자치도 원주시 북원로 2807(태장동 2169, 2168-1, 2179, 2176, 2178)",강원특별자치도 원주시 태장동 2169,37.3941856,127.9502711,1995-04-13,2300,01,,,,09:00,18:00,033-747-3300,강원특별자치도 원주시청,033-737-3522,2025-12-30
동신운수 주식회사(우산동),01,강원특별자치도 원주시 북원로 2521(우산동 76-1),강원특별자치도 원주시 우산동 76-5,37.36998335,127.9405552,1996-05-30,1011,01,,,,09:00,18:00,033-731-8172,강원특별자치도 원주시청,033-737-3522,2025-12-30
태창운수 주식회사,01,강원특별자치도 원주시 치악로 1333(관설동 637-2),강원특별자치도 원주시 관설동 1274,37.30678535,127.976832,1996-06-29,1010,01,,,,09:00,18:00,033-761-3781,강원특별자치도 원주시청,033-737-3522,2025-12-30
남원주1급자동차,01,강원특별자치도 원주시 현충로 48(태장1동 694-1),강원특별자치도 원주시 태장동 694-1,37.3600757,127.9548254,1997-02-17,1061,01,,,,09:00,18:00,033-762-8400,강원특별자치도 원주시청,033-737-3522,2025-12-30
한국지엠㈜원주서비스센터,01,강원특별자치도 원주시 소초면 북원로 3356(의관리 56-2),강원특별자치도 원주시 소초면 의관리 56-2,37.43656944,127.9783628,1998-12-14,18323,01,,,,09:00,18:00,033-747-4900,강원특별자치도 원주시청,033-737-3522,2025-12-30
박광택종합자동차정비공장,01,강원특별자치도 원주시 흥업면 남원로 166(흥업리 1-4),강원특별자치도 원주시 흥업면 흥업리 1-4,37.3068097,127.9267107,2000-05-16,1245,01,,,,09:00,18:00,033-763-5153,강원특별자치도 원주시청,033-737-3522,2025-12-30
북원주종합자동차정비공업사,01,강원특별자치도 원주시 가현로 51(가현동 128-7),강원특별자치도 원주시 가현동 128-7,37.38689225,127.9424828,2001-04-02,1038,01,,,,09:00,18:00,033-745-1772,강원특별자치도 원주시청,033-737-3522,2025-12-30
신승공업사,01,강원특별자치도 원주시 판부면 서곡길 113(서곡리 95-13),강원특별자치도 원주시 판부면 서곡리 95-13,37.30926288,127.9541102,2001-07-30,1342,01,,,,09:00,18:00,033-766-4115,강원특별자치도 원주시청,033-737-3522,2025-12-30
첨단공업사,01,강원특별자치도 원주시 가현로 20(가현동 64-8),강원특별자치도 원주시 가현동 64-8,37.38617425,127.9457438,2002-05-29,1102,01,,,,09:00,18:00,033-745-3180,강원특별자치도 원주시청,033-737-3522,2025-12-30
(주)진성공업사,01,"강원특별자치도 원주시 문막읍 원문로 2098-1(취병리 47-37), 원문로 2100(반계리 42-4, 42-5)",강원특별자치도 원주시 문막읍 취병리 47-37,37.30091326,127.8008847,2002-10-07,6004,01,,,,09:00,18:00,033-732-4577,강원특별자치도 원주시청,033-737-3522,2025-12-30
선우자동차공업사,01,강원특별자치도 원주시 정지길 242(학성동 133),강원특별자치도 원주시 학성동 133,37.35599661,127.949929,2004-03-12,8266,01,,,,09:00,18:00,033-745-9194,강원특별자치도 원주시청,033-737-3522,2025-12-30
동아자동차공업사,01,강원특별자치도 원주시 호저면 신무로 9(만종리 628-2),강원특별자치도 원주시 호저면 만종리 628,37.35687237,127.9006973,2005-08-18,1000,01,,,,09:00,18:00,033-735-9864,강원특별자치도 원주시청,033-737-3522,2025-12-30
㈜뉴본모터스,01,강원특별자치도 원주시 흥업면 북원로 1805-1(흥업리 781),강원특별자치도 원주시 흥업면 흥업리 785-10,37.30970403,127.9156059,2006-06-20,4418,01,,,,09:00,18:00,033-761-7800,강원특별자치도 원주시청,033-737-3522,2025-12-30
제일자동차공업사,01,"강원특별자치도 원주시 문막읍 원문로 2144(반계리 99-4, 100-2, 101-1, 102-1)",강원특별자치도 원주시 문막읍 반계리 99-4,37.298955,127.7962666,2006-08-04,1685,01,,,,09:00,18:00,033-734-3882,강원특별자치도 원주시청,033-737-3522,2025-12-30
유피아공업사,01,강원특별자치도 원주시 문막읍 원문로 2198(반계리 1200-1),강원특별자치도 원주시 문막읍 반계리 1200-1,37.29659308,127.7932329,2007-05-02,2414,01,,,,09:00,18:00,033-731-8811,강원특별자치도 원주시청,033-737-3522,2025-12-30
왕성모터스,01,"강원특별자치도 원주시 판부면 남원로 178(서곡리 735-10, 736-2, 736-3, 736-4, 737-9)",강원특별자치도 원주시 판부면 서곡리 735-10,37.30765767,127.9280634,2007-05-17,3857,01,,,,09:00,18:00,033-763-7419,강원특별자치도 원주시청,033-737-3522,2025-12-30
골드자동차정비공장,01,강원특별자치도 원주시 강변로 655(학성동 581-1),강원특별자치도 원주시 학성동 15-3,37.36206334,127.9490199,2007-08-09,1442,01,,,,09:00,18:00,033-742-6866,강원특별자치도 원주시청,033-737-3522,2025-12-30
현대만종공업사,01,강원특별자치도 원주시 호저면 운동들2길 21-10(만종리 1070-2),강원특별자치도 원주시 호저면 만종리 1070-2,37.35396901,127.8962337,2007-12-26,1035,01,,,,09:00,18:00,033-746-4769,강원특별자치도 원주시청,033-737-3522,2025-12-30
원주현대상용서비스,01,"강원특별자치도 원주시 우두산길 20-1(우산동 405-18, 405-38, 405-56)",강원특별자치도 원주시 우산동 405-18,37.37964595,127.9409649,2008-12-18,1987,01,,,,09:00,18:00,033-732-7667,강원특별자치도 원주시청,033-737-3522,2025-12-30
1급종합미래자동차정비공업사,01,강원특별자치도 원주시 문막읍 큰애니길 49-14(동화리 1156),강원특별자치도 원주시 문막읍 동화리 1156,37.32884971,127.8345607,2009-09-16,1648,01,,,,09:00,18:00,033-735-3916,강원특별자치도 원주시청,033-737-3522,2025-12-30
동원주서비스 기아오토큐,01,"강원특별자치도 원주시 소초면 치악로 2385(흥양리1500, 1500-4)",강원특별자치도 원주시 소초면 흥양리 1500,37.38761915,127.9781192,2009-11-05,2103,01,,,,09:00,18:00,033-731-1391,강원특별자치도 원주시청,033-737-3522,2025-12-30
원주현대서비스,01,강원특별자치도 원주시 동부순환로 338-6,강원특별자치도 원주시 행구동 1775-3,37.34495661,127.977452,2010-01-19,6158,01,,,,09:00,18:00,033-731-4989,강원특별자치도 원주시청,033-737-3522,2025-12-30
서원주서비스 기아오토큐,01,강원특별자치도 원주시 호저면 우무개로 393 (원주시 호저면 만종리 324-4 외 1필지),강원특별자치도 원주시 호저면 만종리 324-4,37.36207455,127.9155059,2010-05-20,1139,01,,,,09:00,18:00,033-743-9765,강원특별자치도 원주시청,033-737-3522,2025-12-30
한솔자동차정비공업사,01,강원특별자치도 원주시 소초면 치악로 2457(수암리1346-11),강원특별자치도 원주시 소초면 수암리 1346-11,37.39277316,127.9832254,2010-05-20,1060,01,,,,09:00,18:00,033-734-0205,강원특별자치도 원주시청,033-737-3522,2025-12-30
영운공업사,01,강원특별자치도 원주시 호저면 굴미실길 13(만종리 1089-3),강원특별자치도 원주시 호저면 만종리 1089-3,37.3581354,127.898044,2011-07-12,1464,01,,,,09:00,18:00,033-734-5080,강원특별자치도 원주시청,033-737-3522,2025-12-30
(주)현대서원주서비스,01,강원특별자치도 원주시 봉화로 145 외 1필지(단계동 551번지 외 1필지),강원특별자치도 원주시 단계동 551번지 외 1필지,37.35776437,127.9279688,2012-07-30,3772,01,,,,09:00,18:00,033-733-9800,강원특별자치도 원주시청,033-737-3522,2025-12-30
21세기1급자동차종합정비센타,01,강원특별자치도 원주시 지정면 보통로 380(보통리 248),강원특별자치도 원주시 지정면 보통리 251-1,37.3395335,127.8752535,2014-04-02,1155,01,,,,09:00,18:00,,강원특별자치도 원주시청,033-737-3522,2025-12-30
㈜와이오토모빌리티,01,강원특별자치도 원주시 서원대로86번길 5-6(단계동 664),강원특별자치도 원주시 단계동 664,37.34998031,127.9228012,2014-12-05,1342,01,,,,09:00,18:00,033-761-5985,강원특별자치도 원주시청,033-737-3522,2025-12-30
태평양정비공업사,01,강원특별자치도 원주시 지정면 보통안길 179(보통리 426-9),강원특별자치도 원주시 지정면 보통리 산 76-2,37.33411122,127.8637354,2015-11-27,1163,01,,,,09:00,18:00,033-732-0445,강원특별자치도 원주시청,033-737-3522,2025-12-30
영도종합정비공업사,01,"강원특별자치도 원주시 지정면 질마재로 4(보통리 188-6, 188-15)",강원특별자치도 원주시 지정면 보통리 188-15,37.34740339,127.8797959,2016-01-14,1211,01,,,,09:00,18:00,033-735-3407,강원특별자치도 원주시청,033-737-3522,2025-12-30
원주대우상용정비,01,강원특별자치도 원주시 우산로 244(우산동 405-36),강원특별자치도 원주시 우산동 405-34,37.38138433,127.9399002,2016-04-18,2141,01,,,,09:00,18:00,033-747-9998,강원특별자치도 원주시청,033-737-3522,2025-12-30
원주특장,01,강원특별자치도 원주시 번재길 143 (봉산동 612-10),강원특별자치도 원주시 봉산동 612-10,37.3538038,127.975423,2016-11-22,1768,01,,,,09:00,18:00,033-763-7353,강원특별자치도 원주시청,033-737-3522,2025-12-30
남원주 현대서비스,01,강원특별자치도 원주시 만대로 200-22,강원특별자치도 원주시 무실동 643-7,37.33089483,127.9240501,2017-04-27,4007,01,,,,09:00,18:00,033-734-5600,강원특별자치도 원주시청,033-737-3522,2025-12-30
동아특장,01,강원특별자치도 원주시 흥업면 수루니길 40 (흥업면 사제리 1660),강원특별자치도 원주시 흥업면 사제리 1660,37.335262,127.866911,2020-12-09,2753,01,,,,09:00,18:00,033-766-0490,강원특별자치도 원주시청,033-737-3522,2025-12-30
㈜제이티컴퍼니,01,강원특별자치도 원주시 무실밤골길 48,강원특별자치도 원주시 무실동 160,37.32664488,127.9259186,2021-02-09,1362,01,,,,09:00,18:00,,강원특별자치도 원주시청,033-737-3522,2025-12-30
태화공업사,01,강원특별자치도 원주시 소초면 노루고개길 116,강원특별자치도 원주시 소초면 흥양리 1406-3,37.386380,127.992610,2021-03-26,1022,01,,,,09:00,18:00,,강원특별자치도 원주시청,033-737-3522,2025-12-30
남원주서비스 기아오토큐,01,강원특별자치도 원주시 판부면 건너말길7,강원특별자치도 원주시 판부면 서곡리 517,37.31703071,127.9381058,2021-04-29,3599,01,,,,09:00,18:00,033-761-5200,강원특별자치도 원주시청,033-737-3522,2025-12-30
매직카자동차검사소,01,강원특별자치도 원주시 영랑길 140 (행구동 1488-9 외 2필지),강원특별자치도 원주시 행구동 1488-6,37.33793074,127.9846631,2021-08-25,1014,01,,,,09:00,18:00,,강원특별자치도 원주시청,033-737-3522,2025-12-30
해운공업원주 주식회사,01,강원특별자치도 원주시 문막읍 원문로 2100-1,강원특별자치도 원주시 문막읍 반계리 42,37.3009945,127.7997628,2023-05-19,2047,01,,,,09:00,18:00,033-733-4941,강원특별자치도 원주시청,033-737-3522,2025-12-30
부원공업사,01,"강원특별자치도 원주시 문막읍 원문로 2153, 2동",강원특별자치도 원주시 문막읍 반계리 1131-1,37.29828229,127.7964584,2023-12-20,1418,01,,,,09:00,18:00,033-765-3331,강원특별자치도 원주시청,033-737-3522,2025-12-30
현대공업사 주식회사,01,강원특별자치도 원주시 문막읍 작백동길 71,강원특별자치도 원주시 문막읍 반계리 81-4,37.30018989,127.7989927,2024-05-27,1689,01,,,,09:00,18:00,033-731-0011,강원특별자치도 원주시청,033-737-3522,2025-12-30
대흥공업사,01,강원특별자치도 원주시 소초면 신양선녀길 180,강원특별자치도 원주시 소초면 수암리 1082-5,37.41285035,127.9809318,2024-08-12,1981,01,,,,09:00,18:00,,강원특별자치도 원주시청,033-737-3522,2025-12-30
구일공업사,02,강원특별자치도 원주시 현충로 69(태장1동 848-10),강원특별자치도 원주시 태장동 848-10,37.36171858,127.9537129,1994-06-28,242,01,,,,09:00,18:00,033-732-4230,강원특별자치도 원주시청,033-737-3522,2025-12-30
태호공업사,02,강원특별자치도 원주시 호저면 원문로 352(만종리 377-9),강원특별자치도 원주시 호저면 만종리 337-9,37.36075498,127.9183614,1997-01-15,795,01,,,,09:00,18:00,033-745-3855,강원특별자치도 원주시청,033-737-3522,2025-12-30
주식회사 케이지모빌리티원주서비스센터,02,강원특별자치도 원주시 소초면 장수1로 296(수암리 1379),강원특별자치도 원주시 소초면 수암리 1379,37.38935472,127.9765609,2001-09-28,727,01,,,,09:00,18:00,033-732-5582,강원특별자치도 원주시청,033-737-3522,2025-12-30
오케이자동차정비공업사,02,"강원특별자치도 원주시 새동네1길 42(태장동 791-10, 791-11)",강원특별자치도 원주시 태장동 791-10,37.35740026,127.9533413,2001-11-09,344,01,,,,09:00,18:00,033-735-4600,강원특별자치도 원주시청,033-737-3522,2025-12-30
영창자동차정비공장,02,강원특별자치도 원주시 남산로 86-1(일산동 290 (7/5)),강원특별자치도 원주시 일산동 290,37.3458134,127.943241,2001-12-18,206,01,,,,09:00,18:00,033-742-5109,강원특별자치도 원주시청,033-737-3522,2025-12-30
와일드모터스,02,강원특별자치도 원주시 호저면 우무개로 361(만종1리 298-3),강원특별자치도 원주시 호저면 만종리 298-3,37.36382221,127.915019,2002-02-23,132,01,,,,09:00,18:00,033-734-5814,강원특별자치도 원주시청,033-737-3522,2025-12-30
016자동차공업사,02,강원특별자치도 원주시 흥양로 104-1(태장2동 546-54),강원특별자치도 원주시 태장동 546-54,37.38324014,127.958767,2002-04-20,663,01,,,,09:00,18:00,033-747-0016,강원특별자치도 원주시청,033-737-3522,2025-12-30
현대25써비스,02,"강원특별자치도 원주시 북원로 2899(태장2동1821, 1820-1)",강원특별자치도 원주시 태장동 1821,37.4019664,127.953151,2002-06-28,59,01,,,,09:00,18:00,033-747-5488,강원특별자치도 원주시청,033-737-3522,2025-12-30
윤성자동차공업사,02,"강원특별자치도 원주시 지정면 원문로 1154, E동",강원특별자치도 원주시 지정면 보통리 477-1,37.33668368,127.8638461,2002-10-25,364,01,,,,09:00,18:00,033-742-8864,강원특별자치도 원주시청,033-737-3522,2025-12-30
흥일자동차공업사,02,강원특별자치도 원주시 치악로 1617(단구동 724-79),강원특별자치도 원주시 단구동 724-79,37.32731547,127.9598627,2003-01-30,187,01,,,,09:00,18:00,033-761-0909,강원특별자치도 원주시청,033-737-3522,2025-12-30
우리자동차정비공업사,02,강원특별자치도 원주시 흥업면 사제로 119(흥업리 1712),강원특별자치도 원주시 흥업면 흥업리 1712,37.30806278,127.9087775,2003-07-10,235,01,,,,09:00,18:00,033-765-0366,강원특별자치도 원주시청,033-737-3522,2025-12-30
대신자동차공업사,02,강원특별자치도 원주시 북원로 2451-11(우산동 298-3),강원특별자치도 원주시 우산동 298-3,37.36331488,127.938431,2003-08-25,198,03,,,,09:00,18:00,033-745-7566,강원특별자치도 원주시청,033-737-3522,2025-12-30
한성자동차정비공장,02,"강원특별자치도 원주시 흥양로 134(태장동 374-7, 374-5)",강원특별자치도 원주시 태장동 374-7,37.3832483,127.961936,2004-06-22,96,01,,,,09:00,18:00,033-747-7719,강원특별자치도 원주시청,033-737-3522,2025-12-30
원주자동차정비공장,02,강원특별자치도 원주시 치악로 1983(태장동 700-11),강원특별자치도 원주시 태장동 700-11,37.35784139,127.956785,2007-01-17,492,01,,,,09:00,18:00,033-744-8844,강원특별자치도 원주시청,033-737-3522,2025-12-30
오토테크닉 정락,02,강원특별자치도 원주시 이화5길 72(무실동 353-2),강원특별자치도 원주시 무실동 353-2,37.3392244,127.9297135,2010-11-01,258,01,,,,09:00,18:00,033-744-7116,강원특별자치도 원주시청,033-737-3522,2025-12-30
㈜아우토플라츠,02,"강원특별자치도 원주시 북원로 2724, 지하1층(태장동 1365)",강원특별자치도 원주시 태장동 1365,37.38655597,127.948486,2011-09-15,764,01,,,,09:00,18:00,033-737-6555,강원특별자치도 원주시청,033-737-3522,2025-12-30
㈜더파크모터스,02,강원특별자치도 원주시 치악로 1221-10(관설동 298-3),강원특별자치도 원주시 관설동 298-3,37.29882177,127.9832073,2015-03-02,1523,01,,,,09:00,18:00,033-762-0041,강원특별자치도 원주시청,033-737-3522,2025-12-30
㈜한서모터스,02,강원특별자치도 원주시 치악로 1221-7(관설동 산65-5),강원특별자치도 원주시 관설동 298-9,37.29826138,127.9838541,2015-04-24,2253,03,,,,09:00,18:00,033-764-8787,강원특별자치도 원주시청,033-737-3522,2025-12-30
선진모터스,02,강원특별자치도 원주시 문막읍 원문로 1208-1,강원특별자치도 원주시 문막읍 동화리 118-10,37.33551893,127.8594816,2016-10-05,300,01,,,,09:00,18:00,033-743-7233,강원특별자치도 원주시청,033-737-3522,2025-12-30
센트럴모터스㈜ 원주종합서비스센터,02,"강원특별자치도 원주시 정지길 3(학성동 10, 586-1, 1098-19)",강원특별자치도 원주시 학성동 10,37.36368771,127.948592,2018-07-30,1051,01,,,,09:00,18:00,,강원특별자치도 원주시청,033-737-3522,2025-12-30
월드모터스,02,강원특별자치도 원주시 새동네4길 47(태장동 790),강원특별자치도 원주시 태장동 790,37.35745309,127.9534787,2019-02-26,413,01,,,,09:00,18:00,033-765-1221,강원특별자치도 원주시청,033-737-3522,2025-12-30
형제모터스,02,강원특별자치도 원주시 호저면 칠봉로 331-29(호저면 산현리 298-9),강원특별자치도 원주시 호저면 산현리 298-9,37.42238754,127.8920152,2019-07-16,264,01,,,,09:00,18:00,033-735-7111,강원특별자치도 원주시청,033-737-3522,2025-12-30
카랜드라인,02,강원특별자치도 원주시 동부순환로 346(봉산동),강원특별자치도 원주시 봉산동 517,37.346274,127.9764445,2020-09-02,264,01,,,,09:00,18:00,033-743-1601,강원특별자치도 원주시청,033-737-3522,2025-12-30
에스에스오토모빌㈜,02,"강원특별자치도 원주시 장전길 96, (태장동)",강원특별자치도 원주시 태장동 1969-5,37.39757634,127.9533561,2020-12-09,125,01,,,,09:00,18:00,033-731-1301,강원특별자치도 원주시청,033-737-3522,2025-12-30
고려모터스,02,강원특별자치도 원주시 우산로 303(우산동 517-5),강원특별자치도 원주시 우산동 517-5,37.383180,127.937150,2021-11-25,485,01,,,,09:00,18:00,,강원특별자치도 원주시청,033-737-3522,2025-12-30
에스모터스,02,강원특별자치도 원주시 흥업면 원문로 792,강원특별자치도 원주시 흥업면 사제리 209,37.34536438,127.8916504,2022-07-28,547,01,,,,09:00,18:00,,강원특별자치도 원주시청,033-737-3522,2025-12-30
도이치모터스㈜,02,강원특별자치도 원주시 북원로 2803(태장동 2305-7),강원특별자치도 원주시 태장동 2305-7,37.39377104,127.9499007,2023-08-03,4507,01,,,,09:00,18:00,033-734-7301,강원특별자치도 원주시청,033-737-3522,2025-12-30
원주자동차공업사,02,"강원특별자치도 원주시 호저면 중부동3길 14(만종리 783-19, 20)",강원특별자치도 원주시 호저면 만종리 783-19,37.34406994,127.9009473,2023-09-26,400,01,,,,09:00,18:00,,강원특별자치도 원주시청,033-737-3522,2025-12-30
한성자동차㈜,02,"강원특별자치도 원주시 강변로 579 외 1(강변로 577, 고객대기실동)",강원특별자치도 원주시 학성동 100번지 외1고객대기실동,37.35593061,127.9494987,2024-04-30,2521,01,,,,09:00,18:00,,강원특별자치도 원주시청,033-737-3522,2025-12-30
코팅나라,02,강원특별자치도 원주시 문막읍 보통로 181(동화리 35-5),강원특별자치도 원주시 문막읍 동화리 35-5,37.34198989,127.8549342,2024-05-07,457,01,,,,09:00,18:00,,강원특별자치도 원주시청,033-737-3522,2025-12-30
애니카랜드 태장점,03,"강원특별자치도 원주시 북원로 2658(태장2동 1401-1, 1401-5)",강원특별자치도 원주시 태장동 1401-1,37.38077264,127.9469967,1997-03-25,409,01,,,,09:00,18:00,033-746-1235,강원특별자치도 원주시청,033-737-3522,2025-12-30
풀자동차정비공업사,03,강원특별자치도 원주시 백간길 37-8(단계동 455),강원특별자치도 원주시 단계동 455,37.35256366,127.9278107,1997-03-27,758,01,,,,09:00,18:00,033-732-6170,강원특별자치도 원주시청,033-737-3522,2025-12-30
조광사자동차정비공업사,03,강원특별자치도 원주시 단구로 291(단구동 633-1),강원특별자치도 원주시 단구동 633-1,37.3295238,127.957721,1997-04-16,158,01,,,,09:00,18:00,033-761-1703,강원특별자치도 원주시청,033-737-3522,2025-12-30
우성오토미션,03,강원특별자치도 원주시 강변로 237(단구동 182-8),강원특별자치도 원주시 단구동 182-8,37.3287071,127.962116,1997-04-18,720,01,,,,09:00,18:00,033-764-8093,강원특별자치도 원주시청,033-737-3522,2025-12-30
영무자동차정비공업사,03,강원특별자치도 원주시 단구초교길 39(단구동 74-102),강원특별자치도 원주시 단구동 74-102,37.32319371,127.9668184,1997-04-18,398,01,,,,09:00,18:00,033-764-7376,강원특별자치도 원주시청,033-737-3522,2025-12-30
태장자동차정비공업사,03,강원특별자치도 원주시 흥양로 54(태장2동 1341-28),강원특별자치도 원주시 태장동 산 54-8,37.38288297,127.9534796,1997-04-18,202,01,,,,09:00,18:00,033-748-5689,강원특별자치도 원주시청,033-737-3522,2025-12-30
안전종합자동차정비공업사,03,강원특별자치도 원주시 북원로 2574(우산동 70-2),강원특별자치도 원주시 우산동 70-2,37.3737253,127.9437541,1997-04-18,120,01,,,,09:00,18:00,033-745-2504,강원특별자치도 원주시청,033-737-3522,2025-12-30
기능자동차정비공업사,03,강원특별자치도 원주시 강변로 169(단구동 74-73),강원특별자치도 원주시 단구동 74-73,37.32396114,127.9664263,1997-05-03,122,01,,,,09:00,18:00,033-762-4335,강원특별자치도 원주시청,033-737-3522,2025-12-30
제일자동차정비공업사,03,강원특별자치도 원주시 강변로 143(단구동 67-6),강원특별자치도 원주시 단구동 67-6,37.3218092,127.967704,1997-05-03,365,01,,,,09:00,18:00,033-761-2072,강원특별자치도 원주시청,033-737-3522,2025-12-30
금강자동차정비공업사,03,"강원특별자치도 원주시 강변로 251(단구동 191-5, 191-6)",강원특별자치도 원주시 단구동 191-5,37.3301569,127.9616366,1997-05-03,238,01,,,,09:00,18:00,033-764-3569,강원특별자치도 원주시청,033-737-3522,2025-12-30
쎄븐자동차공업사,03,강원특별자치도 원주시 치악로1735번길 7(단구동 501-2),강원특별자치도 원주시 단구동 501-2,37.33690247,127.9558063,1997-05-03,202,01,,,,09:00,18:00,033-766-5569,강원특별자치도 원주시청,033-737-3522,2025-12-30
연합자동차정비공업사,03,강원특별자치도 원주시 현충로 91(태장1동 868-3),강원특별자치도 원주시 태장동 868-3,37.36351572,127.9525732,1997-05-03,229,01,,,,09:00,18:00,033-748-1276,강원특별자치도 원주시청,033-737-3522,2025-12-30
훼미리자동차정비공업사,03,강원특별자치도 원주시 우산로 244(우산동),강원특별자치도 원주시 우산동 405-34,37.38138603,127.9399002,1997-05-03,549,01,,,,09:00,18:00,033-744-3782,강원특별자치도 원주시청,033-737-3522,2025-12-30
창영자동차정비공업사,03,강원특별자치도 원주시 행구동 영랑길 32,강원특별자치도 원주시 행구동 1699-9번지,37.3460724,127.9352115,1997-05-03,289,01,,,,09:00,18:00,033-746-3578,강원특별자치도 원주시청,033-737-3522,2025-12-30
일진자동차정비공업사,03,강원특별자치도 원주시 천매봉길 27(단구동 1552-2),강원특별자치도 원주시 단구동 1552-2,37.3221026,127.943321,1997-05-03,287,01,,,,09:00,18:00,033-764-5776,강원특별자치도 원주시청,033-737-3522,2025-12-30
동성자동차정비공업사,03,강원특별자치도 원주시 북원로 2487(우산동 89-7),강원특별자치도 원주시 우산동 89-7,37.3664229,127.9402519,1997-05-22,773,01,,,,09:00,18:00,033-731-8255,강원특별자치도 원주시청,033-737-3522,2025-12-30
황소자동차정비공업사,03,강원특별자치도 원주시 강변로 247(단구동 191-14),강원특별자치도 원주시 단구동 191-14,37.3298279,127.9616783,1997-05-22,208,01,,,,09:00,18:00,033-761-2627,강원특별자치도 원주시청,033-737-3522,2025-12-30
정우자동차정비공업사,03,강원특별자치도 원주시 앙월길 15(단구동 1688-9),강원특별자치도 원주시 단구동 1688-9,37.3179373,127.9551182,1997-05-21,250,01,,,,09:00,18:00,033-762-8779,강원특별자치도 원주시청,033-737-3522,2025-12-30
공단자동차정비공업사,03,강원특별자치도 원주시 단구로63번길 6(단계동 800-1),강원특별자치도 원주시 단계동 800-1,37.34354422,127.9396882,1997-05-22,114,01,,,,09:00,18:00,033-742-0880,강원특별자치도 원주시청,033-737-3522,2025-12-30
대양자동차정비공업사,03,강원특별자치도 원주시 단구로 79(단계동 801-22),강원특별자치도 원주시 단계동 801-22,37.3420695,127.939931,1997-05-22,367,01,,,,09:00,18:00,033-748-0801,강원특별자치도 원주시청,033-737-3522,2025-12-30
드림자동차전문정비,03,강원특별자치도 원주시 단구로63번길 6(단계동 800-1),강원특별자치도 원주시 단계동 800-1,37.34354422,127.9396882,1997-05-22,311,01,,,,09:00,18:00,033-731-3799,강원특별자치도 원주시청,033-737-3522,2025-12-30
인동자동차정비공업사,03,강원특별자치도 원주시 치악로1735번길 78(개운동341-2),강원특별자치도 원주시 개운동 341-2,37.333013,127.953233,1997-05-22,855,01,,,,09:00,18:00,033-761-1213,강원특별자치도 원주시청,033-737-3522,2025-12-30
드봉카공업사,03,강원특별자치도 원주시 남산로 98(일산동 341-168),강원특별자치도 원주시 일산동 341-168,37.34612347,127.9416348,1997-06-07,269,01,,,,09:00,18:00,033-743-2573,강원특별자치도 원주시청,033-737-3522,2025-12-30
유일자동차정비공업사,03,강원특별자치도 원주시 단구로 237(개운동341-13),강원특별자치도 원주시 개운동 341-13,37.3328148,127.9532121,1997-06-07,304,01,,,,09:00,18:00,033-762-5581,강원특별자치도 원주시청,033-737-3522,2025-12-30
무한자동차정비,03,강원특별자치도 원주시 원문로 148(단계동 111-38),강원특별자치도 원주시 단계동 111-38,37.3559065,127.932646,1997-06-07,314,01,,,,09:00,18:00,033-732-8100,강원특별자치도 원주시청,033-737-3522,2025-12-30
원스톱자동차정비공업사,03,강원특별자치도 원주시 현충로 304-35(태장2동 1039-5),강원특별자치도 원주시 태장동 1039-5,37.3791129,127.9495301,1997-06-04,130,01,,,,09:00,18:00,033-745-8098,강원특별자치도 원주시청,033-737-3522,2025-12-30
시민자동차정비공업사,03,강원특별자치도 원주시 북원로 2605-17(우산동 50-3),강원특별자치도 원주시 우산동 50-3,37.3774533,127.9438236,1997-06-07,396,01,,,,09:00,18:00,033-743-3752,강원특별자치도 원주시청,033-737-3522,2025-12-30
구룡자동차정비공업사,03,강원특별자치도 원주시 소초면 치악로 2331(흥양리 1718),강원특별자치도 원주시 소초면 흥양리 1718,37.3833734,127.9748885,1997-06-23,660,01,,,,09:00,18:00,033-732-1207,강원특별자치도 원주시청,033-737-3522,2025-12-30
순창자동차정비공업사,03,강원특별자치도 원주시 북원로 2578-1(우산동 68-11),강원특별자치도 원주시 우산동 68-11,37.374158,127.9439088,1997-06-23,294,01,,,,09:00,18:00,033-746-7660,강원특별자치도 원주시청,033-737-3522,2025-12-30
쌍용카정비공업사,03,강원특별자치도 원주시 흥양로18번길 19-11(태장2동 1395-26),강원특별자치도 원주시 태장동 1395-26,37.3815454,127.9504281,1997-06-23,165,01,,,,09:00,18:00,033-748-2050,강원특별자치도 원주시청,033-737-3522,2025-12-30
애니카랜드개운점,03,강원특별자치도 원주시 단구로 224(개운동 440-4),강원특별자치도 원주시 개운동 440-4,37.3332575,127.9516409,1997-06-23,317,01,,,,09:00,18:00,033-764-1472,강원특별자치도 원주시청,033-737-3522,2025-12-30
동신자동차정비공업사,03,"강원특별자치도 원주시 호저면 원문로 405(A동 1층, C동 1층)(만종리362)",강원특별자치도 원주시 호저면 만종리 362,37.36116658,127.9138826,1997-07-09,86,01,,,,09:00,18:00,033-763-2644,강원특별자치도 원주시청,033-737-3522,2025-12-30
좋은차만들기,03,강원특별자치도 원주시 지정면 상무향평길 10,강원특별자치도 원주시 지정면 신평리 437-1,37.37816064,127.8939327,1997-07-09,62,01,,,,09:00,18:00,033-766-0080,강원특별자치도 원주시청,033-737-3522,2025-12-30
일심자동차정비공업사,03,강원특별자치도 원주시 동부순환로 9-12(단구동),강원특별자치도 원주시 단구동 1486-9,37.31910746,127.9683901,1997-07-09,67,01,,,,09:00,18:00,033-763-8134,강원특별자치도 원주시청,033-737-3522,2025-12-30
차사랑정비공업사,03,강원특별자치도 원주시 치악로 1611-1(단구동 724-38),강원특별자치도 원주시 단구동 724-38,37.3267375,127.960153,1997-07-09,281,01,,,,09:00,18:00,033-761-7030,강원특별자치도 원주시청,033-737-3522,2025-12-30
스피드메이트 치악점,03,"강원특별자치도 원주시 봉산로 102(봉산동 948-3, 948-8)",강원특별자치도 원주시 봉산동 948-3,37.34423972,127.9652103,1997-07-09,264,01,,,,09:00,18:00,033-747-9700,강원특별자치도 원주시청,033-737-3522,2025-12-30
일구자동차정비공업사,03,강원특별자치도 원주시 치악로1614번길 18(단구동 160),강원특별자치도 원주시 단구동 160,37.3272086,127.962258,1997-08-16,348,01,,,,09:00,18:00,033-766-1920,강원특별자치도 원주시청,033-737-3522,2025-12-30
삼흥자동차정비공업사,03,강원특별자치도 원주시 학성철길 65(학성동 332-15),강원특별자치도 원주시 학성동 332-15,37.3542124,127.948603,1997-08-16,119,01,,,,09:00,18:00,033-743-1764,강원특별자치도 원주시청,033-737-3522,2025-12-30
흥양자동차정비공업사,03,강원특별자치도 원주시 소초면 치악로 2355(흥양리 1672),강원특별자치도 원주시 소초면 흥양리 1672-1,37.38532084,127.9766893,1997-08-16,1791,01,,,,09:00,18:00,033-732-6565,강원특별자치도 원주시청,033-737-3522,2025-12-30
동서카센타,03,강원특별자치도 원주시 북원로 2591(우산동 63-2),강원특별자치도 원주시 우산동 63-2,37.37545874,127.943589,1997-08-16,1213,01,,,,09:00,18:00,033-731-3697,강원특별자치도 원주시청,033-737-3522,2025-12-30
영길자동차정비공업사,03,강원특별자치도 원주시 행구로 125(봉산동 864-2),강원특별자치도 원주시 봉산동 864-2,37.3424072,127.9700353,1997-09-01,802,01,,,,09:00,18:00,033-744-5103,강원특별자치도 원주시청,033-737-3522,2025-12-30
대용자동차정비공업사,03,강원특별자치도 원주시 소초면 장막1길 6(장양리 718-3),강원특별자치도 원주시 소초면 장양리 718-3,37.4079518,127.9564299,1997-09-01,550,01,,,,09:00,18:00,033-747-7077,강원특별자치도 원주시청,033-737-3522,2025-12-30
스피드메이트 원주점,03,강원특별자치도 원주시 포란재로 54,강원특별자치도 원주시 태장동 577-29,37.37699571,127.9568606,1997-10-31,992,01,,,,09:00,18:00,033-731-3625,강원특별자치도 원주시청,033-737-3522,2025-12-30
매직카정비공업사,03,강원특별자치도 원주시 영랑길 140,강원특별자치도 원주시 행구동 1488-6,37.33793074,127.9846631,1997-10-31,268,01,,,,09:00,18:00,033-765-0284,강원특별자치도 원주시청,033-737-3522,2025-12-30
케이지모빌리티 원주서비스프라자,03,강원특별자치도 원주시 단구로 265(단구동 576),강원특별자치도 원주시 단구동 576,37.3314137,127.9558693,1997-10-31,1034,01,,,,09:00,18:00,033-761-5582,강원특별자치도 원주시청,033-737-3522,2025-12-30
태봉자동차공업사,03,강원특별자치도 원주시 흥양로18번길 19-9(태장2동 1395-6),강원특별자치도 원주시 태장동 1395-6,37.3814625,127.9503278,1997-10-31,360,01,,,,09:00,18:00,033-735-3922,강원특별자치도 원주시청,033-737-3522,2025-12-30
황실자동차정비공업사,03,강원특별자치도 원주시 학성길 8(학성동 1026-1),강원특별자치도 원주시 학성동 1026-1,37.3559307,127.9365604,1997-11-14,118,01,,,,09:00,18:00,033-732-8731,강원특별자치도 원주시청,033-737-3522,2025-12-30
천억자동차정비공업사,03,강원특별자치도 원주시 우무개로 62(우산동 208-27),강원특별자치도 원주시 우산동 208-27,37.36534682,127.9348758,1997-12-05,120,01,,,,09:00,18:00,033-743-2242,강원특별자치도 원주시청,033-737-3522,2025-12-30
영신밧데리카공업사,03,강원특별자치도 원주시 이화4길 25(단계동 921-10),강원특별자치도 원주시 단계동 921-10,37.3399117,127.932243,1997-12-05,188,01,,,,09:00,18:00,033-744-8741,강원특별자치도 원주시청,033-737-3522,2025-12-30
나연카공업사,03,강원특별자치도 원주시 치악로 1913-1(봉산동 1033-1),강원특별자치도 원주시 봉산동 1033-2,37.35178902,127.955181,1997-12-05,195,01,,,,09:00,18:00,033-742-3262,강원특별자치도 원주시청,033-737-3522,2025-12-30
한빛자동차공업사,03,강원특별자치도 원주시 단사정길 82(단구동 186-1),강원특별자치도 원주시 단구동 186-1,37.3289383,127.9608171,1997-12-22,123,01,,,,09:00,18:00,033-762-1860,강원특별자치도 원주시청,033-737-3522,2025-12-30
한아름자동차정비공업사,03,강원특별자치도 원주시 치악로 1662-2(단구동 611-14),강원특별자치도 원주시 단구동 611-14,37.33114488,127.959123,1997-12-22,252,01,,,,09:00,18:00,033-763-0028,강원특별자치도 원주시청,033-737-3522,2025-12-30
문막점기아오토큐,03,강원특별자치도 원주시 문막읍 원문로 1609(건등리 194-4),강원특별자치도 원주시 문막읍 건등리 194-4,37.31990116,127.8319662,1997-12-22,267,01,,,,09:00,18:00,033-735-9997,강원특별자치도 원주시청,033-737-3522,2025-12-30
청솔자동차공업사,03,강원특별자치도 원주시 판부면 남원로 236-20(서곡리 595-47),강원특별자치도 원주시 판부면 서곡리 595-47,37.31250122,127.9295705,1998-01-20,562,01,,,,09:00,18:00,033-763-2644,강원특별자치도 원주시청,033-737-3522,2025-12-30
엔젤카케어,03,강원특별자치도 원주시 단구로 129(명륜1동 205-140),강원특별자치도 원주시 명륜동 205-140,37.3390059,127.944006,1998-01-20,209,01,,,,09:00,18:00,033-763-8882,강원특별자치도 원주시청,033-737-3522,2025-12-30
그린 기능장 카 서비스,03,강원특별자치도 원주시 우산로 21(우산동 242-3),강원특별자치도 원주시 우산동 242-3,37.3665259,127.9356659,1998-01-20,621,01,,,,09:00,18:00,033-734-5750,강원특별자치도 원주시청,033-737-3522,2025-12-30
카매니저,03,강원특별자치도 원주시 나비허리길 175(관설동 1455-7),강원특별자치도 원주시 관설동 1455-7,37.3182554,127.9661115,1998-01-20,211,01,,,,09:00,18:00,033-762-0661,강원특별자치도 원주시청,033-737-3522,2025-12-30
동양공업사,03,강원특별자치도 원주시 북원로 2578(우산동 68-10),강원특별자치도 원주시 우산동 68-10,37.37429732,127.943741,1998-01-20,289,01,,,,09:00,18:00,033-744-6996,강원특별자치도 원주시청,033-737-3522,2025-12-30
한국타이어 삼광점,03,강원특별자치도 원주시 봉산로 133(봉산동 833-2),강원특별자치도 원주시 봉산동 833-2,37.34318694,127.9675671,1998-01-20,194,01,,,,09:00,18:00,033-744-5445,강원특별자치도 원주시청,033-737-3522,2025-12-30
대림공업사,03,강원특별자치도 원주시 치악로1580번길 23(단구동 153-3),강원특별자치도 원주시 단구동 153-3,37.325133,127.964111,1998-01-20,208,01,,,,09:00,18:00,033-761-9376,강원특별자치도 원주시청,033-737-3522,2025-12-30
남경자동차공업사,03,강원특별자치도 원주시 북원로 2560(우산동 72-8),강원특별자치도 원주시 우산동 72-8,37.3725184,127.942923,1998-01-20,147,01,,,,09:00,18:00,033-744-3053,강원특별자치도 원주시청,033-737-3522,2025-12-30
동보자동차정비공업사,03,강원특별자치도 원주시 서원대로 416-2(단구동 1514-4),강원특별자치도 원주시 단구동 1514-4,37.3295537,127.950026,1998-01-20,561,01,,,,09:00,18:00,033-761-6442,강원특별자치도 원주시청,033-737-3522,2025-12-30
원주자동차병원공업사,03,강원특별자치도 원주시 원문로 111(단계동 147-11),강원특별자치도 원주시 단계동 147-11,37.35650819,127.935061,1998-01-20,127,01,,,,09:00,18:00,033-748-6961,강원특별자치도 원주시청,033-737-3522,2025-12-30
대승공업사,03,강원특별자치도 원주시 우무개2길 2(우산동 213-4),강원특별자치도 원주시 우산동 213-4,37.36526691,127.9322153,1998-01-20,393,01,,,,09:00,18:00,033-761-7897,강원특별자치도 원주시청,033-737-3522,2025-12-30
제왕자동차정비공업사,03,"강원특별자치도 원주시 북원로2425번길 2(우산동 133-3, 133-18)",강원특별자치도 원주시 우산동 133-3,37.361216,127.9396295,1998-01-20,193,01,,,,09:00,18:00,033-732-1500,강원특별자치도 원주시청,033-737-3522,2025-12-30
원주남부점 현대자동차,03,강원특별자치도 원주시 서원대로 523(단구동 143-17),강원특별자치도 원주시 단구동 143-17,37.32443576,127.960793,1998-01-20,473,01,,,,09:00,18:00,033-764-8204,강원특별자치도 원주시청,033-737-3522,2025-12-30
흥아공업사,03,강원특별자치도 원주시 현충로 93(태장1동 875-5),강원특별자치도 원주시 태장동 875-5,37.3634899,127.9523158,1998-01-21,149,01,,,,09:00,18:00,033-744-8876,강원특별자치도 원주시청,033-737-3522,2025-12-30
육일(6日)3급자동차공업사,03,강원특별자치도 원주시 치악로 1626-9(단구동 185-4),강원특별자치도 원주시 단구동 185-4,37.3288203,127.9610593,1998-01-21,640,01,,,,09:00,18:00,033-762-3697,강원특별자치도 원주시청,033-737-3522,2025-12-30
대영자동차정비공업사,03,강원특별자치도 원주시 문막읍 동화골길 9(동화리 519),강원특별자치도 원주시 문막읍 동화리 519,37.32518032,127.8437761,1998-03-23,990,01,,,,09:00,18:00,033-734-7398,강원특별자치도 원주시청,033-737-3522,2025-12-30
서원자동차정비공업사,03,강원특별자치도 원주시 모래내길 1-14(단계동 1078-8),강원특별자치도 원주시 단계동 1078-8,37.35364551,127.934748,1998-03-27,110,01,,,,09:00,18:00,033-742-9990,강원특별자치도 원주시청,033-737-3522,2025-12-30
미봉공업사,03,강원특별자치도 원주시 신림면 솔치로 2(황둔리 277),강원특별자치도 원주시 신림면 황둔리 277,37.2616504,128.1949164,1998-04-03,159,03,,,,09:00,18:00,033-762-2724,강원특별자치도 원주시청,033-737-3522,2025-12-30
흥업카센타,03,강원특별자치도 원주시 흥업면 북원로 1374-18 (흥업면 매지리 1206-4),강원특별자치도 원주시 흥업면 매지리 1206-4,37.27247022,127.906353,1998-04-10,430,01,,,,09:00,18:00,033-763-6822,강원특별자치도 원주시청,033-737-3522,2025-12-30
한국월드카정비공업사,03,강원특별자치도 원주시 소초면 북원로 3103(장양리 948-3),강원특별자치도 원주시 소초면 장양리 948-3,37.4185516,127.9623201,1998-05-28,133,01,,,,09:00,18:00,033-747-5227,강원특별자치도 원주시청,033-737-3522,2025-12-30
하나자동차정비공업사,03,강원특별자치도 원주시 북원로2738번길 6(태장2동 1353-13),강원특별자치도 원주시 태장동 1353-13,37.3875885,127.948923,1998-07-10,128,01,,,,09:00,18:00,033-731-1375,강원특별자치도 원주시청,033-737-3522,2025-12-30
서진자동차정비공업사,03,"강원특별자치도 원주시 남원로 548-7(개운동 452-8, 452-9)",강원특별자치도 원주시 개운동 452-8,37.3329523,127.9480503,1998-07-10,99,01,,,,09:00,18:00,,강원특별자치도 원주시청,033-737-3522,2025-12-30
천우모터스정비공업사,03,강원특별자치도 원주시 중앙로 181(학성동 206-17),강원특별자치도 원주시 학성동 206-17,37.35283268,127.9476955,1998-09-10,128,01,,,,09:00,18:00,033-746-7187,강원특별자치도 원주시청,033-737-3522,2025-12-30
만도플라자원주점,03,강원특별자치도 원주시 단구로 175-1(명륜동 357),강원특별자치도 원주시 명륜동 357,37.33659199,127.948261,1998-09-21,756,01,,,,09:00,18:00,033-761-8404,강원특별자치도 원주시청,033-737-3522,2025-12-30
동영공업사,03,강원특별자치도 원주시 북원로 2578-5(우산동 68-12),강원특별자치도 원주시 우산동 68-12,37.3741093,127.9440125,1998-10-08,260,01,,,,09:00,18:00,033-743-4442,강원특별자치도 원주시청,033-737-3522,2025-12-30
남영자동차정비공업사,03,강원특별자치도 원주시 섬밭들1길 36,강원특별자치도 원주시 무실동 1668-2,37.3325633,127.9237276,1998-10-08,228,01,,,,09:00,18:00,033-745-3456,강원특별자치도 원주시청,033-737-3522,2025-12-30
전진자동차정비공업사,03,강원특별자치도 원주시 강변로 417(개운동 388-18),강원특별자치도 원주시 개운동 388-18,37.3428662,127.9592372,1998-10-21,108,01,,,,09:00,18:00,033-762-6953,강원특별자치도 원주시청,033-737-3522,2025-12-30
박전사자동차공업사,03,강원특별자치도 원주시 소초면 황골로 47(흥양리 1486-2),강원특별자치도 원주시 소초면 흥양리 1486-2,37.3862827,127.983574,1998-10-21,693,01,,,,09:00,18:00,033-762-4589,강원특별자치도 원주시청,033-737-3522,2025-12-30
하나종합타운공업사,03,강원특별자치도 원주시 단구로 19(단계동 787-2),강원특별자치도 원주시 단계동 787-2,37.3463369,127.936143,1998-10-21,463,01,,,,09:00,18:00,033-742-4544,강원특별자치도 원주시청,033-737-3522,2025-12-30
그린자동차정비공업사,03,강원특별자치도 원주시 자유시장길 52(평원동 187-1),강원특별자치도 원주시 평원동 187-1,37.35250878,127.9512211,1998-10-29,328,01,,,,09:00,18:00,033-748-5109,강원특별자치도 원주시청,033-737-3522,2025-12-30
소초치악자동차공업사,03,강원특별자치도 원주시 소초면 치악로 2754(평장리 736),강원특별자치도 원주시 소초면 평장리 736,37.41480104,127.9995504,1998-11-03,329,01,,,,09:00,18:00,033-731-0150,강원특별자치도 원주시청,033-737-3522,2025-12-30
현대밧데리공업사,03,강원특별자치도 원주시 단구로 79-1(단계동 801-19),강원특별자치도 원주시 단계동 801-19,37.3423183,127.9400803,1998-11-06,110,01,,,,09:00,18:00,033-746-1178,강원특별자치도 원주시청,033-737-3522,2025-12-30
태풍자동차정비공업사,03,강원특별자치도 원주시 우무개로 15(우산동 95-1),강원특별자치도 원주시 우산동 95-1,37.3645415,127.9386841,1998-11-06,128,01,,,,09:00,18:00,033-732-1900,강원특별자치도 원주시청,033-737-3522,2025-12-30
타이어 라이프(단구점),03,강원특별자치도 원주시 송림길 48-29(단구동 1464-22),강원특별자치도 원주시 단구동 1464-22,37.3308553,127.951905,1998-11-06,297,01,,,,09:00,18:00,033-746-5545,강원특별자치도 원주시청,033-737-3522,2025-12-30
슈퍼자동차정비공업사,03,강원특별자치도 원주시 치악로 1626-3(단구동 173-17),강원특별자치도 원주시 단구동 173-17,37.32855006,127.9605021,1998-11-20,119,01,,,,09:00,18:00,033-766-3353,강원특별자치도 원주시청,033-737-3522,2025-12-30
구곡자동차정비공업사,03,강원특별자치도 원주시 라옹정길 9(관설동 1703-1),강원특별자치도 원주시 관설동 1703-1,37.3184297,127.9643412,1998-11-20,218,01,,,,09:00,18:00,033-764-2892,강원특별자치도 원주시청,033-737-3522,2025-12-30
흥신자동차정비공업사,03,강원특별자치도 원주시 신림면 제원로 1433-1(신림리 690-39),강원특별자치도 원주시 신림면 신림리 690-39,37.2287069,128.0818027,1998-11-30,110,01,,,,09:00,18:00,033-763-5162,강원특별자치도 원주시청,033-737-3522,2025-12-30
세화자동차공업사,03,강원특별자치도 원주시 남산로 82(일산동 290-6),강원특별자치도 원주시 일산동 290-6,37.3453106,127.9432167,1998-11-30,114,01,,,,09:00,18:00,033-745-8883,강원특별자치도 원주시청,033-737-3522,2025-12-30
스피드메이트대현점,03,강원특별자치도 원주시 한지공원길 36(명륜동 635-2),강원특별자치도 원주시 명륜동 635-2,37.33040873,127.942751,1998-12-23,174,01,,,,09:00,18:00,033-732-1177,강원특별자치도 원주시청,033-737-3522,2025-12-30
고속자동차정비공업사,03,강원특별자치도 원주시 북원로 2815(태장2동 2158),강원특별자치도 원주시 태장동 2158,37.39502284,127.950506,1999-01-09,127,01,,,,09:00,18:00,033-744-5564,강원특별자치도 원주시청,033-737-3522,2025-12-30
광명자동차정비공업사,03,강원특별자치도 원주시 현충로58번길 3(태장1동 682-20),강원특별자치도 원주시 태장동 682-20,37.3611344,127.954615,1999-02-08,680,01,,,,09:00,18:00,033-732-3868,강원특별자치도 원주시청,033-737-3522,2025-12-30
딱부리자동차공업사,03,강원특별자치도 원주시 학성길 111(학성동 266),강원특별자치도 원주시 학성동 266,37.35381512,127.9438063,1999-03-08,161,01,,,,09:00,18:00,033-731-8903,강원특별자치도 원주시청,033-737-3522,2025-12-30
타이어프로 흥업점,03,강원특별자치도 원주시 흥업면 남원로 55(흥업리 600-9),강원특별자치도 원주시 흥업면 흥업리 600-9,37.3012665,127.9190382,1999-04-13,233,01,,,,09:00,18:00,033-763-3522,강원특별자치도 원주시청,033-737-3522,2025-12-30
은행나무자동차공업사,03,"강원특별자치도 원주시 문막읍 원문로 2321(반계리 1086, 1085)",강원특별자치도 원주시 문막읍 반계리 1086,37.29040166,127.7875716,1999-06-23,1442,01,,,,09:00,18:00,033-734-5934,강원특별자치도 원주시청,033-737-3522,2025-12-30
황둔카공업사,03,강원특별자치도 원주시 신림면 신림황둔로 1224(황둔리 246-3),강원특별자치도 원주시 신림면 황둔리 246-3,37.2617236,128.190319,1999-06-23,431,01,,,,09:00,18:00,033-761-6661,강원특별자치도 원주시청,033-737-3522,2025-12-30
단구점 기아오토큐,03,강원특별자치도 원주시 단구로 339(단구동 726),강원특별자치도 원주시 단구동 726,37.3257153,127.9591028,1999-09-08,318,01,,,,09:00,18:00,033-764-8548,강원특별자치도 원주시청,033-737-3522,2025-12-30
가야자동차카정비,03,강원특별자치도 원주시 원문로 186-2,강원특별자치도 원주시 단계동 510-9,37.35661449,127.9293585,2001-08-25,198,01,,,,09:00,18:00,033-743-8228,강원특별자치도 원주시청,033-737-3522,2025-12-30
문막자동차공업사,03,강원특별자치도 원주시 문막읍 원문로 1386(동화리 505-5),강원특별자치도 원주시 문막읍 동화리 505-5,37.32877724,127.8462851,1999-10-02,1197,01,,,,09:00,18:00,033-734-0477,강원특별자치도 원주시청,033-737-3522,2025-12-30
문막점 현대자동차,03,강원특별자치도 원주시 문막읍 원문로 1619(건등리 194-2),강원특별자치도 원주시 문막읍 건등리 194-2,37.31930534,127.831613,1999-10-26,646,01,,,,09:00,18:00,033-734-8204,강원특별자치도 원주시청,033-737-3522,2025-12-30
TOP-NOTCH TIRE(탑 노치 타이어),03,강원특별자치도 원주시 문막읍 토평길 94(건등리 1443),강원특별자치도 원주시 문막읍 건등리 1444,37.31721761,127.823022,1999-11-11,494,01,,,,09:00,18:00,033-734-6443,강원특별자치도 원주시청,033-737-3522,2025-12-30
씨제이대한통운원주정비센타,03,강원특별자치도 원주시 흥업면 원문로 898(사제리 1339-1),강원특별자치도 원주시 흥업면 사제리 1339-1,37.3435501,127.8832629,2000-08-24,536,01,,,,09:00,18:00,033-747-8682,강원특별자치도 원주시청,033-737-3522,2025-12-30
스피드메이트 삼한점,03,강원특별자치도 원주시 북원로 2509(우산동 85-23),강원특별자치도 원주시 우산동 85-15,37.36841981,127.9404513,2000-10-02,147,01,,,,09:00,18:00,033-746-2911,강원특별자치도 원주시청,033-737-3522,2025-12-30
광터밧데리(장양자동차공업사),03,강원특별자치도 원주시 흥업면 광터길 139(사제리 산155),강원특별자치도 원주시 흥업면 사제리 산 155,37.342593,127.879643,2000-11-17,1915,01,,,,09:00,18:00,033-734-0046,강원특별자치도 원주시청,033-737-3522,2025-12-30
영수자동차정비공업사,03,"강원특별자치도 원주시 강변로 85(단구동 12-1, 12-3)",강원특별자치도 원주시 단구동 12-1,37.3171663,127.970819,2000-11-21,293,03,,,,09:00,18:00,033-762-8520,강원특별자치도 원주시청,033-737-3522,2025-12-30
자동차마을,03,강원특별자치도 원주시 현충로 62(태장동 850),강원특별자치도 원주시 태장동 850,37.3614166,127.9545128,2001-02-03,1395,01,,,,09:00,18:00,033-735-1300,강원특별자치도 원주시청,033-737-3522,2025-12-30
진성자동차공업사,03,강원특별자치도 원주시 부론면 부귀로 54(법천리 1386),강원특별자치도 원주시 부론면 법천리 1386,37.2066297,127.7520985,2001-04-09,406,01,,,,09:00,18:00,033-731-6092,강원특별자치도 원주시청,033-737-3522,2025-12-30
우정자동차공업사,03,강원특별자치도 원주시 현충로 280-8(태장동 1037),강원특별자치도 원주시 태장동 1037,37.37811547,127.949829,2001-04-25,553,01,,,,09:00,18:00,033-742-8492,강원특별자치도 원주시청,033-737-3522,2025-12-30
청룡카랜드,03,"강원특별자치도 원주시 학성길 109(학성동 267, 1048-8)",강원특별자치도 원주시 학성동 267,37.35380895,127.9436709,2001-04-27,491,01,,,,09:00,18:00,033-745-9669,강원특별자치도 원주시청,033-737-3522,2025-12-30
합동카공업사,03,강원특별자치도 원주시 문막읍 건등로 76-1,강원특별자치도 원주시 문막읍 건등리 1473-8,37.3148268,127.823993,2001-05-02,294,01,,,,09:00,18:00,033-735-6766,강원특별자치도 원주시청,033-737-3522,2025-12-30
논스톱카크리닉,03,강원특별자치도 원주시 우산로 100(우산동 98-7),강원특별자치도 원주시 우산동 98-7,37.371803,127.9377154,2001-07-05,566,01,,,,09:00,18:00,033-735-8688,강원특별자치도 원주시청,033-737-3522,2025-12-30
오일파크,03,강원특별자치도 원주시 개운4길 1(개운동 55-2),강원특별자치도 원주시 개운동 55-2,37.3411254,127.9597449,2001-07-10,358,01,,,,09:00,18:00,033-765-3987,강원특별자치도 원주시청,033-737-3522,2025-12-30
신대영자동차공업사,03,강원특별자치도 원주시 문막읍 원문로 1724,강원특별자치도 원주시 문막읍 건등리 1470-1,37.3146433,127.824804,2001-09-26,741,01,,,,09:00,18:00,033-735-7398,강원특별자치도 원주시청,033-737-3522,2025-12-30
웰빙타이어상사,03,강원특별자치도 원주시 현충로 307(태장동 1400),강원특별자치도 원주시 태장동 1400,37.38066731,127.9474257,2001-10-15,703,01,,,,09:00,18:00,033-763-7000,강원특별자치도 원주시청,033-737-3522,2025-12-30
드림카닥터정비공업사,03,강원특별자치도 원주시 토지길 8(단구동 1616-8),강원특별자치도 원주시 단구동 1616-8,37.3232214,127.9576625,2001-11-02,524,01,,,,09:00,18:00,033-734-2712,강원특별자치도 원주시청,033-737-3522,2025-12-30
슈퍼덴트칼라㈜단구점,03,강원특별자치도 원주시 치악로 1569(단구동 117-1),강원특별자치도 원주시 단구동 117-1,37.3231066,127.9618082,2001-11-19,132,01,,,,09:00,18:00,033-761-8515,강원특별자치도 원주시청,033-737-3522,2025-12-30
이정현엔지니어링(CMS카서비스),03,강원특별자치도 원주시 북원로 2435-11(우산동 298-4),강원특별자치도 원주시 우산동 298-4,37.36292883,127.938776,2001-12-22,660,01,,,,09:00,18:00,033-735-8281,강원특별자치도 원주시청,033-737-3522,2025-12-30
동현카공업사,03,강원특별자치도 원주시 치악로1570번길 12(단구동 133-11),강원특별자치도 원주시 단구동 133-11,37.3237252,127.963177,2002-03-27,232,01,,,,09:00,18:00,033-766-5109,강원특별자치도 원주시청,033-737-3522,2025-12-30
행복한차정비,03,강원특별자치도 원주시 천매봉길 26-8(단구동 1558-1),강원특별자치도 원주시 단구동 1558-1,37.3227174,127.9438035,2002-04-10,186,01,,,,09:00,18:00,033-764-6415,강원특별자치도 원주시청,033-737-3522,2025-12-30
타이어프로 원주점,03,강원특별자치도 원주시 서원대로 528(단구동 128-10),강원특별자치도 원주시 단구동 128-10,37.32371795,127.960848,2002-05-09,534,01,,,,09:00,18:00,033-766-7447,강원특별자치도 원주시청,033-737-3522,2025-12-30
SJ모터스,03,강원특별자치도 원주시 상지대길 31(우산동 126-24),강원특별자치도 원주시 우산동 126-24,37.36945067,127.938371,2002-06-28,366,01,,,,09:00,18:00,033-746-7641,강원특별자치도 원주시청,033-737-3522,2025-12-30
오토오아시스단계점,03,강원특별자치도 원주시 봉화로 44(단계동 837-4),강원특별자치도 원주시 단계동 837-4,37.34830171,127.929116,2002-06-28,222,01,,,,09:00,18:00,033-746-0527,강원특별자치도 원주시청,033-737-3522,2025-12-30
삼성공업사,03,강원특별자치도 원주시 신림면 신림황둔로 109(신림리 116-27),강원특별자치도 원주시 신림면 신림리 116-27,37.2384033,128.087659,2002-07-25,897,01,,,,09:00,18:00,033-763-1864,강원특별자치도 원주시청,033-737-3522,2025-12-30
문막월드카,03,강원특별자치도 원주시 문막읍 문막골말길 5-1(문막리 542-8),강원특별자치도 원주시 문막읍 문막리 542-8,37.309207,127.8193324,2002-07-29,255,01,,,,09:00,18:00,033-735-5605,강원특별자치도 원주시청,033-737-3522,2025-12-30
원주튠업카서비스,03,강원특별자치도 원주시 천매봉길 2,강원특별자치도 원주시 단구동 1565-8,37.3218161,127.9454312,2002-07-31,449,01,,,,09:00,18:00,033-765-5370,강원특별자치도 원주시청,033-737-3522,2025-12-30
진성카센타,03,강원특별자치도 원주시 앙월길 2(단구동 932-3),강원특별자치도 원주시 단구동 932-3,37.3178422,127.953807,2002-08-06,330,01,,,,09:00,18:00,033-763-1484,강원특별자치도 원주시청,033-737-3522,2025-12-30
세인모터스,03,강원특별자치도 원주시 섭재삼보길 1-4,강원특별자치도 원주시 관설동 287-93,37.31154383,127.9774184,2002-11-11,255,01,,,,09:00,18:00,033-765-8249,강원특별자치도 원주시청,033-737-3522,2025-12-30
카프렌즈,03,강원특별자치도 원주시 강변로 151,강원특별자치도 원주시 단구동 72,37.32251796,127.9676029,2002-11-14,573,01,,,,09:00,18:00,033-766-0578,강원특별자치도 원주시청,033-737-3522,2025-12-30
상일자동차공업사,03,강원특별자치도 원주시 흥업면 남원로 111-5(흥업리 731-1),강원특별자치도 원주시 흥업면 흥업리 731-1,37.3062043,127.9199636,2002-11-14,134,01,,,,09:00,18:00,033-761-3114,강원특별자치도 원주시청,033-737-3522,2025-12-30
스피드메이트 원주혁신점,03,강원특별자치도 원주시 동부순환로 95,강원특별자치도 원주시 반곡동 1275-2,37.32397017,127.9737533,2002-11-21,991,01,,,,09:00,18:00,033-735-5560,강원특별자치도 원주시청,033-737-3522,2025-12-30
학봉정공업사,03,강원특별자치도 원주시 치악로 1913(봉산동 1033-4),강원특별자치도 원주시 봉산동 1033-4,37.35176973,127.955212,2003-04-24,340,01,,,,09:00,18:00,033-746-1110,강원특별자치도 원주시청,033-737-3522,2025-12-30
구곡자동차정비공업사,03,강원특별자치도 원주시 라옹정길 9 (관설동),강원특별자치도 원주시 관설동 1703-1,37.31846518,127.9643619,2003-05-01,218,01,,,,09:00,18:00,033-764-2892,강원특별자치도 원주시청,033-737-3522,2025-12-30
가든자동차정비공업사,03,"강원특별자치도 원주시 번재길 189(봉산동 636-5, 636-14)",강원특별자치도 원주시 봉산동 636-5,37.3572688,127.976896,2003-05-07,599,01,,,,09:00,18:00,033-746-1809,강원특별자치도 원주시청,033-737-3522,2025-12-30
명장공업사,03,강원특별자치도 원주시 단구로 297(단구동 629-4),강원특별자치도 원주시 단구동 629-4,37.3292103,127.9580056,2003-08-06,496,01,,,,09:00,18:00,033-764-1741,강원특별자치도 원주시청,033-737-3522,2025-12-30
강원대형공업사,03,강원특별자치도 원주시 소초면 황골로 36,강원특별자치도 원주시 소초면 흥양리 1486-1,37.38626723,127.9822376,2003-08-06,649,01,,,,09:00,18:00,033-743-0244,강원특별자치도 원주시청,033-737-3522,2025-12-30
미쉐린타이어 원주판매,03,강원특별자치도 원주시 이화6길 87(단계동 896-7),강원특별자치도 원주시 단계동 896-7,37.3390107,127.9309073,2003-09-18,242,01,,,,09:00,18:00,033-742-4542,강원특별자치도 원주시청,033-737-3522,2025-12-30
신림카정비공업사,03,강원특별자치도 원주시 신림면 제원로 1419(신림리 690-16),강원특별자치도 원주시 신림면 신림리 690-16,37.2277115,128.082596,2003-11-11,308,01,,,,09:00,18:00,033-763-3914,강원특별자치도 원주시청,033-737-3522,2025-12-30
학성북부점현대자동차,03,강원특별자치도 원주시 강변로 801(학성동 814-3),강원특별자치도 원주시 학성동 814-3,37.3750113,127.9478101,2003-12-29,1538,01,,,,09:00,18:00,033-744-1377,강원특별자치도 원주시청,033-737-3522,2025-12-30
디에이치 모터샵,03,강원특별자치도 원주시 장전길 79 (태장동),강원특별자치도 원주시 태장동 1549번지,37.4017798,127.953001,2004-03-03,1453,01,,,,09:00,18:00,,강원특별자치도 원주시청,033-737-3522,2025-12-30
기능장카클리닉,03,강원특별자치도 원주시 라옹정길 24(관설동 1692-6),강원특별자치도 원주시 관설동 1692-6,37.3192035,127.9635262,2004-06-21,230,01,,,,09:00,18:00,033-762-8106,강원특별자치도 원주시청,033-737-3522,2025-12-30
동신운수 주식회사(관설동),03,"강원특별자치도 원주시 치악로 1251(관설동308, 308-1)",강원특별자치도 원주시 관설동 308,37.3006215,127.982016,2004-07-29,240,01,,,,09:00,18:00,033-766-4283,강원특별자치도 원주시청,033-737-3522,2025-12-30
진경카센타,03,강원특별자치도 원주시 행구로 201(행구동 1599-1),강원특별자치도 원주시 행구동 1600-6,37.34408906,127.9782856,2004-11-08,231,01,,,,09:00,18:00,033-746-8778,강원특별자치도 원주시청,033-737-3522,2025-12-30
대성상사,03,강원특별자치도 원주시 호저면 원문로 383(만종리 360),강원특별자치도 원주시 호저면 만종리 360,37.36083672,127.9157211,2004-11-29,2019,01,,,,09:00,18:00,033-744-5433,강원특별자치도 원주시청,033-737-3522,2025-12-30
로얄자동차정비공업사,03,"강원특별자치도 원주시 도말리길 85(개운동 384-10, 384-11)",강원특별자치도 원주시 개운동 384-10,37.3429103,127.956664,2005-05-11,273,01,,,,09:00,18:00,033-765-4191,강원특별자치도 원주시청,033-737-3522,2025-12-30
평장카공업사,03,강원특별자치도 원주시 호저면 하만종1길 78(만종리 360),강원특별자치도 원주시 호저면 만종리 360,37.36070361,127.9159929,2005-06-14,199,01,,,,09:00,18:00,033-734-4456,강원특별자치도 원주시청,033-737-3522,2025-12-30
애니카랜드흥업점(현승클린정비),03,강원특별자치도 원주시 판부면 남원로 328(서곡리 553-24),강원특별자치도 원주시 판부면 서곡리 553-24,37.3168399,127.935912,2005-06-20,825,01,,,,09:00,18:00,033-765-1237,강원특별자치도 원주시청,033-737-3522,2025-12-30
보쉬 카 서비스 원주점,03,강원특별자치도 원주시 서원대로 467(단구동 648-27),강원특별자치도 원주시 단구동 648-27,37.32719818,127.9556303,2005-10-21,375,01,,,,09:00,18:00,033-732-0889,강원특별자치도 원주시청,033-737-3522,2025-12-30
신성공업사,03,강원특별자치도 원주시 치악로 1472-2(단구동 14-3),강원특별자치도 원주시 단구동 14-3,37.3169426,127.969888,2005-11-18,80,01,,,,09:00,18:00,033-765-5515,강원특별자치도 원주시청,033-737-3522,2025-12-30
무실자동차공업사,03,강원특별자치도 원주시 송삼길 6(무실동 1246-1),강원특별자치도 원주시 무실동 1246-1,37.3335258,127.9189551,2006-01-25,121,01,,,,09:00,18:00,033-744-7898,강원특별자치도 원주시청,033-737-3522,2025-12-30
원일자동차공업사,03,강원특별자치도 원주시 가현로 6-1(가현동 68-3),강원특별자치도 원주시 가현동 68-3,37.3861171,127.9473151,2006-02-22,300,01,,,,09:00,18:00,033-735-4877,강원특별자치도 원주시청,033-737-3522,2025-12-30
세진카클리닉,03,강원특별자치도 원주시 문막읍 문막시장1길 52-26(문막리 242-10),강원특별자치도 원주시 문막읍 문막리 242-10,37.3062035,127.814745,2006-02-28,396,01,,,,09:00,18:00,033-734-9882,강원특별자치도 원주시청,033-737-3522,2025-12-30
신흥카공업사,03,강원특별자치도 원주시 원문로 228(단계동 599-1),강원특별자치도 원주시 단계동 599-1,37.3561187,127.9259575,2006-03-07,240,01,,,,09:00,18:00,033-746-7564,강원특별자치도 원주시청,033-737-3522,2025-12-30
애니카랜드 문막점,03,강원특별자치도 원주시 문막읍 건등로 10-6(건등리 1713-2),강원특별자치도 원주시 문막읍 건등리 1713-2,37.3113343,127.818132,2006-09-01,349,01,,,,09:00,18:00,033-747-5336,강원특별자치도 원주시청,033-737-3522,2025-12-30
뉴서울자동차공업사,03,"강원특별자치도 원주시 귀래면 북원로 155(운남리 1026-1, 1027-3, 1027-27)",강원특별자치도 원주시 귀래면 운남리 1026-1,37.1742764,127.8832203,2006-10-25,585,01,,,,09:00,18:00,033-763-0951,강원특별자치도 원주시청,033-737-3522,2025-12-30
T‘Station 명륜점,03,"강원특별자치도 원주시 남원로 590(명륜동 287-1, 290-7)",강원특별자치도 원주시 명륜동 287-1,37.33612308,127.950114,2006-11-07,453,01,,,,09:00,18:00,033-764-3322,강원특별자치도 원주시청,033-737-3522,2025-12-30
르노코리아자동차 서비스코너 우산점,03,"강원특별자치도 원주시 우두산길 54-2, (우산동)",강원특별자치도 원주시 우산동 567-1,37.38034559,127.9367748,2006-11-15,232,01,,,,09:00,18:00,033-766-5561,강원특별자치도 원주시청,033-737-3522,2025-12-30
유진자동차정비,03,"강원특별자치도 원주시 상지대길 8(우산동 76-9, 76-11)",강원특별자치도 원주시 우산동 76-9,37.3694921,127.940242,2006-11-21,722,01,,,,09:00,18:00,033-747-8297,강원특별자치도 원주시청,033-737-3522,2025-12-30
훈이카서비스,03,강원특별자치도 원주시 섬밭들1길 26-10(무실동 1671-7),강원특별자치도 원주시 무실동 1671-7,37.3331121,127.922321,2006-12-14,243,01,,,,09:00,18:00,033-747-5679,강원특별자치도 원주시청,033-737-3522,2025-12-30
진양모터플랜,03,강원특별자치도 원주시 치악로1534번길 11(단구동 1471-2),강원특별자치도 원주시 단구동 1471-2,37.321757,127.965653,2007-01-11,249,01,,,,09:00,18:00,033-766-8585,강원특별자치도 원주시청,033-737-3522,2025-12-30
강변타이어할인매장,03,강원특별자치도 원주시 강변로 687,강원특별자치도 원주시 학성동 1-5,37.36544312,127.9486862,2007-08-06,552,01,,,,09:00,18:00,033-735-9119,강원특별자치도 원주시청,033-737-3522,2025-12-30
㈜제이티컴퍼니,03,"강원특별자치도 원주시 판부면 매봉길 48-6(서곡리 1998-5, 1998-6)",강원특별자치도 원주시 판부면 서곡리 1998-5,37.320311,127.944852,2007-09-05,422,01,,,,09:00,18:00,033-763-9717,강원특별자치도 원주시청,033-737-3522,2025-12-30
오토카공업사,03,강원특별자치도 원주시 서원대로 403-5(개운동 445-8),강원특별자치도 원주시 개운동 445-8,37.3311457,127.950527,2007-10-25,564,01,,,,09:00,18:00,033-764-8533,강원특별자치도 원주시청,033-737-3522,2025-12-30
통일자동차공업사,03,"강원특별자치도 원주시 강변로 281(단구동 205-23, 205-3, 205-6)",강원특별자치도 원주시 단구동 205-23,37.3325805,127.960762,2007-11-30,143,01,,,,09:00,18:00,033-766-7485,강원특별자치도 원주시청,033-737-3522,2025-12-30
원흥브란자,03,"강원특별자치도 원주시 치악로 1513(관설동 1456-1, 1456-21, 1456-23)",강원특별자치도 원주시 관설동 1456-1,37.3194025,127.9659023,2007-12-27,210,01,,,,09:00,18:00,033-761-9570,강원특별자치도 원주시청,033-737-3522,2025-12-30
국제오토밋션전문수리점,03,강원특별자치도 원주시 현충로 228(태장2동 948-4),강원특별자치도 원주시 태장동 948-4,37.3739187,127.9509232,2008-01-03,293,01,,,,09:00,18:00,033-731-1807,강원특별자치도 원주시청,033-737-3522,2025-12-30
스피드메이트 원주보성점,03,강원특별자치도 원주시 남산로48번길 71(명륜동 224-2),강원특별자치도 원주시 명륜동 224-2,37.339337,127.9468281,2008-06-10,167,01,,,,09:00,18:00,033-761-9906,강원특별자치도 원주시청,033-737-3522,2025-12-30
성원자동차공업사,03,강원특별자치도 원주시 단구로 44(단계동 794-3),강원특별자치도 원주시 단계동 794-3,37.3445407,127.9373449,2008-06-17,407,01,,,,09:00,18:00,033-745-1662,강원특별자치도 원주시청,033-737-3522,2025-12-30
오영카클리닉,03,강원특별자치도 원주시 남산로 108(일산동 331-1),강원특별자치도 원주시 일산동 331-1,37.3464179,127.9411057,2005-06-25,422,01,,,,09:00,18:00,033-747-2377,강원특별자치도 원주시청,033-737-3522,2025-12-30
스피드메이트(개운점),03,강원특별자치도 원주시 개봉교길 15(개운동 382-29),강원특별자치도 원주시 개운동 382-29,37.3436014,127.9565157,2008-07-03,178,01,,,,09:00,18:00,033-766-5508,강원특별자치도 원주시청,033-737-3522,2025-12-30
더블윈,03,강원특별자치도 원주시 현충로 101,강원특별자치도 원주시 태장동 877-7,37.3640123,127.9516246,2008-09-09,132,01,,,,09:00,18:00,033-746-6372,강원특별자치도 원주시청,033-737-3522,2025-12-30
한국타이어 티스테이션,03,강원특별자치도 원주시 치악로 1573(단구동 128-26),강원특별자치도 원주시 단구동 128-26,37.32320977,127.961356,2009-08-11,1432,01,,,,09:00,18:00,033-761-0085,강원특별자치도 원주시청,033-737-3522,2025-12-30
원주차사랑공업사,03,강원특별자치도 원주시 치악로 2012(태장1동 717-1),강원특별자치도 원주시 태장동 717-1,37.35955172,127.9596137,2010-01-14,320,01,,,,09:00,18:00,033-732-3578,강원특별자치도 원주시청,033-737-3522,2025-12-30
오토플러스,03,강원특별자치도 원주시 오리현길 55(반곡동 1454),강원특별자치도 원주시 반곡동 1454,37.33881752,127.9720334,2010-03-08,470,01,,,,09:00,18:00,033-747-5445,강원특별자치도 원주시청,033-737-3522,2025-12-30
르노코리아 자동차서비스코너 명륜점,03,"강원특별자치도 원주시 명륜로 12(명륜동 237-12, 237-15)",강원특별자치도 원주시 명륜동 237-12,37.33761938,127.9482535,2010-05-03,772,01,,,,09:00,18:00,033-763-0010,강원특별자치도 원주시청,033-737-3522,2025-12-30
강원윤활유타이어공업사,03,강원특별자치도 원주시 지정면 보통로 522(보통리 37),강원특별자치도 원주시 지정면 보통리 37,37.3467486,127.882916,2010-07-01,998,01,,,,09:00,18:00,033-734-4568,강원특별자치도 원주시청,033-737-3522,2025-12-30
넘버원카센타,03,강원특별자치도 원주시 흥양로 110(태장2동 1321-59),강원특별자치도 원주시 태장동 1321-59,37.383314,127.9593207,2010-07-19,626,01,,,,09:00,18:00,033-744-1747,강원특별자치도 원주시청,033-737-3522,2025-12-30
신화타이어판매 주식회사,03,"강원특별자치도 원주시 흥업면 남원로 18(흥업리 569-1, 569-3)",강원특별자치도 원주시 흥업면 흥업리 569-3,37.29754274,127.9185667,2010-09-24,812,01,,,,09:00,18:00,033-766-7272,강원특별자치도 원주시청,033-737-3522,2025-12-30
웰빙카써비스,03,강원특별자치도 원주시 치악로 1610(단구동 168-19),강원특별자치도 원주시 단구동 168-19,37.32671667,127.9608387,2010-11-12,315,01,,,,09:00,18:00,033-763-5225,강원특별자치도 원주시청,033-737-3522,2025-12-30
㈜아우토플라츠 원주서비스,03,"강원특별자치도 원주시 북원로 2724, 3층 (태장동)",강원특별자치도 원주시 태장동 1365,37.38655597,127.9484864,2019-07-23,962,01,,,,09:00,18:00,033-737-6555,강원특별자치도 원주시청,033-737-3522,2025-12-30
주식회사 수리소 태장점,03,"강원특별자치도 원주시 소초면 장막1길 14(장양리 766-1), 105동",강원특별자치도 원주시 소초면 장양리 766-1,37.4079049,127.956273,2011-06-16,331,01,,,,09:00,18:00,033-766-6301,강원특별자치도 원주시청,033-737-3522,2025-12-30
E&B MOTORS(이앤비모터스),03,강원특별자치도 원주시 행구로 253-1(행구동 1537-3),강원특별자치도 원주시 행구동 1537-3,37.3431587,127.9839929,2011-06-30,290,01,,,,09:00,18:00,033-742-7799,강원특별자치도 원주시청,033-737-3522,2025-12-30
대명공업사,03,강원특별자치도 원주시 새동네1길 136-1(태장1동 864),강원특별자치도 원주시 태장1동 864,37.36331744,127.9516381,2011-08-05,106,01,,,,09:00,18:00,033-748-0478,강원특별자치도 원주시청,033-737-3522,2025-12-30
강원공업사,03,강원특별자치도 원주시 지정면 보통로 319,강원특별자치도 원주시 지정면 보통리 409-3,37.337944,127.8686082,2011-08-09,1474,01,,,,09:00,18:00,033-745-6085,강원특별자치도 원주시청,033-737-3522,2025-12-30
현대공업사,03,강원특별자치도 원주시 지정면 보통로 325(지정면 보통리 409-6),강원특별자치도 원주시 지정면 보통리 409-6,37.33782719,127.8688599,2012-03-28,274,01,,,,09:00,18:00,,강원특별자치도 원주시청,033-737-3522,2025-12-30
스피드메이트 AK원주점,03,"강원특별자치도 원주시 봉화로 1, AK플라자 지하2층(단계동 1123)",강원특별자치도 원주시 단계동 1123,37.3456011,127.927644,2012-04-12,136,01,,,,09:00,18:00,033-732-5051,강원특별자치도 원주시청,033-737-3522,2025-12-30
플러스자동차공업사,03,강원특별자치도 원주시 흥양로 128(태장동 377-2),강원특별자치도 원주시 태장동 377-2,37.3832642,127.9612884,2012-08-30,113,01,,,,09:00,18:00,033-745-3222,강원특별자치도 원주시청,033-737-3522,2025-12-30
대경타이어,03,강원특별자치도 원주시 원문로 246(단계동 596-10),강원특별자치도 원주시 단계동 596-10,37.35609781,127.9244809,2012-11-05,170,01,,,,09:00,18:00,033-745-4622,강원특별자치도 원주시청,033-737-3522,2025-12-30
케이씨씨오토모빌㈜,03,"강원특별자치도 원주시 북원로 2515(우산동 85-3, 85-4, 85-5, 85-7, 85-8)",강원특별자치도 원주시 우산동 85-3,37.3690282,127.9407353,2013-05-16,387,01,,,,09:00,18:00,033-813-2050,강원특별자치도 원주시청,033-737-3522,2025-12-30
뉴남원주카,03,강원특별자치도 원주시 북원로 2908(태장2동 1781),강원특별자치도 원주시 태장동 1781,37.4026471,127.9542497,2013-06-24,100,01,,,,09:00,18:00,033-747-5831,강원특별자치도 원주시청,033-737-3522,2025-12-30
문막 카 클리닉,03,강원특별자치도 원주시 구암길 18,강원특별자치도 원주시 문막읍 건등리 324번지,37.31849345,127.8302179,2013-06-27,110,01,,,,09:00,18:00,033-746-7192,강원특별자치도 원주시청,033-737-3522,2025-12-30
신흥카마스타 주식회사,03,"강원특별자치도 원주시 강변로 565(학성동 96-1, 97)",강원특별자치도 원주시 학성동 96-1,37.35440859,127.952042,2013-06-28,1111,01,,,,09:00,18:00,033-748-3533,강원특별자치도 원주시청,033-737-3522,2025-12-30
형제카엘피지,03,강원특별자치도 원주시 북원로 2580(우산동 68-26),강원특별자치도 원주시 우산동 68-26,37.3741065,127.9437416,2013-08-27,104,01,,,,09:00,18:00,033-744-3119,강원특별자치도 원주시청,033-737-3522,2025-12-30
원주밋션수리점,03,강원특별자치도 원주시 영랑길 141(행구동 1489-4),강원특별자치도 원주시 행구동 1489-4,37.3379405,127.9853683,2013-08-28,187,01,,,,09:00,18:00,033-735-0935,강원특별자치도 원주시청,033-737-3522,2025-12-30
코오롱오토모티브㈜ 원주서비스,03,강원특별자치도 원주시 무실밤골길 16,강원특별자치도 원주시 무실동 687-4,37.3274391,127.9230037,2013-09-17,106,01,,,,09:00,18:00,033-747-1500,강원특별자치도 원주시청,033-737-3522,2025-12-30
월드카서비스센터,03,강원특별자치도 원주시 호저면 신무로 20(만종리 632-3),강원특별자치도 원주시 호저면 만종리 632-3,37.35790258,127.9004966,2014-07-15,1002,01,,,,09:00,18:00,033-745-8001,강원특별자치도 원주시청,033-737-3522,2025-12-30
카카오토 카센터,03,강원특별자치도 원주시 강변로 409(개운동 391-23),강원특별자치도 원주시 개운동 391-23,37.34268682,127.960276,2014-08-19,115,01,,,,09:00,18:00,033-742-6968,강원특별자치도 원주시청,033-737-3522,2025-12-30
스피드메이트 단관점,03,강원특별자치도 원주시 나비허리길 55(단구동 1605-6),강원특별자치도 원주시 단구동 1605-6,37.32382539,127.958708,2014-10-31,108,01,,,,09:00,18:00,033-763-9400,강원특별자치도 원주시청,033-737-3522,2025-12-30
영우모터스,03,강원특별자치도 원주시 북원로 2591(우산동 63-2),강원특별자치도 원주시 우산동 63-2,37.37545902,127.943512,2014-12-24,443,01,,,,09:00,18:00,033-733-0106,강원특별자치도 원주시청,033-737-3522,2025-12-30
진영카세차장,03,강원특별자치도 원주시 늘품로 193-1,강원특별자치도 원주시 반곡동 1767-54,37.3332081,127.9631429,2015-04-30,455,01,,,,09:00,18:00,033-762-8001,강원특별자치도 원주시청,033-737-3522,2025-12-30
비앤비 모터스,03,강원특별자치도 원주시 치악로 1597,강원특별자치도 원주시 단구동 143-3,37.32536711,127.9606221,2015-06-09,460,01,,,,09:00,18:00,033-748-2559,강원특별자치도 원주시청,033-737-3522,2025-12-30
오.빵 타이어,03,강원특별자치도 원주시 남산로 216(학성동 997-49),강원특별자치도 원주시 학성동 997-49,37.35494509,127.9426746,2015-09-07,127,01,,,,09:00,18:00,033-748-5109,강원특별자치도 원주시청,033-737-3522,2025-12-30
케이지모빌리티 단계서비스프라자,03,강원특별자치도 원주시 원문로 202(단계동 497),강원특별자치도 원주시 단계동 497,37.35623442,127.9277468,2015-09-15,520,01,,,,09:00,18:00,033-733-5582,강원특별자치도 원주시청,033-737-3522,2025-12-30
대성종합자동차공업사,03,강원특별자치도 원주시 강변로 531(평원동 134),강원특별자치도 원주시 평원동 134,37.35134174,127.953326,2015-10-21,220,01,,,,09:00,18:00,033-742-5134,강원특별자치도 원주시청,033-737-3522,2025-12-30
태평양매매단지정비센터,03,"강원특별자치도 원주시 지정면 원문로 1147, 다동 4호(보통리 426-7, 426-8)",강원특별자치도 원주시 지정면 보통리 426-7,37.33541219,127.8652262,2015-11-10,138,01,,,,09:00,18:00,033-731-1908,강원특별자치도 원주시청,033-737-3522,2025-12-30
퍼포먼스원,03,강원특별자치도 원주시 동부순환로 389(봉산동 560-2),강원특별자치도 원주시 봉산동 560-2,37.35046992,127.9754475,2015-11-23,365,01,,,,09:00,18:00,070-7764-0531,강원특별자치도 원주시청,033-737-3522,2025-12-30
티스테이션 북원주점,03,강원특별자치도 원주시 북원로 2586(우산동 68-7),강원특별자치도 원주시 우산동 68-7,37.3746455,127.9440095,2016-01-07,700,01,,,,09:00,18:00,,강원특별자치도 원주시청,033-737-3522,2025-12-30
슈퍼카센타,03,강원특별자치도 원주시 치악로 2166-1(태장동 26-1),강원특별자치도 원주시 태장동 26-1,37.36995218,127.967604,2016-01-08,120,01,,,,09:00,18:00,033-744-8555,강원특별자치도 원주시청,033-737-3522,2025-12-30
한국타이어 티스테이션 단계점,03,"강원특별자치도 원주시 서원대로 54(단계동 615-5, 615-6, 615-27, 615-32, 614-6, 614-8)",강원특별자치도 원주시 단계동 615-5,37.35209553,127.9226875,2016-02-29,989,01,,,,09:00,18:00,033-731-6677,강원특별자치도 원주시청,033-737-3522,2025-12-30
기업도시카센타,03,강원특별자치도 원주시 지정면 능마루길 5-1(가곡리 1442-3),강원특별자치도 원주시 지정면 가곡리 1442-3,37.38480667,127.8733371,2016-03-18,178,01,,,,09:00,18:00,033-766-7335,강원특별자치도 원주시청,033-737-3522,2025-12-30
센트럴모터스㈜ 원주지점,03,강원특별자치도 원주시 북원로 2569(우산동 69-4),강원특별자치도 원주시 우산동 69-4,37.37371775,127.9427087,2016-03-30,210,01,,,,09:00,18:00,080-861-5100,강원특별자치도 원주시청,033-737-3522,2025-12-30
한국타이어TBX문막점,03,강원특별자치도 원주시 문막읍 원문로 2154,강원특별자치도 원주시 문막읍 반계리 103-1,37.2986073,127.7959835,2016-09-21,1137,01,,,,09:00,18:00,033-733-2622,강원특별자치도 원주시청,033-737-3522,2025-12-30
자동차주치의 닥터윤,03,강원특별자치도 원주시 치악로 1352-1,강원특별자치도 원주시 관설동 625-1,37.30837013,127.9772904,2016-10-05,281,01,,,,09:00,18:00,033-761-6831,강원특별자치도 원주시청,033-737-3522,2025-12-30
동신운수 주식회사(소초면),03,강원특별자치도 원주시 소초면 북원로 3118,강원특별자치도 원주시 소초면 장양리 1785,37.42100011,127.9645364,2016-10-17,100,01,,,,09:00,18:00,033-738-9000,강원특별자치도 원주시청,033-737-3522,2025-12-30
강원오토,03,강원특별자치도 원주시 단구로 199,강원특별자치도 원주시 개운동 356-2,37.3349042,127.9505578,2016-11-11,825,01,,,,09:00,18:00,,강원특별자치도 원주시청,033-737-3522,2025-12-30
동화카프라자,03,강원특별자치도 원주시 북원로 2553(우산동 73-14),강원특별자치도 원주시 우산동 73-7,37.3723088,127.941687,2016-11-23,557,01,,,,09:00,18:00,033-732-0804,강원특별자치도 원주시청,033-737-3522,2025-12-30
관설타이어,03,강원특별자치도 원주시 치악로 1257,강원특별자치도 원주시 관설동 716-4,37.30110339,127.9818701,2017-01-13,326,01,,,,09:00,18:00,033-762-4966,강원특별자치도 원주시청,033-737-3522,2025-12-30
한국지엠 원주만종지정서비스,03,강원특별자치도 원주시 호저면 원문로 428,강원특별자치도 원주시 호저면 만종리 312,37.3615653,127.911786,2017-01-23,304,01,,,,09:00,18:00,033-745-9889,강원특별자치도 원주시청,033-737-3522,2025-12-30
한국타이어 혁신점,03,강원특별자치도 원주시 행구로 147,강원특별자치도 원주시 행구동 1758-4,37.34253179,127.9725221,2017-02-24,1071,01,,,,09:00,18:00,033-744-2750,강원특별자치도 원주시청,033-737-3522,2025-12-30
타이어뱅크 원주점,03,강원특별자치도 원주시 원문로100번길 4,강원특별자치도 원주시 단계동 100-92,37.35737719,127.9359052,2017-03-08,368,01,,,,09:00,18:00,033-734-0009,강원특별자치도 원주시청,033-737-3522,2025-12-30
광림상사,03,강원특별자치도 원주시 정지길 239,강원특별자치도 원주시 학성동 404,37.3566824,127.9485114,2017-04-13,1407,01,,,,09:00,18:00,033-747-2791,강원특별자치도 원주시청,033-737-3522,2025-12-30
신흥자동차서비스,03,강원특별자치도 원주시 강변로 565(학성동 96-6),강원특별자치도 원주시 학성동 96-1,37.35441049,127.9520622,2017-06-07,466,01,,,,09:00,18:00,033-744-3533,강원특별자치도 원주시청,033-737-3522,2025-12-30
유진모터스,03,강원특별자치도 원주시 반곡길 144,강원특별자치도 원주시 반곡동 1617-9,37.33090472,127.9694379,2017-06-09,331,01,,,,09:00,18:00,033-764-3501,강원특별자치도 원주시청,033-737-3522,2025-12-30
강원제일공업사,03,강원특별자치도 원주시 호저면 호매곡1길 63,강원특별자치도 원주시 호저면 주산리 280-5,37.39735379,127.9286404,2017-07-07,1278,01,,,,09:00,18:00,033-742-5103,강원특별자치도 원주시청,033-737-3522,2025-12-30
현대카센터,03,강원특별자치도 원주시 소초면 갓바우길 13,강원특별자치도 원주시 소초면 수암리 1592-1,37.38496231,127.9672542,2017-08-04,468,01,,,,09:00,18:00,033-745-8555,강원특별자치도 원주시청,033-737-3522,2025-12-30
월드카,03,강원특별자치도 원주시 신림면 신림황둔로 119-16,강원특별자치도 원주시 신림면 신림리 149-2,37.24034062,128.088131,2017-12-04,382,01,,,,09:00,18:00,033-763-5093,강원특별자치도 원주시청,033-737-3522,2025-12-30
오대카센타,03,강원특별자치도 원주시 봉천길 1(봉산동),강원특별자치도 원주시 봉산동 1140-3,37.34632801,127.9588789,2018-01-19,527,01,,,,09:00,18:00,033-742-5727,강원특별자치도 원주시청,033-737-3522,2025-12-30
대도여객 정비공장,03,강원특별자치도 원주시 북원로 3118,강원특별자치도 원주시 소초면 장양리 1785번지,37.42100011,127.9645364,2018-02-13,97,01,,,,09:00,18:00,033-761-3608,강원특별자치도 원주시청,033-737-3522,2025-12-30
와일드인터내셔널,03,강원특별자치도 원주시 북원로 2561-1,강원특별자치도 원주시 우산동 73-3,37.37282653,127.941959,2018-05-03,272,01,,,,09:00,18:00,,강원특별자치도 원주시청,033-737-3522,2025-12-30
㈜광장오토모티브,03,강원특별자치도 원주시 서원대로 432,강원특별자치도 원주시 단구동 1026-29,37.328820,127.9519431,2018-08-17,668,01,,,,09:00,18:00,033-766-9611,강원특별자치도 원주시청,033-737-3522,2025-12-30
서일모터스,03,강원특별자치도 원주시 남산로 186,강원특별자치도 원주시 학성동 1054-6,37.352730,127.9411421,2018-10-18,397,01,,,,09:00,18:00,033-904-4408,강원특별자치도 원주시청,033-737-3522,2025-12-30
하모니카케어,03,강원특별자치도 원주시 단구로 200,강원특별자치도 원주시 개운동 433-5,37.334830,127.949750,2019-02-18,303,01,,,,09:00,18:00,033-746-9691,강원특별자치도 원주시청,033-737-3522,2025-12-30
에이스타이어,03,강원특별자치도 원주시 호저면 원문로 606,강원특별자치도 원주시 호저면 만종리 613-7,37.35548452,127.900549,2019-03-26,665,01,,,,09:00,18:00,033-746-5555,강원특별자치도 원주시청,033-737-3522,2025-12-30
삼화밧데리,03,강원특별자치도 원주시 무진길 4,강원특별자치도 원주시 봉산동 1017-14,37.352040,127.9557184,2019-05-03,123,01,,,,09:00,18:00,033-746-7560,강원특별자치도 원주시청,033-737-3522,2025-12-30
지정카센타,03,강원특별자치도 원주시 지정면 능골길 8,강원특별자치도 원주시 지정면 간현리 802-2,37.36488568,127.836660,2019-05-15,731,01,,,,09:00,18:00,033-732-5554,강원특별자치도 원주시청,033-737-3522,2025-12-30
엠엔엠모터스,03,강원특별자치도 원주시 양지로 64,강원특별자치도 원주시 반곡동 1897-3,37.32681862,127.9849391,2019-06-26,215,01,,,,09:00,18:00,,강원특별자치도 원주시청,033-737-3522,2025-12-30
장성자동차서비스,03,강원특별자치도 원주시 단구초교길 24,강원특별자치도 원주시 단구동 80-3,37.32233055,127.965910,2019-09-20,496,01,,,,09:00,18:00,,강원특별자치도 원주시청,033-737-3522,2025-12-30
휴먼카모터스,03,강원특별자치도 원주시 오리현길 26,강원특별자치도 원주시 반곡동 1522,37.338940,127.9687989,2019-11-28,330,01,,,,09:00,18:00,033-734-3660,강원특별자치도 원주시청,033-737-3522,2025-12-30
주식회사 수리소 명륜점,03,강원특별자치도 원주시 남원로 591(명륜동),강원특별자치도 원주시 명륜동 276,37.33657059,127.949581,2020-01-21,425,01,,,,09:00,18:00,033-766-6162,강원특별자치도 원주시청,033-737-3522,2025-12-30
치악빵구부분정비공업사,03,강원특별자치도 원주시 호저면 호매곡1길 31,강원특별자치도 원주시 호저면 주산리 320-15,37.39990254,127.9303107,2020-02-04,196,01,,,,09:00,18:00,,강원특별자치도 원주시청,033-737-3522,2025-12-30
타이어랜드,03,강원특별자치도 원주시 소초면 갓바우길 13,강원특별자치도 원주시 소초면 수암리 1592-1,37.38496232,127.9672529,2020-03-16,1136,01,,,,09:00,18:00,,강원특별자치도 원주시청,033-737-3522,2025-12-30
평우복지정비센터 원주점,03,강원특별자치도 원주시 서부순환로 110(가현동 260-11),강원특별자치도 원주시 가현동 산 17-3,37.39794201,127.9389814,2020-05-26,1300,01,,,,09:00,18:00,033-742-5207,강원특별자치도 원주시청,033-737-3522,2025-12-30
흥업대형타이어,03,강원특별자치도 원주시 흥업면 대안로 968(흥업면 대안리 311),강원특별자치도 원주시 흥업면 대안리 287-4,37.30291793,127.8923933,2020-06-12,1078,01,,,,09:00,18:00,033-761-2857,강원특별자치도 원주시청,033-737-3522,2025-12-30
바른정비,03,강원특별자치도 원주시 흥업면 원문로 915,강원특별자치도 원주시 흥업면 사제리 1349,37.34128889,127.8835117,2020-08-14,100,01,,,,09:00,18:00,033-744-5109,강원특별자치도 원주시청,033-737-3522,2025-12-30
에스에스오토모빌㈜,03,강원특별자치도 원주시 북원로 2854,강원특별자치도 원주시 태장동 1969,37.39787218,127.9530019,2020-09-14,580,01,,,,09:00,18:00,033-731-1301,강원특별자치도 원주시청,033-737-3522,2025-12-30
아우토반공업사,03,강원특별자치도 원주시 현충로 38,강원특별자치도 원주시 태장동 698-14,37.35912293,127.9549499,2020-10-15,110,01,,,,09:00,18:00,033-742-9149,강원특별자치도 원주시청,033-737-3522,2025-12-30
티디에이모터스,03,강원특별자치도 원주시 지니기길 11-12,강원특별자치도 원주시 무실동 694-9,37.32412391,127.922920,2021-01-11,165,01,,,,09:00,18:00,,강원특별자치도 원주시청,033-737-3522,2025-12-30
아진모터스,03,강원특별자치도 원주시 고문골길 27,강원특별자치도 원주시 행구동 741-1,37.34195786,128.0042109,2021-03-26,245,01,,,,09:00,18:00,,강원특별자치도 원주시청,033-737-3522,2025-12-30
프렌즈 모터스,03,"강원특별자치도 원주시 송삼길 183, 가동",강원특별자치도 원주시 무실동 1159-3,37.32754069,127.9193279,2021-04-07,604,01,,,,09:00,18:00,033-732-7933,강원특별자치도 원주시청,033-737-3522,2025-12-30
한스게라지,03,강원특별자치도 원주시 봉화로 93,강원특별자치도 원주시 단계동 455-12,37.35287323,127.9280017,2021-04-27,586,01,,,,09:00,18:00,,강원특별자치도 원주시청,033-737-3522,2025-12-30
성실밧데리,03,강원특별자치도 원주시 흥업면 사제로 433,강원특별자치도 원주시 흥업면 사제리 504-4,37.32860011,127.8872513,2021-05-03,1474,01,,,,09:00,18:00,,강원특별자치도 원주시청,033-737-3522,2025-12-30
타이어테크 서원대로점,03,강원특별자치도 원주시 서원대로 263,강원특별자치도 원주시 명륜동 310-9,37.339650,127.938800,2021-05-11,479,01,,,,09:00,18:00,033-766-8766,강원특별자치도 원주시청,033-737-3522,2025-12-30
만도카,03,강원특별자치도 원주시 원문로 244(단계동 596-1),강원특별자치도 원주시 단계동 596-1,37.356390,127.9245887,2021-11-01,258,01,,,,09:00,18:00,,강원특별자치도 원주시청,033-737-3522,2025-12-30
오토오아시스홈플러스원주점,03,"강원특별자치도 원주시 치악로 1489, 홈플러스 지하1층(관설동 1453)",강원특별자치도 원주시 관설동 1453,37.317740,127.9673142,2021-11-05,142,01,,,,09:00,18:00,,강원특별자치도 원주시청,033-737-3522,2025-12-30
동원주 선광자동차공업사,03,강원특별자치도 원주시 반곡길 172,강원특별자치도 원주시 반곡동 1377-2,37.329540,127.9720535,2022-01-11,155,01,,,,09:00,18:00,,강원특별자치도 원주시청,033-737-3522,2025-12-30
정도인터내셔널㈜ 태장점,03,"강원특별자치도 원주시 북원로 2854, 3동",강원특별자치도 원주시 태장동 1969,37.39787218,127.9530019,2022-02-22,334,01,,,,09:00,18:00,,강원특별자치도 원주시청,033-737-3522,2025-12-30
토파즈 모터스,03,강원특별자치도 원주시 문막읍 원문로 2158(반계리 1258-1),강원특별자치도 원주시 문막읍 반계리 1258-1,37.298439,127.795795,2022-03-30,187,01,,,,09:00,18:00,,강원특별자치도 원주시청,033-737-3522,2025-12-30
메카닉 에스,03,강원특별자치도 원주시 동부순환로 382-9,강원특별자치도 원주시 봉산동 457-1,37.35010305,127.9773997,2022-12-15,1162,01,,,,09:00,18:00,033-747-1987,강원특별자치도 원주시청,033-737-3522,2025-12-30
원흥카 에어컨,03,강원특별자치도 원주시 갈촌길 104-7,강원특별자치도 원주시 관설동 1573-3,37.31152767,127.9631521,2022-12-26,619,01,,,,09:00,18:00,033-764-1123,강원특별자치도 원주시청,033-737-3522,2025-12-30
한국타이어 원주대리점,03,강원특별자치도 원주시 북원로 2519(우산동 76-8),강원특별자치도 원주시 우산동 76-8,37.36946081,127.9406533,2023-02-21,323,01,,,,09:00,18:00,033-744-1555,강원특별자치도 원주시청,033-737-3522,2025-12-30
에스제이모터스,03,강원특별자치도 원주시 영랑길 117(행구동 1483-15),강원특별자치도 원주시 행구동 산 176-18,37.33901082,127.9831469,2023-02-22,377,01,,,,09:00,18:00,,강원특별자치도 원주시청,033-737-3522,2025-12-30
주식회사 와이오토모빌리티 원주지점,03,"강원특별자치도 원주시 치악로 1347, B동(관설동)",강원특별자치도 원주시 관설동 634-9,37.30807507,127.9762775,2023-03-03,400,01,,,,09:00,18:00,,강원특별자치도 원주시청,033-737-3522,2025-12-30
와이모터스,03,강원특별자치도 원주시 봉대길 16(행구동 888-11),강원특별자치도 원주시 행구동 888-11,37.33442472,127.993005,2023-04-18,419,01,,,,09:00,18:00,033-747-8375,강원특별자치도 원주시청,033-737-3522,2025-12-30
제이지모터스,03,강원특별자치도 원주시 치악로 1939,강원특별자치도 원주시 태장동 758-5,37.35388171,127.9548512,2023-07-07,1054,01,,,,09:00,18:00,033-732-6515,강원특별자치도 원주시청,033-737-3522,2025-12-30
㈜동부고속종합정비,03,강원특별자치도 원주시 동부순환로 41,강원특별자치도 원주시 반곡동 1145-8,37.32001929,127.9720221,2023-07-07,432,01,,,,09:00,18:00,033-743-3183,강원특별자치도 원주시청,033-737-3522,2025-12-30
㈜베스트상사,03,강원특별자치도 원주시 반곡길 130,강원특별자치도 원주시 반곡동 1619-1,37.33188665,127.9683643,2023-10-26,511,01,,,,09:00,18:00,033-762-8282,강원특별자치도 원주시청,033-737-3522,2025-12-30
지니카센타,03,강원특별자치도 원주시 원문로 223,강원특별자치도 원주시 단계동 490-4,37.35556874,127.9262182,2023-11-17,404,01,,,,09:00,18:00,,강원특별자치도 원주시청,033-737-3522,2025-12-30
티스테이션 원주태장점,03,강원특별자치도 원주시 현충로 298,강원특별자치도 원주시 태장동 1287-20,37.37990397,127.9487324,2023-12-08,622,01,,,,09:00,18:00,033-746-4000,강원특별자치도 원주시청,033-737-3522,2025-12-30
테슬라코리아 원주관설점,03,"강원특별자치도 원주시 치악로 1221-10, 2동",강원특별자치도 원주시 관설동 298-3,37.29884427,127.9832057,2024-03-15,625,01,,,,09:00,18:00,080-617-1399,강원특별자치도 원주시청,033-737-3522,2025-12-30
강원대형전문공업사,03,"강원특별자치도 원주시 현충로 253, 다동(부속건물 포함)",강원특별자치도 원주시 태장동 1009-1,37.37600901,127.9502365,2024-04-19,1391,01,,,,09:00,18:00,,강원특별자치도 원주시청,033-737-3522,2025-12-30
마일레오토서비스 원주신평점,03,"강원특별자치도 원주시 지정면 신무로 312, 4동",강원특별자치도 원주시 지정면 신평리 724-5,37.38237368,127.8925569,2024-05-14,1251,01,,,,09:00,18:00,033-735-7444,강원특별자치도 원주시청,033-737-3522,2025-12-30
오케이모터스,03,강원특별자치도 원주시 호저면 굴미실길 106,강원특별자치도 원주시 호저면 만종리 1026,37.35404607,127.8921245,2024-05-23,608,01,,,,09:00,18:00,,강원특별자치도 원주시청,033-737-3522,2025-12-30
차잘남모터스,03,"강원특별자치도 원주시 지정면 신지정로 205-12, 1층",강원특별자치도 원주시 지정면 가곡리 1367-6,37.37278163,127.8738885,2024-08-07,321,01,,,,09:00,18:00,,강원특별자치도 원주시청,033-737-3522,2025-12-30
원주디젤&하이브리드,03,강원특별자치도 원주시 우무개로 6(우산동),강원특별자치도 원주시 우산동 93-7,37.36481278,127.9395918,2024-08-21,373,01,,,,09:00,18:00,,강원특별자치도 원주시청,033-737-3522,2025-12-30
원팩토리,03,강원특별자치도 원주시 북원로 2483,강원특별자치도 원주시 우산동 92-18,37.36606518,127.9398955,2024-09-06,552,01,,,,09:00,18:00,,강원특별자치도 원주시청,033-737-3522,2025-12-30
티스테이션 단계점,03,"강원특별자치도 원주시 원문로205번길 2, A동",강원특별자치도 원주시 단계동 488-6,37.35554697,127.9276297,2024-09-11,509,01,,,,09:00,18:00,,강원특별자치도 원주시청,033-737-3522,2025-12-30
엔젤모터스,03,"강원특별자치도 원주시 단구로 18, 1층",강원특별자치도 원주시 단계동 786-1,37.34628545,127.9357121,2024-10-02,250,01,,,,09:00,18:00,,강원특별자치도 원주시청,033-737-3522,2025-12-30
이레카케어,03,강원특별자치도 원주시 소초면 치악로 2486-5,강원특별자치도 원주시 소초면 수암리 808-1,37.39414395,127.9862514,2024-10-16,250,01,,,,09:00,18:00,,강원특별자치도 원주시청,033-737-3522,2025-12-30
마일레오토서비스 학성점,03,강원특별자치도 원주시 충정길 29(학성동),강원특별자치도 원주시 학성동 311-38,37.35380297,127.9463126,2024-10-23,430,01,,,,09:00,18:00,,강원특별자치도 원주시청,033-737-3522,2025-12-30
오토오아시스이마트 원주점,03,"강원특별자치도 원주시 북원로 1930(무실동, GS칼텍스 내)",강원특별자치도 원주시 무실동 1062-6,37.32163119,127.9196666,2024-10-25,187,01,,,,09:00,18:00,,강원특별자치도 원주시청,033-737-3522,2025-12-30
GARAGE919(게러지919),03,강원특별자치도 원주시 영랑길 91-9,강원특별자치도 원주시 행구동 1658-102번지,37.34058746,127.9800898,2024-11-28,370,01,,,,09:00,18:00,,강원특별자치도 원주시청,033-737-3522,2025-12-30
BYD 자동차 원주서비스,03,강원특별자치도 원주시 북원로 2568,강원특별자치도 원주시 우산동 70-4,37.37340238,127.9432668,2024-12-16,2195,01,,,,09:00,18:00,,강원특별자치도 원주시청,033-737-3522,2025-12-30
타이어테크 원주점,03,강원특별자치도 원주시 늘품로 175,강원특별자치도 원주시 단구동 205-13,37.33216158,127.9608392,2025-03-10,573,01,,,,09:00,18:00,033-900-1389,강원특별자치도 원주시청,033-737-3522,2025-12-30
엠크루,03,강원특별자치도 원주시 원문로 186-2,강원특별자치도 원주시 단계동 510-9,37.35664613,127.9293707,2025-04-14,198,01,,,,09:00,18:00,,강원특별자치도 원주시청,033-737-3522,2025-12-30
르노코리아 원주대리점,03,강원특별자치도 원주시 반곡길 120,강원특별자치도 원주시 반곡동 1597-1,37.33244343,127.9677243,2025-05-30,277,01,,,,09:00,18:00,,강원특별자치도 원주시청,033-737-3522,2025-12-30
우신보링(전문),04,강원특별자치도 원주시 흥업면 사제로 580-22(사제리 162-3),강원특별자치도 원주시 흥업면 사제리 162-3,37.33647977,127.896581,2011-08-05,312,01,,,,09:00,18:00,033-748-5967,강원특별자치도 원주시청,033-737-3522,2025-12-30
