자동차정비업체명,자동차정비업체종류,소재지도로명주소,소재지지번주소,위도,경도,사업등록일자,면적,영업상태,폐업일자,휴업시작일자,휴업종료일자,운영시작시각,운영종료시각,전화번호,관리기관명,관리기관전화번호,데이터기준일자
(주)모터원,03,,경기도 파주시 파주읍 봉암리 1343-1,37.8168249613,126.7936008476,2016-09-28,124.79,01,,,,,,,경기도 파주시청,031-940-5781,2026-05-11
(주)진흥공업사,01,경기도 파주시 문산읍 우계로 430-13,경기도 파주시 문산읍 선유리 672-1,37.8579238148,126.7963573184,1972-08-28,4364,01,,,,,,,경기도 파주시청,031-940-5781,2026-05-11
(주)파주자동차정비검사소,01,경기도 파주시 천정구로 163-15,경기도 파주시 교하동 423-15,37.7483756351,126.7497368476,2020-11-20,2422,01,,,,,,,경기도 파주시청,031-940-5781,2026-05-11
(주)파주정비서비스,01,경기도 파주시 월롱면 통일로 686,경기도 파주시 월롱면 영태리 496-1,37.770739642,126.7913345474,2004-08-18,1464,01,,,,,,,경기도 파주시청,031-940-5781,2026-05-11
(주)하이크,01,경기도 파주시 운정로 98,경기도 파주시 상지석동 559-5,37.7213798811,126.7766709932,2001-10-12,1000,01,,,,,,,경기도 파주시청,031-940-5781,2026-05-11
(주)한강모터스,01,경기도 파주시 탄현면 법흥로 122,경기도 파주시 탄현면 법흥리 500-4,37.7788627082,126.7062918545,2016-03-23,1541,01,,,,,,,경기도 파주시청,031-940-5781,2026-05-11
100번지 카센타,03,경기도 파주시 파주읍 정문로558번길 5,경기도 파주시 파주읍 백석리 100,37.8062939858,126.8192517241,2009-10-22,109.4,01,,,,,,,경기도 파주시청,031-940-5781,2026-05-11
1st motors (퍼스트 모터스),03,경기도 파주시 파주읍 통일로 1561,경기도 파주시 파주읍 봉서리 472-5,37.8470134862,126.7887394043,2024-03-18,329,01,,,,,,,경기도 파주시청,031-940-5781,2026-05-11
1급 승진자동차공업사,01,경기도 파주시 조리읍 능안로 136-1,경기도 파주시 조리읍 능안리 40-8,37.741873122,126.7925370117,2012-05-07,1457,01,,,,,,,경기도 파주시청,031-940-5781,2026-05-11
21세기자동차공업사,03,경기도 파주시 월롱산로 52,경기도 파주시 야동동 252-6,37.7809201188,126.7651291328,1999-05-07,684,01,,,,,,,경기도 파주시청,031-940-5781,2026-05-11
365타이어 문산점,03,경기도 파주시 문산읍 문향로 6,경기도 파주시 문산읍 문산리 17-192,37.8526588821,126.7868101756,2010-09-10,261.2,01,,,,,,,경기도 파주시청,031-940-5781,2026-05-11
3KS MOTORS(쓰리케이스모터스),02,경기도 파주시 하우3길 17,경기도 파주시 야당동 59-1,37.7182966615,126.7712162209,2017-06-22,739,01,,,,,,,경기도 파주시청,031-940-5781,2026-05-11
911 Service,03,경기도 파주시 청석로 12-2,경기도 파주시 동패동 1341,37.7066796637,126.7296874822,2016-10-11,198,01,,,,,,,경기도 파주시청,031-940-5781,2026-05-11
ALL MOTORS,03,경기도 파주시 교하로 525,경기도 파주시 동패동 581-6,37.7053219744,126.7205602688,2023-01-03,152.23,01,,,,,,,경기도 파주시청,031-940-5781,2026-05-11
Bosch Car Service 제일오토샵,03,경기도 파주시 순못길 14-12,경기도 파주시 다율동 999-11,37.7273520038,126.716503464,1997-09-18,239.5,01,,,,,,,경기도 파주시청,031-940-5781,2026-05-11
BUZZA MOTORS 부짜모터스,03,경기도 파주시 지목로 113,경기도 파주시 신촌동 58-8,37.7285221257,126.702335289,2019-09-03,168,01,,,,,,,경기도 파주시청,031-940-5781,2026-05-11
Cars motors,03,경기도 파주시 심학산로 71,경기도 파주시 서패동 148,37.7162136101,126.699239712,2020-10-27,552,01,,,,,,,경기도 파주시청,031-940-5781,2026-05-11
CarSsem,03,경기도 파주시 조리읍 문원길 238,경기도 파주시 조리읍 대원리 257,37.7249846206,126.8138429625,2022-05-20,753,01,,,,,,,경기도 파주시청,031-940-5781,2026-05-11
DEVIL 모터스,03,경기도 파주시 법원읍 화합로474번길 57,경기도 파주시 법원읍 갈곡리 63-11,37.846429517,126.9179898399,2024-07-25,470,01,,,,,,,경기도 파주시청,031-940-5781,2026-05-11
DJ모터스,03,경기도 파주시 월롱면 엘지로386번길 2,경기도 파주시 월롱면 덕은리 816-6,37.817203728,126.7590334284,2012-02-27,158.68,01,,,,,,,경기도 파주시청,031-940-5781,2026-05-11
DOC POWER,03,경기도 파주시 탄현면 방촌로 579-61,경기도 파주시 탄현면 축현리 899-2,37.7962847488,126.7137280734,2010-12-29,198,01,,,,,,,경기도 파주시청,031-940-5781,2026-05-11
DS Motors,03,경기도 파주시 와석순환로172번길 7-25,경기도 파주시 동패동 1831-1,37.7147497644,126.7401920302,2019-11-25,268.12,01,,,,,,,경기도 파주시청,031-940-5781,2026-05-11
EJmotors,03,경기도 파주시 교하로 753,경기도 파주시 서패동 66-1,37.7148847807,126.7002701287,1998-01-12,95,01,,,,,,,경기도 파주시청,031-940-5781,2026-05-11
e-모터스,03,경기도 파주시 시청로 145,경기도 파주시 아동동 322-13,37.7667533061,126.7797853229,2021-02-23,129.13,01,,,,,,,경기도 파주시청,031-940-5781,2026-05-11
For Car,03,경기도 파주시 문산읍 통일로 1675-2,경기도 파주시 문산읍 문산리 17-278,37.8567871296,126.7885609509,2016-10-12,518,01,,,,,,,경기도 파주시청,031-940-5781,2026-05-11
G1 trading,03,경기도 파주시 산남로 86,경기도 파주시 산남동 246-2,37.6994218781,126.6940671769,2017-03-20,929,01,,,,,,,경기도 파주시청,031-940-5781,2026-05-11
GM 대우자동차 교하 바로정비,03,경기도 파주시 유채꽃길 111,경기도 파주시 문발동 583-6,37.722325373,126.7058244708,2010-12-13,106.4,01,,,,,,,경기도 파주시청,031-940-5781,2026-05-11
GS RESTORE,01,경기도 파주시 교하로863번길 31,경기도 파주시 문발동 60-3,37.7253068146,126.7011499868,2016-01-07,620,01,,,,,,,경기도 파주시청,031-940-5781,2026-05-11
GTSM,03,경기도 파주시 구절초길 25-12,경기도 파주시 문발동 615-4,37.719159387,126.7100515095,2020-03-13,133.76,01,,,,,,,경기도 파주시청,031-940-5781,2026-05-11
HONG CAR,03,경기도 파주시 문산읍 방촌로 1491,경기도 파주시 문산읍 내포리 517-1,37.8518887189,126.7663283483,2016-06-17,848,01,,,,,,,경기도 파주시청,031-940-5781,2026-05-11
JH&VOLVO TRUCKS,03,경기도 파주시 월롱면 누현길 114,경기도 파주시 월롱면 위전리 464-1,37.790482282,126.7924325124,2014-07-29,82.05,01,,,,,,,경기도 파주시청,031-940-5781,2026-05-11
JK공업사,01,경기도 파주시 아리랑로 8,경기도 파주시 금촌동 494-2,37.7619083208,126.7678807188,2008-10-31,2936,01,,,,,,,경기도 파주시청,031-940-5781,2026-05-11
JM모터스,03,경기도 파주시 문산읍 돈유안길 51,경기도 파주시 문산읍 선유리 1370,37.8601677015,126.8048047531,2017-02-24,288.4,01,,,,,,,경기도 파주시청,031-940-5781,2026-05-11
JN자동차공업사,01,경기도 파주시 창곡동길 39,경기도 파주시 야동동 151-3,37.7728563892,126.7640311837,2014-12-17,1512,01,,,,,,,경기도 파주시청,031-940-5781,2026-05-11
JY모터스,03,경기도 파주시 월롱면 엘지로 196,경기도 파주시 월롱면 덕은리 1037,37.8122497544,126.7785061045,2021-03-30,136,01,,,,,,,경기도 파주시청,031-940-5781,2026-05-11
KJ모터스,03,경기도 파주시 조리읍 명봉산로 207-10,경기도 파주시 조리읍 장곡리 14-9,37.7443897234,126.851001979,2022-07-26,998,01,,,,,,,경기도 파주시청,031-940-5781,2026-05-11
kW 모터스,03,경기도 파주시 산남로 139,경기도 파주시 산남동 185-1,37.6980620744,126.6989462409,2024-06-13,458,01,,,,,,,경기도 파주시청,031-940-5781,2026-05-11
K오토,03,경기도 파주시 운정로 103,경기도 파주시 상지석동 587-9,37.7217518106,126.7771518223,2003-10-14,176,01,,,,,,,경기도 파주시청,031-940-5781,2026-05-11
LG부분정비공업사,03,경기도 파주시 월롱면 엘지로157번길 5,경기도 파주시 월롱면 덕은리 443,37.8095530701,126.7814321943,1998-01-16,340,01,,,,,,,경기도 파주시청,031-940-5781,2026-05-11
Lims garage,03,경기도 파주시 가람로21번길 61-35,경기도 파주시 와동동 1628-1,37.7358010415,126.7506822196,2016-08-22,276.1,01,,,,,,,경기도 파주시청,031-940-5781,2026-05-11
MK모터스,03,경기도 파주시 평화로 55,경기도 파주시 금촌동 928-15,37.7624501941,126.7701502565,2000-08-30,190,01,,,,,,,경기도 파주시청,031-940-5781,2026-05-11
MS자동차공업사,03,경기도 파주시 지목로 44-2,경기도 파주시 문발동 278-3,37.7258721305,126.6959890645,2010-06-23,192.3,01,,,,,,,경기도 파주시청,031-940-5781,2026-05-11
M모터스,03,경기도 파주시 법원읍 술이홀로961번길 2,경기도 파주시 법원읍 법원리 520-10,37.8561629158,126.878007362,2010-08-31,79.95,01,,,,,,,경기도 파주시청,031-940-5781,2026-05-11
NK특장공업사,03,경기도 파주시 신촌로 42-32,경기도 파주시 신촌동 86-9,37.7285296484,126.6990173739,2015-09-30,198,01,,,,,,,경기도 파주시청,031-940-5781,2026-05-11
S MOTORS,03,경기도 파주시 평화로 72,경기도 파주시 금촌동 329-261,37.7638656609,126.7701308955,2018-10-25,821,01,,,,,,,경기도 파주시청,031-940-5781,2026-05-11
The R Motors,03,경기도 파주시 동서대로 377,경기도 파주시 동패동 591-22,37.7029686614,126.7199636773,2007-03-20,84.6,01,,,,,,,경기도 파주시청,031-940-5781,2026-05-11
TOP MOTORS,03,경기도 파주시 탄현면 월롱산로 451,경기도 파주시 탄현면 금승리 259-3,37.8131943948,126.747762603,2021-04-08,113.4,01,,,,,,,경기도 파주시청,031-940-5781,2026-05-11
T모터스,03,경기도 파주시 쇠재안길 12-11,경기도 파주시 금릉동 439-10,37.7525581958,126.7798544067,2016-02-04,96.03,01,,,,,,,경기도 파주시청,031-940-5781,2026-05-11
U Cars,03,경기도 파주시 평화로428번길 26,경기도 파주시 검산동 581-1,37.7744166637,126.7355937571,2013-08-06,420,01,,,,,,,경기도 파주시청,031-940-5781,2026-05-11
U모터스,03,경기도 파주시 숲속노을로 322,경기도 파주시 문발동 545-5,37.7283393707,126.7079390569,2019-04-04,86.82,01,,,,,,,경기도 파주시청,031-940-5781,2026-05-11
XRAY MOTORS,02,경기도 파주시 교하로 1311,경기도 파주시 교하동 612-10,37.7506918556,126.7382956056,2011-05-16,1728,01,,,,,,,경기도 파주시청,031-940-5781,2026-05-11
YOU GARAGE,03,경기도 파주시 운정로 174,경기도 파주시 상지석동 540-2,37.7192895725,126.7838922646,2019-07-01,815,01,,,,,,,경기도 파주시청,031-940-5781,2026-05-11
가람로중앙점 현대자동차,03,경기도 파주시 가람로21번길 7-20,경기도 파주시 와동동 1620-5,37.7341749547,126.7511419044,2012-06-28,103.43,01,,,,,,,경기도 파주시청,031-940-5781,2026-05-11
가람현모터스,03,경기도 파주시 가람로21번길 16-29,경기도 파주시 와동동 1595-5,37.7349874661,126.7539403891,2021-08-02,176.21,01,,,,,,,경기도 파주시청,031-940-5781,2026-05-11
갈현자동차공업사,02,경기도 파주시 탄현면 평화로 650,경기도 파주시 탄현면 법흥리 169-5,37.7770757757,126.7142567706,2011-08-05,776,01,,,,,,,경기도 파주시청,031-940-5781,2026-05-11
건영모터스,03,경기도 파주시 월롱면 홀작로 81,경기도 파주시 월롱면 도내리 228,37.7855714138,126.8242218482,2011-07-01,234.9,01,,,,,,,경기도 파주시청,031-940-5781,2026-05-11
검산자동차공업사,03,경기도 파주시 평화로 340,경기도 파주시 검산동 266-15,37.7726483633,126.7447963197,2003-04-12,166,01,,,,,,,경기도 파주시청,031-940-5781,2026-05-11
경동자동차공업사,03,경기도 파주시 문산읍 사임당로 230,경기도 파주시 문산읍 이천리 626-3,37.8675984825,126.815491224,2000-02-01,111,01,,,,,,,경기도 파주시청,031-940-5781,2026-05-11
경한자동차공업사,03,경기도 파주시 아리랑로 5,경기도 파주시 금촌동 495-12,37.7615225524,126.7679846294,1998-09-26,357,01,,,,,,,경기도 파주시청,031-940-5781,2026-05-11
고향길카센터,03,경기도 파주시 문산읍 문향로39번길 62,경기도 파주시 문산읍 문산리 36-6,37.8549989469,126.7823917694,2019-12-27,846,01,,,,,,,경기도 파주시청,031-940-5781,2026-05-11
공임나라 운정동패점,03,경기도 파주시 교하로 495,경기도 파주시 동패동 312-1,37.7043416609,126.7239501421,2023-08-03,485,01,,,,,,,경기도 파주시청,031-940-5781,2026-05-11
광탄삼거리자동차정비공업사,03,경기도 파주시 광탄면 외화산길 16,경기도 파주시 광탄면 신산리 575-7,37.782875967,126.8438296928,1998-01-12,198,01,,,,,,,경기도 파주시청,031-940-5781,2026-05-11
광탄자동차공업사,02,경기도 파주시 광탄면 수레길 424,경기도 파주시 광탄면 분수리 460-12,37.7700674487,126.8496657691,2017-05-29,1218,01,,,,,,,경기도 파주시청,031-940-5781,2026-05-11
광탄자동차공업사,02,,경기도 파주시 광탄면 신산리 351-12,37.7868807886,126.8447516049,2026-01-05,660,01,,,,,,,경기도 파주시청,031-940-5781,2026-05-11
광탄현대로얄공업사,02,경기도 파주시 광탄면 만장산로 128,경기도 파주시 광탄면 신산리 20-1,37.7865882552,126.8555256094,2008-07-17,1243,01,,,,,,,경기도 파주시청,031-940-5781,2026-05-11
교하 카 서비스,03,경기도 파주시 유채꽃길 111,경기도 파주시 문발동 583-6,37.722325373,126.7058244708,2025-12-09,384,01,,,,,,,경기도 파주시청,031-940-5781,2026-05-11
교하당하점 현대자동차,03,경기도 파주시 천정구로 81-1,경기도 파주시 당하동 112-6,37.7427791595,126.7513389942,2011-10-21,795,01,,,,,,,경기도 파주시청,031-940-5781,2026-05-11
교하모터스,03,경기도 파주시 교하로 915,경기도 파주시 문발동 45-6,37.7280304124,126.7055421388,2010-11-12,98.34,01,,,,,,,경기도 파주시청,031-940-5781,2026-05-11
교하북부점기아오토큐,03,경기도 파주시 당하길 31,경기도 파주시 당하동 201-1,37.7459634469,126.7501891765,2001-10-18,298,01,,,,,,,경기도 파주시청,031-940-5781,2026-05-11
국제자동차보링공업사,04,경기도 파주시 탄현면 가시내길 40,경기도 파주시 탄현면 법흥리 158-2,37.7779763257,126.7146449186,2011-05-23,777,01,,,,,,,경기도 파주시청,031-940-5781,2026-05-11
국조자동차공업사,03,경기도 파주시 광탄면 기산로 7,경기도 파주시 광탄면 영장리 313-6,37.7710510448,126.9010415246,2009-09-29,103,01,,,,,,,경기도 파주시청,031-940-5781,2026-05-11
그린월드공업사,02,경기도 파주시 법원읍 보광로 2009,경기도 파주시 법원읍 가야리 325-5,37.8499846263,126.8579817829,2010-05-04,1118,01,,,,,,,경기도 파주시청,031-940-5781,2026-05-11
그린자동차공업사,03,경기도 파주시 적성면 솥뒤로 87,경기도 파주시 적성면 마지리 193-25,37.9596692022,126.9113040372,2010-01-15,160,01,,,,,,,경기도 파주시청,031-940-5781,2026-05-11
그린자동차법원점,03,경기도 파주시 법원읍 술이홀로 945,경기도 파주시 법원읍 법원리 488-2,37.8548494501,126.8769978834,1998-10-10,114,01,,,,,,,경기도 파주시청,031-940-5781,2026-05-11
그린자동차정비,03,경기도 파주시 광탄면 장지산로 30,경기도 파주시 광탄면 용미리 222-4,37.7392085193,126.8857764653,2019-06-26,188.1,01,,,,,,,경기도 파주시청,031-940-5781,2026-05-11
금강보링,04,경기도 파주시 탄현면 방촌로 602-20,경기도 파주시 탄현면 축현리 435-1,37.7977673829,126.7187857431,2014-04-18,1039,01,,,,,,,경기도 파주시청,031-940-5781,2026-05-11
금정모터스,03,경기도 파주시 금정4길 11,경기도 파주시 금촌동 774-7,37.7567074007,126.7768779263,2016-05-13,186.2,01,,,,,,,경기도 파주시청,031-940-5781,2026-05-11
금촌동부점 현대자동차,03,경기도 파주시 시청로 59,경기도 파주시 아동동 218-4,37.7606087794,126.7796665638,2012-09-28,223.25,01,,,,,,,경기도 파주시청,031-940-5781,2026-05-11
금촌북부점 현대자동차,03,경기도 파주시 시청로 229,경기도 파주시 금촌동 424-107,37.7710235429,126.7735738072,2006-04-20,107.58,01,,,,,,,경기도 파주시청,031-940-5781,2026-05-11
금촌자동차정비,03,경기도 파주시 금정로 14,경기도 파주시 금촌동 774-12,37.7565776829,126.7764611677,2010-11-30,67.5,01,,,,,,,경기도 파주시청,031-940-5781,2026-05-11
금촌자유로공업사,02,경기도 파주시 방촌로 352,경기도 파주시 맥금동 413,37.777513197,126.7260185416,1995-02-18,769,01,,,,,,,경기도 파주시청,031-940-5781,2026-05-11
금촌점 기아오토큐,03,경기도 파주시 쇠재개울길 86,경기도 파주시 금릉동 446-7,37.7506891728,126.7802088638,2017-02-21,119.55,01,,,,,,,경기도 파주시청,031-940-5781,2026-05-11
금촌점기아오토큐,03,경기도 파주시 쇠재1길 45,경기도 파주시 금릉동 445-7,37.7509194812,126.7803653388,2006-12-19,123,01,,,,,,,경기도 파주시청,031-940-5781,2026-05-11
금화자동차공업사,03,경기도 파주시 광탄면 새뜰길 6,경기도 파주시 광탄면 신산리 191-2,37.7787366917,126.850439512,1998-10-26,122,01,,,,,,,경기도 파주시청,031-940-5781,2026-05-11
기아 오토샵,03,경기도 파주시 와석순환로192번길 14-2,경기도 파주시 동패동 1828,37.7153005901,126.7400159002,2006-06-23,198,01,,,,,,,경기도 파주시청,031-940-5781,2026-05-11
기아오토큐 운정점,03,경기도 파주시 동패샘길 255,경기도 파주시 동패동 287-4,37.7064245652,126.7318430509,2018-11-06,1280,01,,,,,,,경기도 파주시청,031-940-5781,2026-05-11
나우리카써비스,03,경기도 파주시 광탄면 부흥로 12-16,경기도 파주시 광탄면 창만리 566-48,37.8074261952,126.8495502065,2015-06-18,169.2,01,,,,,,,경기도 파주시청,031-940-5781,2026-05-11
남경오토,03,경기도 파주시 월롱면 월롱초교길 101,경기도 파주시 월롱면 덕은리 312-1,37.7978410473,126.7811789918,2022-10-07,432,01,,,,,,,경기도 파주시청,031-940-5781,2026-05-11
남경자동차정비,01,경기도 파주시 조리읍 등원로 261,경기도 파주시 조리읍 오산리 387-3,37.7679218997,126.8245742722,2007-12-26,979.2,01,,,,,,,경기도 파주시청,031-940-5781,2026-05-11
남경자동차정비(적성점),01,경기도 파주시 적성면 감악산로1241번길 59,경기도 파주시 적성면 구읍리 578-2,37.9585920554,126.9230979841,1997-08-22,1414,01,,,,,,,경기도 파주시청,031-940-5781,2026-05-11
남경자동차정비(탄현점),01,경기도 파주시 탄현면 검산로 349,경기도 파주시 탄현면 축현리 69-2,37.8021497765,126.738926811,2012-06-26,1286,01,,,,,,,경기도 파주시청,031-940-5781,2026-05-11
남부자동차서비스,01,경기도 파주시 파주읍 정문로588번길 56,경기도 파주시 파주읍 부곡리 406-1,37.8101253953,126.8218516716,2017-01-19,4806,01,,,,,,,경기도 파주시청,031-940-5781,2026-05-11
다율점 현대자동차,03,경기도 파주시 청암로48번길 16-4,경기도 파주시 목동동 885,37.7329185166,126.7362481408,2004-08-20,165,01,,,,,,,경기도 파주시청,031-940-5781,2026-05-11
대능현대자동차공업사,02,경기도 파주시 법원읍 술이홀로 796,경기도 파주시 법원읍 대능리 237-3,37.8460803458,126.8652620572,2009-08-11,827,01,,,,,,,경기도 파주시청,031-940-5781,2026-05-11
대덕자동차서비스,01,경기도 파주시 문산읍 임진나루길 346-84,경기도 파주시 문산읍 당동리 26,37.8746742864,126.788557573,2017-11-09,548.01,01,,,,,,,경기도 파주시청,031-940-5781,2026-05-11
대림카모터스,03,경기도 파주시 천정구로 95,경기도 파주시 당하동 302-6,37.7439944419,126.75166589,2012-02-17,330,01,,,,,,,경기도 파주시청,031-940-5781,2026-05-11
대성공업사,03,경기도 파주시 월롱면 정문로 325,경기도 파주시 월롱면 도내리 612-3,37.7879326713,126.8134520945,2011-05-16,155,01,,,,,,,경기도 파주시청,031-940-5781,2026-05-11
대성자동차공업,02,경기도 파주시 파주읍 주라위길 366,경기도 파주시 파주읍 봉암리 63-21,37.8168706346,126.8059135852,2000-08-18,653,01,,,,,,,경기도 파주시청,031-940-5781,2026-05-11
대신자동차정비센타,02,경기도 파주시 조리읍 고산말길 10-29,경기도 파주시 조리읍 등원리 389-8,37.7517417895,126.800000508,2010-05-06,801,01,,,,,,,경기도 파주시청,031-940-5781,2026-05-11
대신카센타,03,경기도 파주시 탄현면 방촌로 644,경기도 파주시 탄현면 축현리 480,37.8016298783,126.7183333734,2019-09-05,188,01,,,,,,,경기도 파주시청,031-940-5781,2026-05-11
대우자동차공업사,03,경기도 파주시 교하로 467,경기도 파주시 동패동 325-3,37.7043403277,126.7268888983,2006-05-01,184.38,01,,,,,,,경기도 파주시청,031-940-5781,2026-05-11
대우트럭 파주정비사업소 주식회사,01,경기도 파주시 월롱면 홀작로 107,경기도 파주시 월롱면 도내리 197-1,37.7843478863,126.826762062,2011-11-15,1654,01,,,,,,,경기도 파주시청,031-940-5781,2026-05-11
대원자동차정비공업사,03,경기도 파주시 적성면 감악산로1241번길 55,경기도 파주시 적성면 구읍리 577-4,37.9586461314,126.9235430712,1999-02-02,143,01,,,,,,,경기도 파주시청,031-940-5781,2026-05-11
대한자동차정비공업사,03,경기도 파주시 조리읍 등원로 89,경기도 파주시 조리읍 등원리 7-9,37.761350457,126.8092708591,2004-04-12,429,01,,,,,,,경기도 파주시청,031-940-5781,2026-05-11
대현자동차공업사,03,경기도 파주시 마무리길 12-16,경기도 파주시 아동동 343-1,37.7606531733,126.7792206628,1998-11-10,109,01,,,,,,,경기도 파주시청,031-940-5781,2026-05-11
대호카크리닉,03,경기도 파주시 조리읍 등원로 189,경기도 파주시 조리읍 뇌조리 375-1,37.7642122708,126.8187407667,2005-08-23,108,01,,,,,,,경기도 파주시청,031-940-5781,2026-05-11
더쎈 타이어,03,경기도 파주시 조리읍 명봉산로 46,경기도 파주시 조리읍 장곡리 535-7,37.7323793981,126.8411651023,2016-11-28,224.85,01,,,,,,,경기도 파주시청,031-940-5781,2026-05-11
더타이어샵 봉일천점,03,경기도 파주시 조리읍 통일로 477-10,경기도 파주시 조리읍 등원리 409-25,37.7555893518,126.8014852152,2024-01-25,655,01,,,,,,,경기도 파주시청,031-940-5781,2026-05-11
덕삼자동차공업사,03,경기도 파주시 월롱면 월롱초교길 17,경기도 파주시 월롱면 덕은리 338-10,37.8011229299,126.7818378746,2000-10-13,165.6,01,,,,,,,경기도 파주시청,031-940-5781,2026-05-11
덕일카센타,03,경기도 파주시 운정로 169,경기도 파주시 상지석동 1892,37.7199465831,126.7841013226,2017-08-18,262.8,01,,,,,,,경기도 파주시청,031-940-5781,2026-05-11
동문자동차정비공업사,03,경기도 파주시 조리읍 고봉로 932,경기도 파주시 조리읍 대원리 644,37.7343167474,126.8042046904,2007-11-15,90.45,01,,,,,,,경기도 파주시청,031-940-5781,2026-05-11
동문현대 1급자동차공업사,01,경기도 파주시 교하로 1207,경기도 파주시 오도동 14-3,37.7447439132,126.729617521,2010-11-09,1532.05,01,,,,,,,경기도 파주시청,031-940-5781,2026-05-11
동아에이알시㈜,01,경기도 파주시 문산읍 배머리길 430,경기도 파주시 문산읍 이천리 53,37.8736802285,126.8456581361,2021-01-11,1070,01,,,,,,,경기도 파주시청,031-940-5781,2026-05-11
동원모터스,03,경기도 파주시 구절초길 31-9,경기도 파주시 문발동 615-2,37.7192994921,126.7098335339,2008-05-14,133.2,01,,,,,,,경기도 파주시청,031-940-5781,2026-05-11
동원자동차정비공업사,03,경기도 파주시 조리읍 공릉장터길 27,경기도 파주시 조리읍 봉일천리 157-39,37.7431535633,126.805801714,1998-11-05,126,01,,,,,,,경기도 파주시청,031-940-5781,2026-05-11
동패점 현대자동차,03,경기도 파주시 동패로7번길 52,경기도 파주시 동패동 1981-5,37.7091980635,126.7344468493,2013-05-23,179.31,01,,,,,,,경기도 파주시청,031-940-5781,2026-05-11
두원현대서비스,01,경기도 파주시 조리읍 통일로 477-14,경기도 파주시 조리읍 등원리 409-13,37.7555217876,126.8012762571,2013-06-12,3593,01,,,,,,,경기도 파주시청,031-940-5781,2026-05-11
두일카서비스,03,경기도 파주시 돌단풍길 8,경기도 파주시 문발동 612-4,37.7192687873,126.7116034866,2008-03-14,147,01,,,,,,,경기도 파주시청,031-940-5781,2026-05-11
드림모터스,03,경기도 파주시 법원읍 사임당로770번길 7-11,경기도 파주시 법원읍 가야리 376-5,37.8499370513,126.8670849201,2013-11-13,142.08,01,,,,,,,경기도 파주시청,031-940-5781,2026-05-11
드림카서비스,03,경기도 파주시 조리읍 대원로 114,경기도 파주시 조리읍 대원리 325-6,37.7299119816,126.8103669067,2015-09-17,349,01,,,,,,,경기도 파주시청,031-940-5781,2026-05-11
라움오토,01,경기도 파주시 탄현면 갈현로 45,경기도 파주시 탄현면 갈현리 322-45,37.7731193983,126.7195502729,2006-11-07,1653,01,,,,,,,경기도 파주시청,031-940-5781,2026-05-11
레디모터스,02,경기도 파주시 면산말길 48,경기도 파주시 아동동 270-1,37.7693652012,126.7813347752,2002-05-20,496,01,,,,,,,경기도 파주시청,031-940-5781,2026-05-11
르노삼성자동차 서비스코너 파주교하점,03,경기도 파주시 파주로 584,경기도 파주시 당하동 230-20,37.7403619544,126.7511251642,2011-11-25,148.2,01,,,,,,,경기도 파주시청,031-940-5781,2026-05-11
르노코리아자동차 서비스코너 파주금촌점,03,경기도 파주시 강천길 86,경기도 파주시 금촌동 469-6,37.763018164,126.7671224374,2014-09-18,396,01,,,,,,,경기도 파주시청,031-940-5781,2026-05-11
르노코리아자동차지정정비센타 파주정비,01,경기도 파주시 파주읍 샛봉우재길 20-12,경기도 파주시 파주읍 봉암리 443-20,37.8204594646,126.7928771785,2015-05-29,2288,01,,,,,,,경기도 파주시청,031-940-5781,2026-05-11
리ㆍ본 프로젝트,03,경기도 파주시 소라지로 8-11,경기도 파주시 연다산동 378-2,37.7337714066,126.7101702624,2024-07-17,1156,01,,,,,,,경기도 파주시청,031-940-5781,2026-05-11
마니모터스,03,경기도 파주시 월롱산로 114,경기도 파주시 야동동 274,37.7849860106,126.7609356965,2026-03-10,870,01,,,,,,,경기도 파주시청,031-940-5781,2026-05-11
마이카코리아,03,경기도 파주시 교하로 879,경기도 파주시 문발동 69-6,37.7256441329,126.7030379456,2015-07-31,164.58,01,,,,,,,경기도 파주시청,031-940-5781,2026-05-11
만도프라자 금촌점,03,경기도 파주시 금정7길 51,경기도 파주시 금촌동 788-1,37.7563106482,126.7746221455,1997-09-10,200,01,,,,,,,경기도 파주시청,031-940-5781,2026-05-11
만물카프라자,03,경기도 파주시 적성면 청송로 1053,경기도 파주시 적성면 구읍리 588-7,37.9559962324,126.9216616499,2003-06-20,99,01,,,,,,,경기도 파주시청,031-940-5781,2026-05-11
맥금종합카,03,경기도 파주시 방촌로 406,경기도 파주시 맥금동 661-20,37.7817207642,126.7233922303,2003-02-18,121,01,,,,,,,경기도 파주시청,031-940-5781,2026-05-11
맥금차사랑서비스,03,경기도 파주시 방촌로 318,경기도 파주시 맥금동 379-3,37.7743261102,126.7263561785,2004-07-29,193,01,,,,,,,경기도 파주시청,031-940-5781,2026-05-11
명석카서비스,03,경기도 파주시 시청로 95,경기도 파주시 아동동 228-5,37.7627589614,126.7818137392,2008-10-06,684,01,,,,,,,경기도 파주시청,031-940-5781,2026-05-11
명성자동차공업사,03,경기도 파주시 조리읍 등원로 133-1,경기도 파주시 조리읍 뇌조리 418-19,37.7644479519,126.8128540981,2003-03-24,147,01,,,,,,,경기도 파주시청,031-940-5781,2026-05-11
명인카센타,03,경기도 파주시 번영로 33-3,경기도 파주시 금촌동 960-16,37.7575092443,126.7695195014,1999-08-06,296.3,01,,,,,,,경기도 파주시청,031-940-5781,2026-05-11
명품카센타,03,경기도 파주시 적성면 청송로 953,경기도 파주시 적성면 마지리 126-9,37.9505472122,126.9126127428,2008-06-17,112.5,01,,,,,,,경기도 파주시청,031-940-5781,2026-05-11
모션,03,경기도 파주시 신덕로 95,경기도 파주시 동패동 140-7,37.7052179991,126.7389971793,2017-08-21,318,01,,,,,,,경기도 파주시청,031-940-5781,2026-05-11
모션팩토리,03,경기도 파주시 교하로 1097-6,경기도 파주시 다율동 526-6,37.7394673498,126.7199098559,2025-05-26,848,01,,,,,,,경기도 파주시청,031-940-5781,2026-05-11
모터랩스 파주점,03,경기도 파주시 조리읍 베리고개길 64-19,경기도 파주시 조리읍 등원리 438-12,37.7563800359,126.7976162067,2019-04-19,1000,01,,,,,,,경기도 파주시청,031-940-5781,2026-05-11
모터스퀘어,03,경기도 파주시 소라지로 138-39,경기도 파주시 연다산동 415,37.7397387569,126.7014213558,2022-04-22,1183,01,,,,,,,경기도 파주시청,031-940-5781,2026-05-11
문산점 기아오토큐,03,경기도 파주시 문산읍 독산로 15,경기도 파주시 문산읍 문산리 69-2,37.8578457153,126.7802769688,2008-04-24,488,01,,,,,,,경기도 파주시청,031-940-5781,2026-05-11
문산점현대자동차,03,경기도 파주시 파주읍 충현로 42-8,경기도 파주시 파주읍 봉서리 392-3,37.849311743,126.7933715313,2001-12-19,120,01,,,,,,,경기도 파주시청,031-940-5781,2026-05-11
문산지정서비스(GM),03,경기도 파주시 파주읍 충현로 42-26,경기도 파주시 파주읍 봉서리 389-1,37.8495601793,126.7943746815,2007-11-01,322,01,,,,,,,경기도 파주시청,031-940-5781,2026-05-11
문산캬브레다,03,경기도 파주시 문산읍 당동1로 25-12,경기도 파주시 문산읍 당동리 916-3,37.8617687186,126.7746044631,1997-10-14,104,01,,,,,,,경기도 파주시청,031-940-5781,2026-05-11
문산캬브레타 금촌점,03,경기도 파주시 시청로 241,경기도 파주시 금촌동 418-18,37.7710481608,126.7722292001,2003-03-27,119,01,,,,,,,경기도 파주시청,031-940-5781,2026-05-11
문산현대모터스,03,경기도 파주시 문산읍 문향로 112,경기도 파주시 문산읍 선유리 942,37.8610461535,126.7879401347,1997-11-18,651,01,,,,,,,경기도 파주시청,031-940-5781,2026-05-11
문영자동차공업사,03,경기도 파주시 월롱면 통일로 764,경기도 파주시 월롱면 영태리 580-5,37.7773548279,126.7889834252,1998-06-12,263,01,,,,,,,경기도 파주시청,031-940-5781,2026-05-11
미경카3급공업사,03,경기도 파주시 탄현면 헤이리로 99,경기도 파주시 탄현면 법흥리 683-2,37.7931688628,126.6948419195,2009-08-26,73.4,01,,,,,,,경기도 파주시청,031-940-5781,2026-05-11
미래로카센타,03,경기도 파주시 미래로 292,경기도 파주시 동패동 20-1,37.7043446364,126.7464900241,2015-03-04,200,01,,,,,,,경기도 파주시청,031-940-5781,2026-05-11
믿음자동차공업사,03,경기도 파주시 파주읍 혜음로 1662,경기도 파주시 파주읍 연풍리 113-26,37.8267204003,126.8415385362,2002-12-17,249,01,,,,,,,경기도 파주시청,031-940-5781,2026-05-11
믿음카공업사,03,경기도 파주시 문산읍 문향로75번길 68-6,경기도 파주시 문산읍 문산리 81-13,37.86054574,126.7845508357,2005-08-02,135,01,,,,,,,경기도 파주시청,031-940-5781,2026-05-11
바로자동차공업사,03,경기도 파주시 동패로 69,경기도 파주시 동패동 1933-3,37.7092453799,126.7378356078,2002-05-07,137.67,01,,,,,,,경기도 파주시청,031-940-5781,2026-05-11
바이드핸더,03,경기도 파주시 문산읍 방촌로 1308,경기도 파주시 문산읍 내포리 859,37.8423605383,126.7535511928,2022-09-06,479,01,,,,,,,경기도 파주시청,031-940-5781,2026-05-11
번창카센타,03,경기도 파주시 원앙길 72,경기도 파주시 아동동 357-3,37.7658700062,126.7780589891,2013-12-11,646.3,01,,,,,,,경기도 파주시청,031-940-5781,2026-05-11
법원자동차공업사,03,경기도 파주시 법원읍 사임당로 789,경기도 파주시 법원읍 가야리 42-35,37.8502685748,126.8685862996,1998-10-26,108,01,,,,,,,경기도 파주시청,031-940-5781,2026-05-11
보쉬카서비스 운정점,03,경기도 파주시 심학산로423번길 12-3,경기도 파주시 목동동 1112-4,37.7191404557,126.7388018002,2016-11-18,232,01,,,,,,,경기도 파주시청,031-940-5781,2026-05-11
봉일천밧데리,03,경기도 파주시 조리읍 봉천로 99,경기도 파주시 조리읍 봉일천리 285-2,37.7467065495,126.8020237299,2013-04-26,1184,01,,,,,,,경기도 파주시청,031-940-5781,2026-05-11
봉천오토카,03,경기도 파주시 조리읍 봉천로 60,경기도 파주시 조리읍 봉일천리 203-22,37.74422905,126.8054187,1998-06-09,1025.61,01,,,,,,,경기도 파주시청,031-940-5781,2026-05-11
부짜모터스(BUZZA MOTORS),04,경기도 파주시 지목로 113,경기도 파주시 신촌동 58-8,37.7285221257,126.702335289,2024-11-25,1260,01,,,,,,,경기도 파주시청,031-940-5781,2026-05-11
북파주서비스기아오토큐,01,경기도 파주시 광탄면 혜음로 1190,경기도 파주시 광탄면 신산리 348-5,37.7872091635,126.8452114921,2012-10-19,2170,01,,,,,,,경기도 파주시청,031-940-5781,2026-05-11
블루모터스,03,경기도 파주시 산남로 19,경기도 파주시 산남동 360-1,37.7039995829,126.6894322531,2009-06-20,274,01,,,,,,,경기도 파주시청,031-940-5781,2026-05-11
블루카모터스,03,경기도 파주시 평화로 262,경기도 파주시 야동동 622,37.7734896724,126.7531664366,2013-04-15,121,01,,,,,,,경기도 파주시청,031-940-5781,2026-05-11
비엔느디젤,03,경기도 파주시 미래로 311-26,경기도 파주시 동패동 118,37.7056117956,126.7424716525,2025-12-02,1294,01,,,,,,,경기도 파주시청,031-940-5781,2026-05-11
비엔드케이motors,03,경기도 파주시 상지석안길 64,경기도 파주시 상지석동 475,37.7281155338,126.7825023323,2024-11-05,548,01,,,,,,,경기도 파주시청,031-940-5781,2026-05-11
살롱드카,02,경기도 파주시 교하로 1197,경기도 파주시 오도동 15-1,37.7446610803,126.7286616904,2014-12-11,873,01,,,,,,,경기도 파주시청,031-940-5781,2026-05-11
삼성자동차공업사,03,경기도 파주시 탄현면 방촌로 1003,경기도 파주시 탄현면 금승리 488-6,37.8248637958,126.7317597885,2002-10-12,100,01,,,,,,,경기도 파주시청,031-940-5781,2026-05-11
삼성자동차정비공업사,03,경기도 파주시 법원읍 술이홀로 845,경기도 파주시 법원읍 대능리 245-33,37.8477794261,126.8702126228,2007-05-07,120,01,,,,,,,경기도 파주시청,031-940-5781,2026-05-11
삼성카독크,02,경기도 파주시 월롱면 휴암로 75,경기도 파주시 월롱면 덕은리 77-3,37.8002052857,126.7857556244,2001-08-27,405.01,01,,,,,,,경기도 파주시청,031-940-5781,2026-05-11
삼영자동차정비,04,경기도 파주시 적성면 청송로870번길 37,경기도 파주시 적성면 마지리 282-6,37.9480461732,126.9054554097,2025-11-19,2930,01,,,,,,,경기도 파주시청,031-940-5781,2026-05-11
삼정자동차공업사,03,경기도 파주시 문산읍 사임당로 366-1,경기도 파주시 문산읍 이천리 451-6,37.8613201544,126.8276984438,1999-05-18,197.81,01,,,,,,,경기도 파주시청,031-940-5781,2026-05-11
상록카센타,03,경기도 파주시 월롱면 도감로 197,경기도 파주시 월롱면 위전리 209-6,37.7906983541,126.8063657145,2014-11-03,994,01,,,,,,,경기도 파주시청,031-940-5781,2026-05-11
상지자동차공업사,01,경기도 파주시 운정로 145,경기도 파주시 상지석동 547-1,37.7215594401,126.7817196989,2005-10-18,1015,01,,,,,,,경기도 파주시청,031-940-5781,2026-05-11
상지자동차정비,04,경기도 파주시 상지석길 129,경기도 파주시 상지석동 447-2,37.7315671399,126.7804086723,2004-06-17,843,01,,,,,,,경기도 파주시청,031-940-5781,2026-05-11
새로나자동차공업사,03,경기도 파주시 광탄면 혜음로 1041,경기도 파주시 광탄면 신산리 160-14,37.7757795432,126.8502913252,2006-12-07,99,01,,,,,,,경기도 파주시청,031-940-5781,2026-05-11
샤인모터스,03,경기도 파주시 학령로 85,경기도 파주시 아동동 33,37.7587336126,126.7927192517,2021-12-21,1585,01,,,,,,,경기도 파주시청,031-940-5781,2026-05-11
샬롬자동차공업사,03,경기도 파주시 평화로 266-3,경기도 파주시 야동동 623-1,37.7735022709,126.7526437058,2024-12-06,960,01,,,,,,,경기도 파주시청,031-940-5781,2026-05-11
서울모터스,03,경기도 파주시 광탄면 혜음로 890,경기도 파주시 광탄면 분수리 390-1,37.7650299786,126.8579469134,1999-01-21,406.6,01,,,,,,,경기도 파주시청,031-940-5781,2026-05-11
서진타이어,03,경기도 파주시 교하로 915,경기도 파주시 문발동 45-6,37.7280304124,126.7055421388,2019-07-29,432.26,01,,,,,,,경기도 파주시청,031-940-5781,2026-05-11
서해상사,03,경기도 파주시 장명산길 242,경기도 파주시 오도동 96-3,37.7471127925,126.7264027428,2020-07-06,756,01,,,,,,,경기도 파주시청,031-940-5781,2026-05-11
선유자동차정비공업사,03,경기도 파주시 문산읍 장승배기로 1,경기도 파주시 문산읍 선유리 277-4,37.8676588004,126.8083006126,1998-12-17,119,01,,,,,,,경기도 파주시청,031-940-5781,2026-05-11
성광자동차공업사,03,경기도 파주시 탄현면 평화로 579,경기도 파주시 탄현면 갈현리 284-10,37.7729532315,126.7203339628,2003-09-09,91,01,,,,,,,경기도 파주시청,031-940-5781,2026-05-11
성도산업,03,경기도 파주시 장터고개길 172,경기도 파주시 맥금동 476-1,37.7798369587,126.7311834915,2021-06-16,822,01,,,,,,,경기도 파주시청,031-940-5781,2026-05-11
성실자동차공업사,03,경기도 파주시 월롱면 한태말길 3-14,경기도 파주시 월롱면 영태리 577-15,37.7788573476,126.7894285517,1998-12-17,117,01,,,,,,,경기도 파주시청,031-940-5781,2026-05-11
성원자동차정비공업사,03,경기도 파주시 파주읍 술이홀로 183,경기도 파주시 파주읍 파주리 712-5,37.8241834325,126.8102887087,1997-08-22,187,01,,,,,,,경기도 파주시청,031-940-5781,2026-05-11
세명자동차,03,경기도 파주시 파주읍 술이홀로 483,경기도 파주시 파주읍 연풍리 282-9,37.8294057235,126.8405569387,2016-11-23,231,01,,,,,,,경기도 파주시청,031-940-5781,2026-05-11
세운자동차공업사,03,경기도 파주시 광탄면 장지산로 442,경기도 파주시 광탄면 분수리 306-1,37.7629344257,126.8595267115,1999-06-08,218,01,,,,,,,경기도 파주시청,031-940-5781,2026-05-11
세종자동차엔진전문점,04,경기도 파주시 법원읍 보광로1837번길 73,경기도 파주시 법원읍 대능리 389-11,37.8352090816,126.8626869966,1999-05-27,526,01,,,,,,,경기도 파주시청,031-940-5781,2026-05-11
송원자동차전문정비,03,경기도 파주시 탄현면 약산로 64,경기도 파주시 탄현면 법흥리 1583-3,37.7699997079,126.7049312148,1998-10-26,189.9,01,,,,,,,경기도 파주시청,031-940-5781,2026-05-11
송촌종합카센타,03,경기도 파주시 교하로 1015,경기도 파주시 연다산동 45-7,37.7351433447,126.7127612387,2009-08-21,108,01,,,,,,,경기도 파주시청,031-940-5781,2026-05-11
스마일모터스,03,경기도 파주시 평화로 390,경기도 파주시 검산동 298-4,37.7751730576,126.7400647213,2009-10-05,142.6,01,,,,,,,경기도 파주시청,031-940-5781,2026-05-11
스타트 모터스,02,경기도 파주시 조리읍 팔학골길 147-44,경기도 파주시 조리읍 봉일천리 62-296,37.7359403007,126.8353868783,2022-05-04,1155,01,,,,,,,경기도 파주시청,031-940-5781,2026-05-11
스피드메이트 SK교하점,03,경기도 파주시 교하로 926,경기도 파주시 문발동 549-2,37.7284967592,126.7067371535,2008-07-03,133.3,01,,,,,,,경기도 파주시청,031-940-5781,2026-05-11
스피드메이트 문산점,03,경기도 파주시 문산읍 방촌로 1684,경기도 파주시 문산읍 당동리 88-1,37.8635742913,126.782401104,2007-06-07,264,01,,,,,,,경기도 파주시청,031-940-5781,2026-05-11
스피드메이트 서경점,03,경기도 파주시 중앙로 90,경기도 파주시 금릉동 23-2,37.7511696394,126.7932951406,2019-01-16,151,01,,,,,,,경기도 파주시청,031-940-5781,2026-05-11
스피드메이트 운정신도시점,03,경기도 파주시 산내로104번길 14-16,경기도 파주시 목동동 986,37.7279220394,126.7384423395,2017-03-13,538,01,,,,,,,경기도 파주시청,031-940-5781,2026-05-11
스피드메이트 운정점,03,경기도 파주시 가람로21번길 7-5,경기도 파주시 와동동 1598,37.7341077328,126.7521208149,2010-11-29,115,01,,,,,,,경기도 파주시청,031-940-5781,2026-05-11
스피드메이트 이마트운정점,03,경기도 파주시 한울로 123,경기도 파주시 동패동 1763,37.7103886993,126.7451022986,2011-09-16,319.38,01,,,,,,,경기도 파주시청,031-940-5781,2026-05-11
스피드메이트 이마트파주점,03,경기도 파주시 당하길 10,경기도 파주시 당하동 195-5,37.7469634503,126.7510507519,2004-09-17,175.21,01,,,,,,,경기도 파주시청,031-940-5781,2026-05-11
스피드정비,03,경기도 파주시 조리읍 통일로 279,경기도 파주시 조리읍 봉일천리 133-8,37.7413892512,126.8121161621,2009-06-08,141.6,01,,,,,,,경기도 파주시청,031-940-5781,2026-05-11
슬기자동차공업사,03,경기도 파주시 법원읍 화합로 97,경기도 파주시 법원읍 대능리 70-1,37.8467195693,126.877380644,2003-02-03,118.07,01,,,,,,,경기도 파주시청,031-940-5781,2026-05-11
승전모터스,01,경기도 파주시 광탄면 명봉산로352번길 9-12,경기도 파주시 광탄면 용미리 587-1,37.7470032685,126.8659491837,2024-05-07,2847,01,,,,,,,경기도 파주시청,031-940-5781,2026-05-11
승진모터스,03,경기도 파주시 파주읍 우계로 253,경기도 파주시 파주읍 향양리 333-2,37.84808483,126.8120331219,2021-02-25,125,01,,,,,,,경기도 파주시청,031-940-5781,2026-05-11
신산카프라자,03,경기도 파주시 광탄면 혜음로 1179,경기도 파주시 광탄면 신산리 351-1,37.7863182187,126.8446759258,2012-04-13,991,01,,,,,,,경기도 파주시청,031-940-5781,2026-05-11
신성교통㈜ 1급 정비공장,01,경기도 파주시 장터고개길 10,경기도 파주시 맥금동 110-9,37.7729822881,126.7337334301,2009-02-20,1003,01,,,,,,,경기도 파주시청,031-940-5781,2026-05-11
신성자동차 정비공장,01,경기도 파주시 문산읍 문향로84번길 6,경기도 파주시 문산읍 문산리 17-387,37.8586352485,126.7868123951,1968-06-03,4009,01,,,,,,,경기도 파주시청,031-940-5781,2026-05-11
신성자동차공업사,03,경기도 파주시 법원읍 술이홀로 610,경기도 파주시 법원읍 대능리 536-5,37.834176703,126.8520683185,2016-01-21,134,01,,,,,,,경기도 파주시청,031-940-5781,2026-05-11
신일산디젤,03,경기도 파주시 풀무골로 37,경기도 파주시 야동동 346-4,37.7752392723,126.7572975071,2017-10-11,303,01,,,,,,,경기도 파주시청,031-940-5781,2026-05-11
신일카센타,03,경기도 파주시 조리읍 통일로 360,경기도 파주시 조리읍 봉일천리 181-30,37.7467995921,126.8060718758,2002-09-25,180,01,,,,,,,경기도 파주시청,031-940-5781,2026-05-11
신화모터스 주식회사,01,경기도 파주시 쌀뚜기길 4-13,경기도 파주시 문발동 255,37.7235858036,126.6999516125,2008-05-08,1843,01,,,,,,,경기도 파주시청,031-940-5781,2026-05-11
쌍용달인공업사,03,경기도 파주시 시청로 314,경기도 파주시 야동동 96-4,37.7687348357,126.7649280852,2009-07-31,153,01,,,,,,,경기도 파주시청,031-940-5781,2026-05-11
아람자동차공업사,03,경기도 파주시 순못길 6-17,경기도 파주시 다율동 999-2,37.7276303567,126.7166715338,2007-03-24,140.4,01,,,,,,,경기도 파주시청,031-940-5781,2026-05-11
아우토웍스,03,경기도 파주시 교하로425번길 7,경기도 파주시 동패동 299-9,37.7055740221,126.7320696285,2025-08-19,409,01,,,,,,,경기도 파주시청,031-940-5781,2026-05-11
아이엑스총판,03,경기도 파주시 문산읍 통일로 1920,경기도 파주시 문산읍 당동리 326-1,37.8768010869,126.7821471499,1997-09-08,1743,01,,,,,,,경기도 파주시청,031-940-5781,2026-05-11
알피엠모터스,03,경기도 파주시 교하로 1414-61,경기도 파주시 교하동 434,37.7494297618,126.7478849531,2025-01-31,1414,01,,,,,,,경기도 파주시청,031-940-5781,2026-05-11
애니카랜드 교하운정점,03,경기도 파주시 운정역길 293,경기도 파주시 상지석동 974-10,37.728342826,126.7689460976,2000-10-11,269.77,01,,,,,,,경기도 파주시청,031-940-5781,2026-05-11
애니카랜드 교하점,03,경기도 파주시 동패샘길 241-6,경기도 파주시 동패동 273-2,37.7071797986,126.7324375981,2005-01-29,192,01,,,,,,,경기도 파주시청,031-940-5781,2026-05-11
애니카랜드 금촌점,03,경기도 파주시 시청로 254,경기도 파주시 금촌동 420-1,37.7713541793,126.7706300481,2002-02-28,400,01,,,,,,,경기도 파주시청,031-940-5781,2026-05-11
애니카랜드 법원점,03,경기도 파주시 법원읍 화합로 145,경기도 파주시 법원읍 법원리 422-70,37.8468377168,126.8829008792,1998-12-17,166,01,,,,,,,경기도 파주시청,031-940-5781,2026-05-11
애니카랜드 조리점,03,경기도 파주시 조리읍 명봉산로 42,경기도 파주시 조리읍 장곡리 529-1,37.7322871768,126.8406591217,2007-08-23,147,01,,,,,,,경기도 파주시청,031-940-5781,2026-05-11
애니카랜드 탄현점,03,경기도 파주시 탄현면 웅지로 21,경기도 파주시 탄현면 축현리 253-3,37.8081767057,126.7320947455,1999-10-06,110,01,,,,,,,경기도 파주시청,031-940-5781,2026-05-11
애니카랜드교하점,03,경기도 파주시 교하로901번길 10,경기도 파주시 문발동 44-9,37.7274267997,126.7046561123,2006-09-21,118.8,01,,,,,,,경기도 파주시청,031-940-5781,2026-05-11
애니카리페어,02,경기도 파주시 문산읍 방촌로 1309,경기도 파주시 문산읍 내포리 849-3,37.8426528315,126.7531401529,2013-05-08,555,01,,,,,,,경기도 파주시청,031-940-5781,2026-05-11
야당드림모터스,01,경기도 파주시 송학1길 43,경기도 파주시 야당동 421-46,37.7117192304,126.7620765163,2010-11-17,1367,01,,,,,,,경기도 파주시청,031-940-5781,2026-05-11
야동자동차공업사,03,,경기도 파주시 광탄면 방축리 38-1,37.8088887721,126.8651769732,2009-06-17,160.5,01,,,,,,,경기도 파주시청,031-940-5781,2026-05-11
양문형제카,03,경기도 파주시 교하로 1392,경기도 파주시 교하동 391,37.7531716158,126.7456779717,2015-09-07,446,01,,,,,,,경기도 파주시청,031-940-5781,2026-05-11
양지바른정비마당,03,경기도 파주시 탄현면 평화로 718,경기도 파주시 탄현면 법흥리 481,37.7793693942,126.7079899415,2004-02-23,124,01,,,,,,,경기도 파주시청,031-940-5781,2026-05-11
에덴카서비스,03,경기도 파주시 파주읍 우계로 5,경기도 파주시 파주읍 파주리 538-7,37.8282502249,126.8134296986,2000-01-15,114,01,,,,,,,경기도 파주시청,031-940-5781,2026-05-11
에스앤에스컴퍼니,02,경기도 파주시 조리읍 능안로 27-24,경기도 파주시 조리읍 대원리 987,37.7409443856,126.8028140886,2014-02-18,1016,01,,,,,,,경기도 파주시청,031-940-5781,2026-05-11
에스케이 1급 자동차공업사,01,경기도 파주시 조리읍 명봉산로 36,경기도 파주시 조리읍 장곡리 529-3,37.7319008734,126.8398851457,2003-04-10,1837,01,,,,,,,경기도 파주시청,031-940-5781,2026-05-11
에쓰알티모터스(SRT),02,경기도 파주시 조리읍 등원로 101-25,경기도 파주시 조리읍 등원리 145,37.7634265577,126.8096099682,2025-06-25,998,01,,,,,,,경기도 파주시청,031-940-5781,2026-05-11
엔진마을 타이밍벨트 엔진트러블 커먼레일 전문점,03,경기도 파주시 통일로 572,경기도 파주시 아동동 62-16,37.7613432805,126.7958968741,1998-01-16,126,01,,,,,,,경기도 파주시청,031-940-5781,2026-05-11
엠 게러지(M garage),03,경기도 파주시 산남로231번가길 35,경기도 파주시 산남동 27-38,37.7000822407,126.7091022358,2023-04-10,1291,01,,,,,,,경기도 파주시청,031-940-5781,2026-05-11
엠엔에스파주 주식회사,03,경기도 파주시 교하로 605-11,경기도 파주시 동패동 638-4,37.7062258215,126.7123887645,2023-09-04,264,01,,,,,,,경기도 파주시청,031-940-5781,2026-05-11
엠제이모터스,03,경기도 파주시 새꽃로 310,경기도 파주시 아동동 146,37.7693070173,126.7862324186,2022-02-25,895,01,,,,,,,경기도 파주시청,031-940-5781,2026-05-11
영건공업사,03,경기도 파주시 월롱면 홀작로 100,경기도 파주시 월롱면 도내리 198-9,37.7841864641,126.8257438138,2023-12-28,1250,01,,,,,,,경기도 파주시청,031-940-5781,2026-05-11
영태리자동차정비공업사,03,경기도 파주시 월롱면 한태말길 11,경기도 파주시 월롱면 영태리 578-14,37.7782883328,126.789295654,1997-10-11,180,01,,,,,,,경기도 파주시청,031-940-5781,2026-05-11
오두산자동차정비공업사,03,경기도 파주시 평화로 514,경기도 파주시 맥금동 347-1,37.7723323108,126.7273014004,1998-12-01,109,01,,,,,,,경기도 파주시청,031-940-5781,2026-05-11
오렌지카정비센터,03,경기도 파주시 평화로 61,경기도 파주시 금촌동 928-7,37.7628114368,126.7698507778,2007-08-28,97.03,01,,,,,,,경기도 파주시청,031-940-5781,2026-05-11
오일뱅크 플러스,03,경기도 파주시 새꽃로 122,경기도 파주시 금촌동 929-23,37.7610007816,126.7687984755,2005-11-04,136.2,01,,,,,,,경기도 파주시청,031-940-5781,2026-05-11
오토오아시스 파주월롱점,03,경기도 파주시 월롱면 휴암로 21,경기도 파주시 월롱면 위전리 608-9,37.7967903204,126.789722368,2016-09-26,310,01,,,,,,,경기도 파주시청,031-940-5781,2026-05-11
오토오아시스 홈플러스 파주문산점,03,경기도 파주시 문산읍 방촌로 1759,경기도 파주시 문산읍 당동리 880,37.8697332209,126.7850258597,2008-10-30,155.4,01,,,,,,,경기도 파주시청,031-940-5781,2026-05-11
오토오아시스 홈플러스 파주운정점,03,경기도 파주시 청암로17번길 17,경기도 파주시 목동동 927,37.7295685993,126.7367600551,2016-12-20,173.56,01,,,,,,,경기도 파주시청,031-940-5781,2026-05-11
오토오아시스스타필드운정점,03,경기도 파주시 와석순환로515번길 70,경기도 파주시 와동동 1471-2,37.7279154527,126.7652697188,2026-04-16,59855,01,,,,,,,경기도 파주시청,031-940-5781,2026-05-11
오토존모터스,01,경기도 파주시 청석로 12,경기도 파주시 동패동 1342,37.7062800424,126.7293949957,2011-12-22,1344,01,,,,,,,경기도 파주시청,031-940-5781,2026-05-11
오토카공업사,03,경기도 파주시 적성면 청송로 996-2,경기도 파주시 적성면 마지리 54-1,37.9524804588,126.9167353086,2017-07-24,712,01,,,,,,,경기도 파주시청,031-940-5781,2026-05-11
와우모터스,02,경기도 파주시 교하로 515,경기도 파주시 동패동 579-17,37.7048336854,126.721337643,2023-06-14,2198,01,,,,,,,경기도 파주시청,031-940-5781,2026-05-11
우림자동차공업사,03,경기도 파주시 운정역길 285-6,경기도 파주시 상지석동 973-7,37.728501283,126.7690720864,1998-12-09,184.56,01,,,,,,,경기도 파주시청,031-940-5781,2026-05-11
우주모터스,03,경기도 파주시 시청로 164-1,경기도 파주시 아동동 274-40,37.768808714,126.7797103347,2023-08-16,655,01,,,,,,,경기도 파주시청,031-940-5781,2026-05-11
운정1급자동차정비검사소,01,경기도 파주시 교하로 469,경기도 파주시 동패동 324,37.7042830486,126.726743164,2023-02-14,1313,01,,,,,,,경기도 파주시청,031-940-5781,2026-05-11
운정자동차,03,경기도 파주시 청암로48번길 16,경기도 파주시 목동동 881,37.7331094847,126.7361107647,2013-09-03,101.02,01,,,,,,,경기도 파주시청,031-940-5781,2026-05-11
운정점 현대자동차,03,경기도 파주시 교하로159번길 55,경기도 파주시 목동동 1054-5,37.7240837113,126.7408405723,2018-12-17,575.7,01,,,,,,,경기도 파주시청,031-940-5781,2026-05-11
운정카독크,03,경기도 파주시 가람로21번길 25-1,경기도 파주시 와동동 1624-5,37.7350209923,126.7521389846,2014-07-31,305.3,01,,,,,,,경기도 파주시청,031-940-5781,2026-05-11
운정현대정비공장㈜,01,경기도 파주시 운정5길 7,경기도 파주시 상지석동 586-4,37.7220204638,126.777668127,2007-06-25,965,01,,,,,,,경기도 파주시청,031-940-5781,2026-05-11
원카크리닉,03,경기도 파주시 산남로 32,경기도 파주시 산남동 323-11,37.7030150181,126.6897124825,2014-04-03,426,01,,,,,,,경기도 파주시청,031-940-5781,2026-05-11
월드모터스,01,경기도 파주시 문발들길 109,경기도 파주시 문발동 91-8,37.7230989868,126.7010062975,2015-10-07,1019,01,,,,,,,경기도 파주시청,031-940-5781,2026-05-11
월드모터스,03,경기도 파주시 면산말길 6,경기도 파주시 아동동 299-1,37.7689532819,126.7791131347,2002-07-10,540,01,,,,,,,경기도 파주시청,031-940-5781,2026-05-11
월드자동차공업사,03,경기도 파주시 조리읍 홀작로 208,경기도 파주시 조리읍 오산리 21,37.7813086101,126.8361027278,1998-01-12,168,01,,,,,,,경기도 파주시청,031-940-5781,2026-05-11
월롱점 현대자동차,03,경기도 파주시 월롱면 휴암로 190,경기도 파주시 월롱면 덕은리 416-3,37.8082709116,126.7825485003,2008-06-16,613,01,,,,,,,경기도 파주시청,031-940-5781,2026-05-11
위너즈코리아,02,경기도 파주시 소라지로195번길 110,경기도 파주시 신촌동 308-2,37.7382951735,126.6888623472,2017-05-29,512,01,,,,,,,경기도 파주시청,031-940-5781,2026-05-11
유명카,03,경기도 파주시 조리읍 통일로 334,경기도 파주시 조리읍 봉일천리 186-9,37.7453707967,126.8081938218,2003-07-23,98,01,,,,,,,경기도 파주시청,031-940-5781,2026-05-11
유일모터스,03,경기도 파주시 구름다리길 73,경기도 파주시 야당동 469-115,37.704658256,126.7633477317,2009-09-11,126,01,,,,,,,경기도 파주시청,031-940-5781,2026-05-11
유진모터스,01,경기도 파주시 탄현면 갈현로 39-1,경기도 파주시 탄현면 갈현리 286-5,37.772834828,126.7197200141,2022-08-02,960.5,01,,,,,,,경기도 파주시청,031-940-5781,2026-05-11
율곡자동차,02,경기도 파주시 파평면 장승배기로174번길 14,경기도 파주시 파평면 율곡리 392-1,37.8802712348,126.8149886858,1996-05-18,979,01,,,,,,,경기도 파주시청,031-940-5781,2026-05-11
은성카센타,03,경기도 파주시 운정로 106,경기도 파주시 상지석동 573-7,37.7214393328,126.7774744323,2000-06-03,100,01,,,,,,,경기도 파주시청,031-940-5781,2026-05-11
이레모터스,03,경기도 파주시 운정로 149,경기도 파주시 상지석동 531-13,37.7211847006,126.782400414,2013-05-21,198,01,,,,,,,경기도 파주시청,031-940-5781,2026-05-11
이레카모터스,03,경기도 파주시 광탄면 장지산로 274,경기도 파주시 광탄면 분수리 99-4,37.7570832124,126.8763474172,2014-01-06,197,01,,,,,,,경기도 파주시청,031-940-5781,2026-05-11
이삭자동차공업사,03,경기도 파주시 조리읍 능안로 25,경기도 파주시 조리읍 대원리 971-2,37.7413001012,126.8040106684,2005-07-15,99.7,01,,,,,,,경기도 파주시청,031-940-5781,2026-05-11
이즈카정비,03,경기도 파주시 교하로925번길 8,경기도 파주시 문발동 29-12,37.7290819347,126.7064100766,2010-01-20,694,01,,,,,,,경기도 파주시청,031-940-5781,2026-05-11
인랩,03,경기도 파주시 산남로 43,경기도 파주시 산남동 319-1,37.7024578577,126.6909821195,2024-01-03,840,01,,,,,,,경기도 파주시청,031-940-5781,2026-05-11
인영자동차정비,01,경기도 파주시 파주읍 충현로 38,경기도 파주시 파주읍 봉서리 393,37.8493648031,126.7929578031,2010-11-16,1681.33,01,,,,,,,경기도 파주시청,031-940-5781,2026-05-11
일성공업사,03,경기도 파주시 탄현면 방촌로 1015,경기도 파주시 탄현면 금승리 498-10,37.824854508,126.7330650068,2012-04-04,433,01,,,,,,,경기도 파주시청,031-940-5781,2026-05-11
임마누엘카센타,03,경기도 파주시 조리읍 송비말길 87,경기도 파주시 조리읍 봉일천리 176-2,37.7442194299,126.8047788102,1998-10-16,180,01,,,,,,,경기도 파주시청,031-940-5781,2026-05-11
자동차119,03,경기도 파주시 문산읍 방촌로 1613,경기도 파주시 문산읍 문산리 140-3,37.8594644917,126.7761370486,2015-05-15,200,01,,,,,,,경기도 파주시청,031-940-5781,2026-05-11
자동차정비마을,03,경기도 파주시 조리읍 문원길 295-22,경기도 파주시 조리읍 대원리 291-10,37.7282121085,126.8121101311,2010-03-17,345,01,,,,,,,경기도 파주시청,031-940-5781,2026-05-11
자유로카,03,경기도 파주시 자유로 2212,경기도 파주시 문발동 495-137,37.7001768716,126.6839809779,2024-11-21,276.75,01,,,,,,,경기도 파주시청,031-940-5781,2026-05-11
적성남경자동차정비,02,경기도 파주시 적성면 감악산로1241번길 59,경기도 파주시 적성면 구읍리 578-2,37.9585920554,126.9230979841,2025-06-23,3155,01,,,,,,,경기도 파주시청,031-940-5781,2026-05-11
적성점 자동차 서비스,03,경기도 파주시 적성면 청송로 957,경기도 파주시 적성면 마지리 121-1,37.9509965242,126.9132413997,2010-05-26,263.3,01,,,,,,,경기도 파주시청,031-940-5781,2026-05-11
정다운카센타,03,경기도 파주시 법원읍 화합로 30,경기도 파주시 법원읍 대능리 218-16,37.8457498904,126.8697591048,2017-07-05,891,01,,,,,,,경기도 파주시청,031-940-5781,2026-05-11
정수상사,03,경기도 파주시 방촌로 35,경기도 파주시 교하동 602-1,37.7543563671,126.7393600335,2020-07-09,112.5,01,,,,,,,경기도 파주시청,031-940-5781,2026-05-11
제로원오토모티브,03,경기도 파주시 산남로 63,경기도 파주시 산남동 302-4,37.701181238,126.6927829127,2025-02-27,873,01,,,,,,,경기도 파주시청,031-940-5781,2026-05-11
제이S MOTORS,03,경기도 파주시 탄현면 방촌로 981,경기도 파주시 탄현면 문지리 33-7,37.8240830958,126.7295432216,2012-01-18,372,01,,,,,,,경기도 파주시청,031-940-5781,2026-05-11
제이에이치 모터스,03,경기도 파주시 조리읍 통일로 277,경기도 파주시 조리읍 봉일천리 133-9,37.7413255802,126.8125861428,2014-04-17,122.01,01,,,,,,,경기도 파주시청,031-940-5781,2026-05-11
제이에이치모터스,03,경기도 파주시 문산읍 사임당로 6,경기도 파주시 문산읍 선유리 672-3,37.8582108859,126.7958981342,2023-11-02,1390.3,01,,,,,,,경기도 파주시청,031-940-5781,2026-05-11
제이유씨오토 주식회사,01,경기도 파주시 교하로 515,경기도 파주시 동패동 579-17,37.7048336854,126.721337643,2010-07-01,1649,01,,,,,,,경기도 파주시청,031-940-5781,2026-05-11
제일자동차공업사,02,경기도 파주시 교하로505번길 16-30,경기도 파주시 동패동 594-1,37.7039125556,126.7211953747,2001-12-16,410.6,01,,,,,,,경기도 파주시청,031-940-5781,2026-05-11
조리점 현대자동차,03,경기도 파주시 조리읍 대원로 203,경기도 파주시 조리읍 대원리 637-32,37.7352963553,126.8034914824,2007-01-19,128.26,01,,,,,,,경기도 파주시청,031-940-5781,2026-05-11
조리현대서비스㈜,01,경기도 파주시 조리읍 등원로330번길 41,경기도 파주시 조리읍 오산리 260-14,37.7717499226,126.8323082158,2021-10-28,2181,01,,,,,,,경기도 파주시청,031-940-5781,2026-05-11
조은카모터스,03,경기도 파주시 교하로 909,경기도 파주시 문발동 45-9,37.7277928093,126.7051745301,2022-10-14,794,01,,,,,,,경기도 파주시청,031-940-5781,2026-05-11
조은현대공업사,01,경기도 파주시 파주읍 통일로 1046,경기도 파주시 파주읍 백석리 477,37.801949,126.7938331,2003-06-02,1528,01,,,,,,,경기도 파주시청,031-940-5781,2026-05-11
㈜604게러지,01,경기도 파주시 방촌로 38,경기도 파주시 교하동 604,37.7549777774,126.7391631282,2022-08-10,960.5,01,,,,,,,경기도 파주시청,031-940-5781,2026-05-11
주내카센터,03,경기도 파주시 파주읍 학당말길 22,경기도 파주시 파주읍 파주리 200-2,37.8334737355,126.8195316764,2020-03-05,110.83,01,,,,,,,경기도 파주시청,031-940-5781,2026-05-11
㈜로건,03,경기도 파주시 아침노을길 55,경기도 파주시 문발동 548-1,37.7284464024,126.7071961269,2022-12-13,181,01,,,,,,,경기도 파주시청,031-940-5781,2026-05-11
㈜마일레오토모빌,02,경기도 파주시 운정로 154,경기도 파주시 상지석동 546-10,37.720586884,126.7824246467,2025-08-08,826,01,,,,,,,경기도 파주시청,031-940-5781,2026-05-11
㈜비엔느디젤서비스,04,경기도 파주시 미래로 311-26,경기도 파주시 동패동 118,37.7056117956,126.7424716525,2013-10-08,434.5,01,,,,,,,경기도 파주시청,031-940-5781,2026-05-11
㈜세븐그램스,01,경기도 파주시 월롱면 휴암로117번길 84,경기도 파주시 월롱면 덕은리 390-1,37.8030416759,126.7773461016,2010-06-10,1644,01,,,,,,,경기도 파주시청,031-940-5781,2026-05-11
주식회사 1급 대명공업사,01,경기도 파주시 월롱면 정문로 474,경기도 파주시 월롱면 도내리 438-7,37.7988292564,126.8188303877,2020-08-25,1858,01,,,,,,,경기도 파주시청,031-940-5781,2026-05-11
주식회사 금강자동차,01,경기도 파주시 적성면 적성산단3로 34,경기도 파주시 적성면 가월리 1859-12,37.9700030417,126.9141277229,2021-06-04,1013.56,01,,,,,,,경기도 파주시청,031-940-5781,2026-05-11
주식회사 드래곤드림,03,경기도 파주시 조리읍 장진천길 258,경기도 파주시 조리읍 대원리 829-3,37.7284135455,126.8059723641,2018-06-26,196.25,01,,,,,,,경기도 파주시청,031-940-5781,2026-05-11
주식회사 디앤와이특장,01,경기도 파주시 법원읍 보광로 1912-10,경기도 파주시 법원읍 대능리 211,37.842815394,126.8644080758,2015-11-17,2048,01,,,,,,,경기도 파주시청,031-940-5781,2026-05-11
주식회사 오브로,03,경기도 파주시 탄현면 웅지로110번길 102-4,경기도 파주시 탄현면 축현리 148-12,37.8145141531,126.7357718495,2022-12-27,3128,01,,,,,,,경기도 파주시청,031-940-5781,2026-05-11
주식회사 오토벤처,01,경기도 파주시 월롱면 통일로 834,경기도 파주시 월롱면 영태리 781-1,37.7838090146,126.7891668022,2021-05-13,5437,01,,,,,,,경기도 파주시청,031-940-5781,2026-05-11
주식회사 옳은일,02,경기도 파주시 교하로 1312-39,경기도 파주시 교하동 622-5,37.749072983,126.7394669563,2025-05-08,490,01,,,,,,,경기도 파주시청,031-940-5781,2026-05-11
주식회사 정우모빌리티,01,경기도 파주시 월롱면 휴암로 67-4,경기도 파주시 월롱면 덕은리 439,37.8000431235,126.7861580432,2018-11-28,1058,01,,,,,,,경기도 파주시청,031-940-5781,2026-05-11
주식회사 타이어문산총판,03,경기도 파주시 파주읍 통일로 1559,경기도 파주시 파주읍 봉서리 472-1,37.8467998437,126.7888751044,1999-02-02,109,01,,,,,,,경기도 파주시청,031-940-5781,2026-05-11
주식회사 티스테이션동패점,03,경기도 파주시 와석순환로172번길 7-33,경기도 파주시 동패동 1830,37.715021953,126.7398126487,2023-05-16,1074.49,01,,,,,,,경기도 파주시청,031-940-5781,2026-05-11
주식회사 파주자동차,01,경기도 파주시 월롱면 엘지로 274-60,경기도 파주시 월롱면 덕은리 663-23,37.8154329502,126.7689058178,2018-01-12,889.5,01,,,,,,,경기도 파주시청,031-940-5781,2026-05-11
주식회사 파주현대상용서비스,01,경기도 파주시 월롱면 도감로 164,경기도 파주시 월롱면 위전리 193-1,37.7914819248,126.8027809037,2004-05-24,7786,01,,,,,,,경기도 파주시청,031-940-5781,2026-05-11
주식회사 현대오성자동차공업사,01,경기도 파주시 탄현면 평화로 563,경기도 파주시 탄현면 갈현리 1769-4,37.7720023259,126.7219963803,2019-01-03,1597,01,,,,,,,경기도 파주시청,031-940-5781,2026-05-11
㈜지에스모터스,01,경기도 파주시 교하로863번길 5,경기도 파주시 문발동 86-3,37.7243745119,126.7016201549,2008-09-12,1580,01,,,,,,,경기도 파주시청,031-940-5781,2026-05-11
㈜코리아모터스,01,경기도 파주시 금물다리길 281,경기도 파주시 맥금동 113-2,37.7720094372,126.7330598775,2012-01-31,2992,01,,,,,,,경기도 파주시청,031-940-5781,2026-05-11
주하모터스,03,경기도 파주시 조리읍 홀작로 211,경기도 파주시 조리읍 오산리 22-20,37.7819071903,126.8365161876,2004-03-29,149,01,,,,,,,경기도 파주시청,031-940-5781,2026-05-11
㈜한빛자동차공업사,01,경기도 파주시 월롱산로 23,경기도 파주시 야동동 225-3,37.7790593203,126.766694805,2014-10-10,1649,01,,,,,,,경기도 파주시청,031-940-5781,2026-05-11
준모터스,03,경기도 파주시 가람로21번길 15-33,경기도 파주시 와동동 1620-1,37.7341408903,126.7505839848,2020-01-06,100.1,01,,,,,,,경기도 파주시청,031-940-5781,2026-05-11
준오토,03,경기도 파주시 소라지로338번길 14,경기도 파주시 송촌동 229-2,37.7509559767,126.6910498077,2019-09-10,198,01,,,,,,,경기도 파주시청,031-940-5781,2026-05-11
지산자동차,02,경기도 파주시 상지석길 318-22,경기도 파주시 상지석동 178-89,37.7282512893,126.788131064,2017-01-23,667,01,,,,,,,경기도 파주시청,031-940-5781,2026-05-11
진 모터스,03,경기도 파주시 금릉역로 172,경기도 파주시 금촌동 547-2,37.7598746534,126.7657351929,2023-01-03,57.4,01,,,,,,,경기도 파주시청,031-940-5781,2026-05-11
진명카센타,03,경기도 파주시 월롱면 아동로 176,경기도 파주시 월롱면 영태리 527-9,37.774601376,126.7889214449,2021-01-29,128,01,,,,,,,경기도 파주시청,031-940-5781,2026-05-11
진모터스,02,경기도 파주시 광탄면 장지산로200번길 47-48,경기도 파주시 광탄면 분수리 83,37.7554512283,126.8803001635,2014-11-25,1507,01,,,,,,,경기도 파주시청,031-940-5781,2026-05-11
진영오토랜드,03,경기도 파주시 와석순환로252번길 7-11,경기도 파주시 목동동 1105,37.7204164637,126.7376089812,2011-06-01,204.04,01,,,,,,,경기도 파주시청,031-940-5781,2026-05-11
진일자동차공업사,03,경기도 파주시 조리읍 등원로 224,경기도 파주시 조리읍 오산리 377-23,37.7648123519,126.8227346566,2019-07-11,130,01,,,,,,,경기도 파주시청,031-940-5781,2026-05-11
차병원공업사,03,경기도 파주시 독암길 15,경기도 파주시 금촌동 795-3,37.7557695935,126.7821311245,2003-07-01,124,01,,,,,,,경기도 파주시청,031-940-5781,2026-05-11
차사랑카공업사,03,경기도 파주시 아리랑로 55-81,경기도 파주시 금촌동 714,37.7637989185,126.7613474422,1999-12-07,170,01,,,,,,,경기도 파주시청,031-940-5781,2026-05-11
차신만만,03,경기도 파주시 운정4길 183,경기도 파주시 상지석동 551-1,37.7167652045,126.7741742343,2025-06-30,301,01,,,,,,,경기도 파주시청,031-940-5781,2026-05-11
창만자동차공업사,03,경기도 파주시 광탄면 부흥로 106,경기도 파주시 광탄면 창만리 312-4,37.8068621451,126.8608716212,2011-08-18,90,01,,,,,,,경기도 파주시청,031-940-5781,2026-05-11
천하공업사,03,경기도 파주시 상지석길 190,경기도 파주시 상지석동 177-13,37.7305293086,126.7828377452,2002-11-26,74,01,,,,,,,경기도 파주시청,031-940-5781,2026-05-11
천현카정비센터(TTS 파주법원점),03,경기도 파주시 법원읍 술이홀로 788,경기도 파주시 법원읍 대능리 235-3,37.8456416236,126.8646697835,1998-05-04,700,01,,,,,,,경기도 파주시청,031-940-5781,2026-05-11
청석로점 현대자동차,03,경기도 파주시 순못길 120,경기도 파주시 다율동 991-2,37.7287376423,126.7167821126,2005-08-29,121,01,,,,,,,경기도 파주시청,031-940-5781,2026-05-11
카르디아,03,경기도 파주시 산내로123번길 6-29,경기도 파주시 목동동 1022-1,37.7251035515,126.7360231328,2017-05-15,60,01,,,,,,,경기도 파주시청,031-940-5781,2026-05-11
카스토리,03,경기도 파주시 창곡동길 40-10,경기도 파주시 야동동 138-8,37.7734549111,126.7637676535,2006-06-23,156.06,01,,,,,,,경기도 파주시청,031-940-5781,2026-05-11
카인드모터스,03,경기도 파주시 가람로21번길 15-25,경기도 파주시 와동동 1620-3,37.7342659021,126.7509047274,2025-03-04,115.03,01,,,,,,,경기도 파주시청,031-940-5781,2026-05-11
카젠 광탄점,03,경기도 파주시 광탄면 만장산로 136-14,경기도 파주시 광탄면 창만리 453-10,37.7868712379,126.8562546854,2007-03-05,99,01,,,,,,,경기도 파주시청,031-940-5781,2026-05-11
카톡자동차공업사,03,경기도 파주시 교하로 903,경기도 파주시 문발동 45-8,37.727626457,126.7048010827,2011-03-07,99,01,,,,,,,경기도 파주시청,031-940-5781,2026-05-11
칸 모터스,02,경기도 파주시 산남로 280,경기도 파주시 산남동 18,37.6996764739,126.7132393354,2019-10-01,633,01,,,,,,,경기도 파주시청,031-940-5781,2026-05-11
케이와이모터스,01,경기도 파주시 파주읍 술이홀로 55,경기도 파주시 파주읍 봉암리 238-4,37.8183106561,126.7989443631,2017-08-29,2002,01,,,,,,,경기도 파주시청,031-940-5781,2026-05-11
케이지모빌리티 문산서비스 프라자,03,경기도 파주시 파주읍 통일로 1498,경기도 파주시 파주읍 봉서리 937-1,37.8415850482,126.7908973274,2005-10-18,237.6,01,,,,,,,경기도 파주시청,031-940-5781,2026-05-11
케이지모빌리티 운정서비스 프라자,03,경기도 파주시 교하로 1066-1,경기도 파주시 다율동 979-5,37.7369457198,126.7179607989,2008-09-25,276.24,01,,,,,,,경기도 파주시청,031-940-5781,2026-05-11
케이지모빌리티 파주서비스 프라자,03,경기도 파주시 통일로 578,경기도 파주시 아동동 87-1,37.761876752,126.7957468538,2001-09-26,92.63,01,,,,,,,경기도 파주시청,031-940-5781,2026-05-11
코스모자동차서비스,03,경기도 파주시 새꽃로 143,경기도 파주시 금촌동 334-177,37.7629487182,126.7691007605,2007-03-05,82,01,,,,,,,경기도 파주시청,031-940-5781,2026-05-11
타이어 포 유,03,경기도 파주시 운정로 174,경기도 파주시 상지석동 540-2,37.7192895725,126.7838922646,2020-11-18,407.5,01,,,,,,,경기도 파주시청,031-940-5781,2026-05-11
타이어24,03,경기도 파주시 학령로 83,경기도 파주시 아동동 34-1,37.7585329775,126.7926214242,2022-11-11,712,01,,,,,,,경기도 파주시청,031-940-5781,2026-05-11
타이어스토어,03,경기도 파주시 중앙로 231,경기도 파주시 금촌동 782-3,37.756945399,126.7792026313,2023-04-26,445,01,,,,,,,경기도 파주시청,031-940-5781,2026-05-11
타이어월드,03,경기도 파주시 평화로 98,경기도 파주시 금촌동 374-4,37.7659097556,126.768835174,2015-04-02,330,01,,,,,,,경기도 파주시청,031-940-5781,2026-05-11
타이어카매니저,03,경기도 파주시 문산읍 사임당로 70,경기도 파주시 문산읍 선유리 767-3,37.862042707,126.8006871621,2001-08-27,535,01,,,,,,,경기도 파주시청,031-940-5781,2026-05-11
타이어프로 파주갈현점,03,경기도 파주시 탄현면 갈현로 14,경기도 파주시 탄현면 갈현리 1781,37.771935165,126.7225850324,2024-09-27,1649,01,,,,,,,경기도 파주시청,031-940-5781,2026-05-11
타임모터스,03,경기도 파주시 법원읍 법원로 29,경기도 파주시 법원읍 법원리 443-11,37.8490602907,126.8770493507,2021-10-20,115,01,,,,,,,경기도 파주시청,031-940-5781,2026-05-11
태강공업사,03,경기도 파주시 탄현면 방촌로 959,경기도 파주시 탄현면 문지리 205-5,37.8232525082,126.7274295408,2021-09-29,548,01,,,,,,,경기도 파주시청,031-940-5781,2026-05-11
태영모터스,01,경기도 파주시 강천길 58-7,경기도 파주시 금촌동 735,37.7621426181,126.7657187342,1999-07-01,2683,01,,,,,,,경기도 파주시청,031-940-5781,2026-05-11
태영모터스,03,경기도 파주시 맨드라미길 8-1,경기도 파주시 동패동 1740-10,37.7198368993,126.7144001007,2017-08-28,270,01,,,,,,,경기도 파주시청,031-940-5781,2026-05-11
통일로카독크,01,경기도 파주시 월롱면 통일로644번길 2-13,경기도 파주시 월롱면 영태리 381-1,37.767211941,126.7946291219,1991-12-04,5094,01,,,,,,,경기도 파주시청,031-940-5781,2026-05-11
통일오토카센타,03,경기도 파주시 탄현면 약산로 11,경기도 파주시 탄현면 법흥리 1601-9,37.7686339355,126.6996513096,2009-10-27,142,01,,,,,,,경기도 파주시청,031-940-5781,2026-05-11
팀블레이드,03,경기도 파주시 광탄면 혜음로 640-24,경기도 파주시 광탄면 용미리 452,37.7478590998,126.8712032559,2009-05-20,524,01,,,,,,,경기도 파주시청,031-940-5781,2026-05-11
파렌모터스,02,경기도 파주시 소라지로 138-34,경기도 파주시 연다산동 396-27,37.7383947774,126.7007822144,2012-02-16,474,01,,,,,,,경기도 파주시청,031-940-5781,2026-05-11
파주1급현대모터스,01,경기도 파주시 파주읍 파발로 41,경기도 파주시 파주읍 파주리 175-2,37.833203929,126.8220973353,1994-12-29,1661,01,,,,,,,경기도 파주시청,031-940-5781,2026-05-11
파주대리점,03,경기도 파주시 평화로 126,경기도 파주시 금촌동 445-1,37.7680680285,126.7667395551,2009-08-18,268,01,,,,,,,경기도 파주시청,031-940-5781,2026-05-11
파주오토,03,경기도 파주시 월롱면 통일로 640,경기도 파주시 월롱면 영태리 382,37.7671535428,126.7938460543,2008-06-18,133.3,01,,,,,,,경기도 파주시청,031-940-5781,2026-05-11
파주오토킹,03,경기도 파주시 광인사길 163-2,경기도 파주시 문발동 500-7,37.7150481889,126.6866410381,2006-03-09,89.73,01,,,,,,,경기도 파주시청,031-940-5781,2026-05-11
파주자동차공업사,01,경기도 파주시 법원읍 술이홀로 863,경기도 파주시 법원읍 대능리 94-208,37.8489768717,126.871848817,1993-05-12,3246,01,,,,,,,경기도 파주시청,031-940-5781,2026-05-11
파주자동차공업사,03,경기도 파주시 적성면 솥뒤로 109,경기도 파주시 적성면 마지리 198,37.9605523674,126.9096181683,1998-10-10,111,01,,,,,,,경기도 파주시청,031-940-5781,2026-05-11
파주종합서비스기아오토큐,01,경기도 파주시 파주읍 성현로 6,경기도 파주시 파주읍 향양리 631,37.8519976171,126.8085937589,2021-06-02,1245.71,01,,,,,,,경기도 파주시청,031-940-5781,2026-05-11
파주현대서비스,01,경기도 파주시 월롱면 휴암로 235,경기도 파주시 월롱면 덕은리 14-1,37.8123601599,126.7825402552,2017-02-07,1823.6,01,,,,,,,경기도 파주시청,031-940-5781,2026-05-11
퍼펙트자동차,03,경기도 파주시 조리읍 통일로 19-1,경기도 파주시 조리읍 장곡리 762-1,37.7296100193,126.8376759998,2017-10-11,283,01,,,,,,,경기도 파주시청,031-940-5781,2026-05-11
평화자동차공업사(파주점),03,경기도 파주시 파주읍 정문로 690,경기도 파주시 파주읍 부곡리 343-3,37.8178869717,126.8191989286,2017-08-17,947,01,,,,,,,경기도 파주시청,031-940-5781,2026-05-11
프라임 모터스,03,경기도 파주시 조리읍 대원로 86,경기도 파주시 조리읍 대원리 294,37.7287270076,126.812722372,2024-06-14,984,01,,,,,,,경기도 파주시청,031-940-5781,2026-05-11
프로카센타,03,경기도 파주시 경의로 1761,경기도 파주시 금촌동 370-1,37.7658772572,126.7712031936,2007-10-22,264,01,,,,,,,경기도 파주시청,031-940-5781,2026-05-11
피에스엠모터스㈜,02,경기도 파주시 송학말길 39-14,경기도 파주시 야당동 469-11,37.7062084281,126.7615398783,2012-09-13,1044,01,,,,,,,경기도 파주시청,031-940-5781,2026-05-11
픽스오토,03,경기도 파주시 시청로 215,경기도 파주시 금촌동 11-1,37.7710716403,126.7749775541,2017-12-06,1042,01,,,,,,,경기도 파주시청,031-940-5781,2026-05-11
하나모터스,01,경기도 파주시 숲속노을로 12,경기도 파주시 동패동 591-5,37.703155131,126.7196849259,2016-10-07,1096.5,01,,,,,,,경기도 파주시청,031-940-5781,2026-05-11
하이테크자동차공업사,03,경기도 파주시 조리읍 등원로353번길 3,경기도 파주시 조리읍 오산리 129-7,37.7737058444,126.8315719303,2005-06-02,122,01,,,,,,,경기도 파주시청,031-940-5781,2026-05-11
한국GM파주서비스센터,01,경기도 파주시 월롱면 통일로690번길 3,경기도 파주시 월롱면 영태리 493-1,37.7717508555,126.7913189935,1995-05-03,1695,01,,,,,,,경기도 파주시청,031-940-5781,2026-05-11
한국지엠파주금촌바로서비스,03,경기도 파주시 월롱면 아동로 162,경기도 파주시 월롱면 영태리 514-9,37.7733144715,126.7886369158,2002-02-15,169.68,01,,,,,,,경기도 파주시청,031-940-5781,2026-05-11
한국타이어 파주 출판단지점,03,경기도 파주시 산남로 98,경기도 파주시 산남동 129-2,37.6993133076,126.6950746511,2023-09-04,489,01,,,,,,,경기도 파주시청,031-940-5781,2026-05-11
한국타이어다진테크(주),03,경기도 파주시 광탄면 홀작로 235,경기도 파주시 광탄면 신산리 601-2,37.782423116,126.8391553911,2021-12-21,5548,01,,,,,,,경기도 파주시청,031-940-5781,2026-05-11
한별1급자동차공업사,01,경기도 파주시 광탄면 수레길 442,경기도 파주시 광탄면 분수리 464-1,37.770214523,126.8502608913,2003-07-14,2448,01,,,,,,,경기도 파주시청,031-940-5781,2026-05-11
한별1급자동차정비공장,01,경기도 파주시 월롱산로 43,경기도 파주시 야동동 217-7,37.7801256213,126.7656529764,2023-03-02,1037,01,,,,,,,경기도 파주시청,031-940-5781,2026-05-11
한빛카센타,03,경기도 파주시 운정로 77-19,경기도 파주시 상지석동 604-12,37.7232211332,126.7748861212,2017-10-17,288,01,,,,,,,경기도 파주시청,031-940-5781,2026-05-11
한성모터스,03,경기도 파주시 조리읍 통일로 318,경기도 파주시 조리읍 봉일천리 210-56,37.7443061102,126.8095747699,1998-11-20,297,01,,,,,,,경기도 파주시청,031-940-5781,2026-05-11
한양1급자동차공업사,01,경기도 파주시 월롱면 한태말길 3-10,경기도 파주시 월롱면 영태리 577-17,37.7783453826,126.7888532489,2006-01-23,3250,01,,,,,,,경기도 파주시청,031-940-5781,2026-05-11
한양자동차공업사,03,경기도 파주시 문산읍 문향로17번길 14,경기도 파주시 문산읍 문산리 22-4,37.8539115094,126.7854409885,2002-07-10,105,01,,,,,,,경기도 파주시청,031-940-5781,2026-05-11
한양카서비스,03,경기도 파주시 금정6길 37,경기도 파주시 금촌동 770-10,37.7586404623,126.7779492914,1997-09-05,193,01,,,,,,,경기도 파주시청,031-940-5781,2026-05-11
행복한자동차마을,03,경기도 파주시 쇠재안길 50,경기도 파주시 금릉동 434-4,37.7522250981,126.7781190422,2012-03-21,200,01,,,,,,,경기도 파주시청,031-940-5781,2026-05-11
행복한정비소,03,경기도 파주시 가온로 284-1,경기도 파주시 와동동 1374-1,37.7255053271,126.7579963073,2011-12-09,93.3,01,,,,,,,경기도 파주시청,031-940-5781,2026-05-11
현대공업사,03,경기도 파주시 솔아래길 141,경기도 파주시 상지석동 745-6,37.7376726517,126.7785829275,2016-03-29,129,01,,,,,,,경기도 파주시청,031-940-5781,2026-05-11
현대모터스,03,경기도 파주시 파주읍 술이홀로 491,경기도 파주시 파주읍 연풍리 282-67,37.8296348231,126.8412809274,2003-11-17,615,01,,,,,,,경기도 파주시청,031-940-5781,2026-05-11
현대보링,04,경기도 파주시 교하로 1312-39,경기도 파주시 교하동 622-5,37.749072983,126.7394669563,2020-04-01,660,01,,,,,,,경기도 파주시청,031-940-5781,2026-05-11
현대자동차공업사,03,경기도 파주시 적성면 감악산로 1216,경기도 파주시 적성면 구읍리 157-1,37.9552626561,126.9279518402,1999-10-27,124,01,,,,,,,경기도 파주시청,031-940-5781,2026-05-11
현대자동차공업사,03,경기도 파주시 쇠재1길 34,경기도 파주시 금릉동 446-3,37.7506732385,126.7796366826,2006-03-03,78.1,01,,,,,,,경기도 파주시청,031-940-5781,2026-05-11
현대자동차공업사,03,경기도 파주시 시민회관길 16-21,경기도 파주시 금촌동 780-4,37.7580298617,126.7799096861,2012-04-19,129.4,01,,,,,,,경기도 파주시청,031-940-5781,2026-05-11
현대자동차공업사,03,경기도 파주시 탄현면 하늘소로 102,경기도 파주시 탄현면 법흥리 1724,37.7747180714,126.7020423409,2013-08-02,130,01,,,,,,,경기도 파주시청,031-940-5781,2026-05-11
현대자동차광탄점,03,경기도 파주시 광탄면 동거리길 42,경기도 파주시 광탄면 신산리 217-16,37.7812331016,126.8498201301,2003-04-24,117,01,,,,,,,경기도 파주시청,031-940-5781,2026-05-11
현대자동차금촌점,03,경기도 파주시 평화로 4,경기도 파주시 금촌동 946-18,37.7584288298,126.7734541212,1999-03-10,136,01,,,,,,,경기도 파주시청,031-940-5781,2026-05-11
현대종합카공업사,03,경기도 파주시 월롱면 도감로 174,경기도 파주시 월롱면 위전리 201-3,37.7913133631,126.803865128,2006-03-30,372.2,01,,,,,,,경기도 파주시청,031-940-5781,2026-05-11
현대차병원 공업사,03,경기도 파주시 광탄면 어가길 127,경기도 파주시 광탄면 신산리 170-2,37.7776371476,126.8485980794,2019-04-03,443,01,,,,,,,경기도 파주시청,031-940-5781,2026-05-11
현대카 크리닉,03,경기도 파주시 탄현면 방촌로 551,경기도 파주시 탄현면 축현리 417-2,37.793652616,126.7173545587,2022-12-01,729,01,,,,,,,경기도 파주시청,031-940-5781,2026-05-11
현대카공업사,03,경기도 파주시 시청로 265,경기도 파주시 금촌동 410-4,37.7708992263,126.7693545706,2006-09-25,60,01,,,,,,,경기도 파주시청,031-940-5781,2026-05-11
현대카공업사,03,경기도 파주시 조리읍 능안로 83,경기도 파주시 조리읍 대원리 1033-7,37.7429750818,126.7979228552,2005-06-10,226,01,,,,,,,경기도 파주시청,031-940-5781,2026-05-11
현대카프라자,03,경기도 파주시 문산읍 독산로 7,경기도 파주시 문산읍 문산리 69-7,37.8577184142,126.7795555453,2002-10-11,189,01,,,,,,,경기도 파주시청,031-940-5781,2026-05-11
현성모터스,02,경기도 파주시 탑삭골1길 62,경기도 파주시 상지석동 197-5,37.7336134486,126.7912344692,2008-06-03,517,01,,,,,,,경기도 파주시청,031-940-5781,2026-05-11
현일카매니져,03,경기도 파주시 문산읍 사임당로 63,경기도 파주시 문산읍 선유리 745-38,37.8621339594,126.7999352978,2016-01-11,127.44,01,,,,,,,경기도 파주시청,031-940-5781,2026-05-11
훈이 카센터,03,경기도 파주시 교하로863번길 25-30,경기도 파주시 문발동 84-5,37.724386537,126.7005352667,2025-06-20,1268,01,,,,,,,경기도 파주시청,031-940-5781,2026-05-11
희망MOTORS,03,경기도 파주시 월롱산로 94,경기도 파주시 야동동 276-15,37.7834463744,126.7621453286,1998-01-12,170,01,,,,,,,경기도 파주시청,031-940-5781,2026-05-11
