자동차정비업체명,자동차정비업체종류,소재지도로명주소,소재지지번주소,위도,경도,사업등록일자,면적,영업상태,폐업일자,휴업시작일자,휴업종료일자,운영시작시각,운영종료시각,전화번호,관리기관명,관리기관전화번호,데이터기준일자
DM모터스,1,경기도 김포시 통진읍 율마로 339-42,,37.6835301318,126.5982674079,2025-11-14,1991,1,,,,09:00,18:00,,경기도 김포시청,031-5186-4903,2025-11-18
미래모터스,1,경기도 김포시 통진읍 옹달샘로 16-15,,37.6941223,126.570015,2025-11-05,1137,1,,,,09:00,18:00,,경기도 김포시청,031-5186-4903,2025-11-18
스카니아코리아그룹 주식회사,1,경기도 김포시 양촌읍 황금산단2로 59,,37.6027923,126.602625,2025-05-19,1435,1,,,,09:00,18:00,,경기도 김포시청,031-5186-4903,2025-11-18
1급김포현대카독크(주),1,경기도 김포시 양촌읍 김포대로1759번길 136,,37.6668545,126.637184,2024-11-01,425,1,,,,09:00,18:00,,경기도 김포시청,031-5186-4903,2025-11-18
(주)버디카모터서비스,1,경기도 김포시 통진읍 김포대로2435번길 112-86,,37.6932111069,126.5706882727,2024-09-24,1635,1,,,,09:00,18:00,,경기도 김포시청,031-5186-4903,2025-11-18
한강종합모터스 주식회사,1,경기도 김포시 양촌읍 향동로 29,,37.6217718923,126.6356693021,2024-09-24,260,1,,,,09:00,18:00,,경기도 김포시청,031-5186-4903,2025-11-18
신일특장(주),1,경기도 김포시 통진읍 가현로 218,,37.6802135663,126.594499222,2024-09-05,986,1,,,,09:00,18:00,,경기도 김포시청,031-5186-4903,2025-11-18
현진모터스,1,"경기도 김포시 고촌읍 아라육로57번길 87-11, 3층",,37.5920995689,126.7957804657,2024-08-09,1040,1,,,,09:00,18:00,,경기도 김포시청,031-5186-4903,2025-11-18
티엠씨 1급 자동차공업사,1,경기도 김포시 대곶면 율마로 33,,37.6558819325,126.5918646536,2023-09-26,769,1,,,,09:00,18:00,,경기도 김포시청,031-5186-4903,2025-11-18
국민자동차정비센터,1,"경기도 김포시 월곶면 군하로 125-11, 다동",,37.70489631,126.5582703,2023-06-15,169,1,,,,09:00,18:00,,경기도 김포시청,031-5186-4903,2025-11-18
양촌자동차공업사,1,경기도 김포시 통진읍 율마로 339-9,,37.6819067566,126.5978435639,2023-03-30,522,1,,,,09:00,18:00,,경기도 김포시청,031-5186-4903,2025-11-18
(주)유럽모터스,1,경기도 김포시 양촌읍 황금5로 27,,37.6077718356,126.6155593815,2022-07-04,2393,1,,,,09:00,18:00,,경기도 김포시청,031-5186-4903,2025-11-18
대명모터스,1,경기도 김포시 하성면 월하로705번길 54-1,,37.7117626395,126.6352057854,2022-05-27,200,1,,,,09:00,18:00,,경기도 김포시청,031-5186-4903,2025-11-18
주식회사 더블유 디에스,1,경기도 김포시 대곶면 대곶북로 257,,37.6683306191,126.5777611304,2022-02-21,624,1,,,,09:00,18:00,,경기도 김포시청,031-5186-4903,2025-11-18
동성모터스,1,경기도 김포시 통진읍 김포대로2004번길 99,,37.6847262912,126.6172378761,2022-01-10,274,1,,,,09:00,18:00,,경기도 김포시청,031-5186-4903,2025-11-18
일급코어모터스(주),1,경기도 김포시 월곶면 점동로 16,,37.7179552065,126.5589955832,2021-11-17,495,1,,,,09:00,18:00,,경기도 김포시청,031-5186-4903,2025-11-18
(주)토르모터스,1,경기도 김포시 통진읍 대서명로 25,,37.6982979834,126.6083195343,2021-07-09,463,1,,,,09:00,18:00,,경기도 김포시청,031-5186-4903,2025-11-18
동아탑 주식회사,1,경기도 김포시 대곶면 대곶서로 292-6,,37.6435703807,126.5844412391,2021-03-23,370,1,,,,09:00,18:00,,경기도 김포시청,031-5186-4903,2025-11-18
주식회사 통진서비스,1,경기도 김포시 통진읍 서암고정로 196,,37.702352398,126.6087142501,2021-03-15,1199,1,,,,09:00,18:00,,경기도 김포시청,031-5186-4903,2025-11-18
대곶KH모터스,1,경기도 김포시 대곶면 율마로 117,,37.6619922725,126.596239902,2021-01-28,462,1,,,,09:00,18:00,,경기도 김포시청,031-5186-4903,2025-11-18
주식회사 루돌프앤특장,1,경기도 김포시 통진읍 옹정로17번길 80,,37.6829535684,126.56714304,2021-01-06,420,1,,,,09:00,18:00,,경기도 김포시청,031-5186-4903,2025-11-18
글로벌 차량광고,1,경기도 김포시 통진읍 대곶북로 180-4,,37.6631799012,126.583378563,2020-11-20,394,1,,,,09:00,18:00,,경기도 김포시청,031-5186-4903,2025-11-18
(주)아라현대자동차서비스,1,"경기도 김포시 고촌읍 아라육로57번길 87-11, 3층",,37.5920995689,126.7957804657,2020-10-15,1300,1,,,,09:00,18:00,,경기도 김포시청,031-5186-4903,2025-11-18
(주)르노코리아김포정비사업소,1,경기도 김포시 통진읍 흥신로 252,,37.6794423992,126.611465487,2020-08-03,1162,1,,,,09:00,18:00,,경기도 김포시청,031-5186-4903,2025-11-18
MG모터스,1,경기도 김포시 통진읍 가현로 50,,37.6691221332,126.5837965732,2020-04-24,587,1,,,,09:00,18:00,,경기도 김포시청,031-5186-4903,2025-11-18
(주)트리플모터스,1,경기도 김포시 양촌읍 흥신로 220,,37.6766777754,126.6137188102,2019-08-23,951,1,,,,09:00,18:00,,경기도 김포시청,031-5186-4903,2025-11-18
김포무지개모터스,1,"경기도 김포시 하성면 월하로 593, 101동(외 1)",,37.7113217957,126.6214863171,2019-06-18,540,1,,,,09:00,18:00,,경기도 김포시청,031-5186-4903,2025-11-18
스카이모터스,1,경기도 김포시 하성면 월하로 940(940-1),,37.7042658065,126.6570148539,2019-06-17,1008,1,,,,09:00,18:00,,경기도 김포시청,031-5186-4903,2025-11-18
뉴아이닉카,1,경기도 김포시 대곶면 율마로 33,,37.6558819325,126.5918646536,2019-01-16,465,1,,,,09:00,18:00,,경기도 김포시청,031-5186-4903,2025-11-18
YJ 김포1급자동차공업사,1,경기도 김포시 통진읍 가현로 50,,37.6691221332,126.5837965732,2018-06-27,814,1,,,,09:00,18:00,,경기도 김포시청,031-5186-4903,2025-11-18
고창모터스,1,경기도 김포시 하성면 월하로705번길 54,,37.71147098,126.6347932,2018-03-19,200,1,,,,09:00,18:00,,경기도 김포시청,031-5186-4903,2025-11-18
올도색닷컴,1,경기도 김포시 대곶면 대곶남로 491,,37.6328813422,126.5996842288,2017-08-17,1041,1,,,,09:00,18:00,,경기도 김포시청,031-5186-4903,2025-11-18
김포서비스기아오토큐 주식회사,1,경기도 김포시 양촌읍 석모로5번길 16,,37.6509493106,126.6493972171,2017-02-17,3441,1,,,,09:00,18:00,,경기도 김포시청,031-5186-4903,2025-11-18
용카마스터,1,"경기도 김포시 하성면 원산로94번길 94(-96, -98, -100)",,37.7151489286,126.6237095203,2016-12-23,795,1,,,,09:00,18:00,,경기도 김포시청,031-5186-4903,2025-11-18
주식회사 서광특장,1,경기도 김포시 하성면 석평로 78,,37.721446635,126.6429250672,2016-10-04,640,1,,,,09:00,18:00,,경기도 김포시청,031-5186-4903,2025-11-18
1급삼부자동차공업사,1,,경기도 김포시 통진읍 귀전리 66번지 1호 외 2,37.725402,126.603156,2016-06-21,1510,1,,,,09:00,18:00,,경기도 김포시청,031-5186-4903,2025-11-18
유진리프트게이트,1,경기도 김포시 통진읍 율마로223번길 38,,37.6721278897,126.5968751769,2015-12-16,370,1,,,,09:00,18:00,,경기도 김포시청,031-5186-4903,2025-11-18
한들자동차서비스,1,경기도 김포시 월곶면 비석동로27번길 129,,37.7059994591,126.5651308955,2015-12-01,1237,1,,,,09:00,18:00,,경기도 김포시청,031-5186-4903,2025-11-18
(주)지엔지트럭센타,1,경기도 김포시 통진읍 김포대로2051번길 1,,37.6838794,126.616369,2015-10-08,1840,1,,,,09:00,18:00,,경기도 김포시청,031-5186-4903,2025-11-18
킴스모터스,1,"경기도 김포시 양촌읍 석모로95번길 5, 103동",,37.652350859,126.6400290608,2015-09-21,495,1,,,,09:00,18:00,,경기도 김포시청,031-5186-4903,2025-11-18
강서자동차공업(주),1,경기도 김포시 고촌읍 아라육로57번길 87-11,,37.5920995689,126.7957804657,2015-08-24,6421,1,,,,09:00,18:00,,경기도 김포시청,031-5186-4903,2025-11-18
중앙현대자동차,1,경기도 김포시 대곶면 대곶북로 85,,37.6584232932,126.5909216729,2015-08-05,513,1,,,,09:00,18:00,,경기도 김포시청,031-5186-4903,2025-11-18
한결자동차공업사,1,경기도 김포시 통진읍 김포대로2462번길 10,,37.6982414577,126.5764088963,2015-05-29,461,1,,,,09:00,18:00,,경기도 김포시청,031-5186-4903,2025-11-18
신김포1급자동차검사정비,1,경기도 김포시 양촌읍 대곶남로 697-16,,37.6467076325,126.614798807,2015-04-03,1850,1,,,,09:00,18:00,,경기도 김포시청,031-5186-4903,2025-11-18
와이제이모터스,1,경기도 김포시 하성면 하성로 462,,37.7161539239,126.6377065313,2015-01-07,1004,1,,,,09:00,18:00,,경기도 김포시청,031-5186-4903,2025-11-18
(주)현대자동차정비공업사,1,경기도 김포시 양촌읍 봉수대로 1826(외6),,37.6312457,126.628904,2014-10-21,1749,1,,,,09:00,18:00,,경기도 김포시청,031-5186-4903,2025-11-18
제일한강모터스 주식회사,1,경기도 김포시 양촌읍 석모로5번길 33-7,,37.650548861,126.6507151631,2014-02-24,818,1,,,,09:00,18:00,,경기도 김포시청,031-5186-4903,2025-11-18
대성모터스,1,경기도 김포시 하성면 하성로 540,,37.7225790136,126.6336884084,2013-08-23,627,1,,,,09:00,18:00,,경기도 김포시청,031-5186-4903,2025-11-18
(주)행복한자동차공업사,1,"경기도 김포시 금포로 1165, 309동(운양동)",,37.648506745,126.7019607639,2013-07-29,268,1,,,,09:00,18:00,,경기도 김포시청,031-5186-4903,2025-11-18
마이카모터스,1,경기도 김포시 통진읍 김포대로2462번길 9,,37.6984279631,126.5762346892,2013-04-01,310,1,,,,09:00,18:00,,경기도 김포시청,031-5186-4903,2025-11-18
(주)김포북부현대서비스,1,경기도 김포시 양촌읍 양곡3로 156,,37.6630309484,126.6334442444,2012-05-31,980,1,,,,09:00,18:00,,경기도 김포시청,031-5186-4903,2025-11-18
(주)VIP 자동차 서비스,1,,"경기도 김포시 양촌읍 양곡리 35번지 , 35-4",37.6665343,126.637766,2011-06-23,1250,1,,,,09:00,18:00,,경기도 김포시청,031-5186-4903,2025-11-18
경기 특장,1,경기도 김포시 하성면 하성로 299,,37.7017425746,126.6354326981,2011-03-11,2977,1,,,,09:00,18:00,,경기도 김포시청,031-5186-4903,2025-11-18
1급광성자동차공업사,1,경기도 김포시 통진읍 율마로 249,,37.6733668562,126.5974664034,2010-08-27,347,1,,,,09:00,18:00,,경기도 김포시청,031-5186-4903,2025-11-18
대아이엔지,1,경기도 김포시 양촌읍 김포대로1644번길 50,,37.6666131578,126.6557263179,2008-10-22,2103,1,,,,09:00,18:00,,경기도 김포시청,031-5186-4903,2025-11-18
현대영일자동차,1,경기도 김포시 김포대로1473번길 29(장기동),,37.653625519,126.6674236329,2008-05-08,432,1,,,,09:00,18:00,,경기도 김포시청,031-5186-4903,2025-11-18
동아특장차,1,경기도 김포시 월곶면 대곶로 466-29,,37.6841760618,126.5551967184,2008-01-30,351,1,,,,09:00,18:00,,경기도 김포시청,031-5186-4903,2025-11-18
(주)원나인모터스,1,경기도 김포시 양촌읍 김포대로 1741,,37.668742958,126.645830447,2006-07-28,925,1,,,,09:00,18:00,,경기도 김포시청,031-5186-4903,2025-11-18
현대모터스검사정비,1,"경기도 김포시 감암로 87, , -123, -237(걸포동)",,37.6390744874,126.7093733515,2005-04-22,627,1,,,,09:00,18:00,,경기도 김포시청,031-5186-4903,2025-11-18
초원자동차공업사,1,,"경기도 김포시 대곶면 거물대리 442번지 7호 , 448-2",37.663935,126.597535,2004-07-06,609,1,,,,09:00,18:00,,경기도 김포시청,031-5186-4903,2025-11-18
초원,1,경기도 김포시 하성면 원통로28번길 37,,37.714671624,126.6191168333,2004-02-13,660,1,,,,09:00,18:00,,경기도 김포시청,031-5186-4903,2025-11-18
1급성일카랜드,1,경기도 김포시 하성면 하성로 386,,37.7093832808,126.637107141,2004-01-20,635,1,,,,09:00,18:00,,경기도 김포시청,031-5186-4903,2025-11-18
하나로모터스,1,"경기도 김포시 옹주물로 108, 135동(감정동)",,37.6307747777,126.6835130067,2003-12-11,408,1,,,,09:00,18:00,,경기도 김포시청,031-5186-4903,2025-11-18
김포제일자동차,1,"경기도 김포시 대곶면 대명항로 237, 103동",,37.6534769427,126.5931127919,2003-04-30,583,1,,,,09:00,18:00,,경기도 김포시청,031-5186-4903,2025-11-18
자동차와 사람들,1,경기도 김포시 대곶면 대곶남로 609-5(외1필지),,37.641585605,126.6064835321,2003-02-18,2171,1,,,,09:00,18:00,,경기도 김포시청,031-5186-4903,2025-11-18
진흥자동차공업사,1,경기도 김포시 월곶면 오리정로 53,,37.6984544764,126.5569739591,2003-02-18,166,1,,,,09:00,18:00,,경기도 김포시청,031-5186-4903,2025-11-18
(주)대한특장,1,경기도 김포시 통진읍 원통로28번길 20,,37.714371777,126.6178624215,2003-01-10,981,1,,,,09:00,18:00,,경기도 김포시청,031-5186-4903,2025-11-18
김포현대카독크,1,경기도 김포시 김포대로1544번길 29(운양동),,37.6611111889,126.6670343749,2002-12-17,963,1,,,,09:00,18:00,,경기도 김포시청,031-5186-4903,2025-11-18
신일자동차(주),1,경기도 김포시 대곶면 율마로181번길 63,,37.6670276287,126.5944237515,2002-10-31,514,1,,,,09:00,18:00,,경기도 김포시청,031-5186-4903,2025-11-18
오픈카자동차공업사,1,경기도 김포시 통진읍 김포대로 2303,,37.69219843,126.590242767,2002-07-05,143,1,,,,09:00,18:00,,경기도 김포시청,031-5186-4903,2025-11-18
태양특장(주),1,경기도 김포시 하성면 월하로 632-39,,37.709799259,126.6228673074,2002-05-09,247,1,,,,09:00,18:00,,경기도 김포시청,031-5186-4903,2025-11-18
신한국자동차1급공업사,1,"경기도 김포시 양촌읍 석모로 38, 107동",,37.6524435782,126.6462266416,2001-10-30,396,1,,,,09:00,18:00,,경기도 김포시청,031-5186-4903,2025-11-18
주식회사 호박모터스,1,경기도 김포시 월곶면 김포대로 2673,,37.708756795,126.5562361737,2001-08-11,304,1,,,,09:00,18:00,,경기도 김포시청,031-5186-4903,2025-11-18
경기 자동차 공업사,1,경기도 김포시 통진읍 하성로 61,,37.6807061728,126.6317907309,2001-08-03,141,1,,,,09:00,18:00,,경기도 김포시청,031-5186-4903,2025-11-18
양곡자동차정비,1,경기도 김포시 양촌읍 양곡4로 117,,37.6588854271,126.6221254364,2000-11-13,243,1,,,,09:00,18:00,,경기도 김포시청,031-5186-4903,2025-11-18
김포현대모터스,1,경기도 김포시 감정로19번길 46(감정동),,37.6213373021,126.7025480658,1998-03-25,165,1,,,,09:00,18:00,,경기도 김포시청,031-5186-4903,2025-11-18
예진기업사,1,,경기도 김포시 양촌읍 누산리 348번지 1호,37.6581659,126.663474,1998-02-28,560,1,,,,09:00,18:00,,경기도 김포시청,031-5186-4903,2025-11-18
대성공업사,1,경기도 김포시 양촌읍 황금로24번길 62,,37.6226049526,126.6304865532,1997-09-12,265,1,,,,09:00,18:00,,경기도 김포시청,031-5186-4903,2025-11-18
(주)한강자동차,1,경기도 김포시 통진읍 흥신로 252(흥신로 248),,37.6794423992,126.611465487,1997-05-09,431,1,,,,09:00,18:00,,경기도 김포시청,031-5186-4903,2025-11-18
뉴월드모터스,1,경기도 김포시 하성면 석평로15번길 13,,37.7199799914,126.6360444047,1995-05-13,135,1,,,,09:00,18:00,,경기도 김포시청,031-5186-4903,2025-11-18
통진특장공업(주),1,경기도 김포시 통진읍 김포대로 2081,,37.6845098988,126.6130478676,1994-06-01,583,1,,,,09:00,18:00,,경기도 김포시청,031-5186-4903,2025-11-18
태양아트,1,경기도 김포시 승가로76번길 104-25(풍무동),,37.6096781473,126.7172269524,1994-03-14,947,1,,,,09:00,18:00,,경기도 김포시청,031-5186-4903,2025-11-18
평화탑자동차정비,1,경기도 김포시 대곶면 초원로 86,,37.6543735289,126.5968197816,1992-12-23,139,1,,,,09:00,18:00,,경기도 김포시청,031-5186-4903,2025-11-18
(주)김포카독크,1,경기도 김포시 조리미로 17(사우동),,37.615185764,126.7240303358,1989-09-04,855,1,,,,09:00,18:00,,경기도 김포시청,031-5186-4903,2025-11-18
1급동아탑정비,1,경기도 김포시 양촌읍 김포대로 1622,,37.664332878,126.6579257458,1981-08-05,1337,1,,,,09:00,18:00,,경기도 김포시청,031-5186-4903,2025-11-18
몬스터 팩토리,2,경기도 김포시 조리미로 20(사우동),,37.6154564534,126.7245459321,2024-11-29,474,1,,,,09:00,18:00,,경기도 김포시청,031-5186-4903,2025-11-18
부흥모터스,2,경기도 김포시 대곶면 율마로 90-24,,37.6593308077,126.5976954224,2024-09-13,693,1,,,,09:00,18:00,,경기도 김포시청,031-5186-4903,2025-11-18
디엔모터스,2,경기도 김포시 대곶면 율마로194번길 118,,37.6650939965,126.6018934471,2024-05-02,391,1,,,,09:00,18:00,,경기도 김포시청,031-5186-4903,2025-11-18
한백공업사,2,경기도 김포시 대곶면 대곶서로 214-8,,37.6381956092,126.5809558804,2024-04-17,594,1,,,,09:00,18:00,,경기도 김포시청,031-5186-4903,2025-11-18
SC모터스,2,경기도 김포시 양촌읍 봉수대로 1853-23,,37.6334350731,126.6268059622,2022-09-20,151,1,,,,09:00,18:00,,경기도 김포시청,031-5186-4903,2025-11-18
마크라모터스(주),2,경기도 김포시 통진읍 월하로519번길 86-4,,37.7147091134,126.610624503,2022-04-12,179,1,,,,09:00,18:00,,경기도 김포시청,031-5186-4903,2025-11-18
세창모터스,2,경기도 김포시 하성면 애기봉로774번길 83-1,,37.7170509986,126.6201121917,2022-01-12,328,1,,,,09:00,18:00,,경기도 김포시청,031-5186-4903,2025-11-18
(주)AMC카케어,2,경기도 김포시 승가로 58번길 107(풍무동),,37.6105864322,126.7168889538,2021-10-26,1070,1,,,,09:00,18:00,,경기도 김포시청,031-5186-4903,2025-11-18
태훈자동차,2,경기도 김포시 통진읍 고정1로 3,,37.711789184,126.5988320977,2020-11-02,1404,1,,,,09:00,18:00,,경기도 김포시청,031-5186-4903,2025-11-18
은성자동차공업사,2,"경기도 김포시 월곶면 군하로 297, 128동",,37.7156368604,126.5498229933,2019-10-11,1400,1,,,,09:00,18:00,,경기도 김포시청,031-5186-4903,2025-11-18
아우라모터스,2,경기도 김포시 양촌읍 발산로 143,,37.6678206598,126.6602676184,2019-08-21,2176,1,,,,09:00,18:00,,경기도 김포시청,031-5186-4903,2025-11-18
아름다운자동차,2,경기도 김포시 운곡로 7(장기동),,37.6504449851,126.6590014899,2016-05-17,1648,1,,,,09:00,18:00,,경기도 김포시청,031-5186-4903,2025-11-18
케이씨씨오토(주) 김포 서비스센터,2,경기도 김포시 양촌읍 모산로 14-1(김포한강4로 236 추가),,37.65080627,126.656885902,2014-07-16,1484,1,,,,09:00,18:00,,경기도 김포시청,031-5186-4903,2025-11-18
(주)전진모터스,2,경기도 김포시 대곶면 대명항로 278,,37.6514096212,126.5891787892,2014-05-01,1237,1,,,,09:00,18:00,,경기도 김포시청,031-5186-4903,2025-11-18
2급 성도자동차 공업사,2,경기도 김포시 통진읍 김포대로2462번길 11,,37.6985691881,126.5764472849,2013-07-08,1157,1,,,,09:00,18:00,,경기도 김포시청,031-5186-4903,2025-11-18
신영 모터스,2,경기도 김포시 대곶면 수남로 57,,37.6302121913,126.5852598053,2011-09-23,1050,1,,,,09:00,18:00,,경기도 김포시청,031-5186-4903,2025-11-18
태산자동차공업사,2,경기도 김포시 하성면 하성로 331,,37.7044922048,126.6363529582,2011-09-08,3430,1,,,,09:00,18:00,,경기도 김포시청,031-5186-4903,2025-11-18
케이지모빌리티김포서비스센터(주),2,경기도 김포시 감암로 53(걸포동),,37.6358358078,126.7101754045,2010-06-24,2718,1,,,,10:00,18:00,,경기도 김포시청,031-5186-4903,2025-11-18
원산자동차공업사,2,경기도 김포시 통진읍 월하로 551,,37.7124116621,126.6165679211,2007-03-21,1178,1,,,,09:00,18:00,,경기도 김포시청,031-5186-4903,2025-11-18
(주)김포 현대자동차 정비공업사,2,경기도 김포시 감정로38번길 51(감정동),,37.620103404,126.6982894653,2002-02-14,3598,1,,,,09:00,18:00,,경기도 김포시청,031-5186-4903,2025-11-18
대산자동차공업사,2,경기도 김포시 풍무로 115(풍무동),,37.6059762103,126.7220977857,2000-06-26,1642,1,,,,09:00,18:00,,경기도 김포시청,031-5186-4903,2025-11-18
서암모터스,2,경기도 김포시 통진읍 서암로183번길 134,,37.7032743831,126.5976112346,1999-09-27,2433,1,,,,09:00,18:00,,경기도 김포시청,031-5186-4903,2025-11-18
대우자동차 김포서비스(주),2,경기도 김포시 양촌읍 양곡로 358,,37.6653116536,126.6363172891,1996-03-11,2130,1,,,,09:00,18:00,,경기도 김포시청,031-5186-4903,2025-11-18
형제밧데리타이어,3,경기도 김포시 양촌읍 양곡우회로 81,,37.6641681325,126.6298863113,1997-09-26,190,1,,,,09:00,18:00,,경기도 김포시청,031-5186-4903,2025-11-18
현대종합카센타,3,경기도 김포시 승가로 55 (풍무동 662-39),,37.6065475609,126.7164684749,1997-12-29,195,1,,,,09:00,18:00,,경기도 김포시청,031-5186-4903,2025-11-18
태리카센타,3,경기도 김포시 고촌읍 장곡로 13 (고촌읍 태리 31-27),,37.6057462347,126.7534214488,1997-12-29,323,1,,,,09:00,18:00,,경기도 김포시청,031-5186-4903,2025-11-18
나진카센타,3,경기도 김포시 김포대로 1129 (감정동 407-10),,37.6333071472,126.696361578,1998-02-06,110,1,,,,09:00,18:00,,경기도 김포시청,031-5186-4903,2025-11-18
현대카센타,3,경기도 김포시 중봉로 54 (감정동 475-12),,37.6267957831,126.6978160887,1998-02-17,398,1,,,,09:00,18:00,,경기도 김포시청,031-5186-4903,2025-11-18
한국지엠 김포제일 바로서비스,3,경기도 김포시 중구로 5 (북변동 449-13외 6필지),,37.6226196765,126.710482722,1998-03-05,101,1,,,,09:00,18:00,,경기도 김포시청,031-5186-4903,2025-11-18
통진종합카 서비스㈜,3,경기도 김포시 대곶면 대곶북로 237 (대곶면 송마리 2-1),,37.6669177463,126.5789050444,1998-03-18,80,1,,,,09:00,18:00,,경기도 김포시청,031-5186-4903,2025-11-18
통진점 기아오토큐,3,경기도 김포시 통진읍 월하로 566 (통진읍 귀전리 655-9),,37.7116645561,126.6180598218,1998-04-22,33,1,,,,09:00,18:00,,경기도 김포시청,031-5186-4903,2025-11-18
금호카센타,3,경기도 김포시 봉화로 76 (사우동),,37.6216312318,126.710676741,1998-04-08,539,1,,,,09:00,18:00,,경기도 김포시청,031-5186-4903,2025-11-18
수참자동차공업사,3,경기도 김포시 통진읍 하성로 64 (통진읍 수참리 234-2),,37.681178555,126.6322243921,1998-05-05,489,1,,,,09:00,18:00,,경기도 김포시청,031-5186-4903,2025-11-18
주식회사 (블루핸즈) 풍무점,3,경기도 김포시 풍무로146번길 78(풍무동 977),,37.6075475239,126.7278630235,1998-07-10,689,1,,,,09:00,18:00,,경기도 김포시청,031-5186-4903,2025-11-18
동원자동차공업사,3,경기도 김포시 월곶면 군하로 172 (월곶면 갈산리 379-4),,37.7091837973,126.5588140649,1998-07-10,102,1,,,,09:00,18:00,,경기도 김포시청,031-5186-4903,2025-11-18
유진경정비,3,경기도 김포시 하성면 월하로 599 (하성면 원산리 655-2),,37.7110725127,126.6219403138,1998-07-16,113,1,,,,09:00,18:00,,경기도 김포시청,031-5186-4903,2025-11-18
진영카센터,3,경기도 김포시 양촌읍 누산로 9,,37.6634369337,126.6603845013,1998-07-31,25,1,,,,09:00,18:00,,경기도 김포시청,031-5186-4903,2025-11-18
순흥카센타,3,경기도 김포시 양촌읍 양곡1로 7 (양촌읍 구래리 238-13),,37.6513257563,126.6236410726,1998-08-08,160,1,,,,09:00,18:00,,경기도 김포시청,031-5186-4903,2025-11-18
수남자동차공업사,3,경기도 김포시 대곶면 대곶남로 383 (대곶면 대능리 494-10),,37.627457112,126.5901153018,1998-08-21,80,1,,,,09:00,18:00,,경기도 김포시청,031-5186-4903,2025-11-18
통진카백화점,3,경기도 김포시 통진읍 검암1로 6,,37.6959749143,126.5881927171,1998-09-04,171,1,,,,09:00,18:00,,경기도 김포시청,031-5186-4903,2025-11-18
평화자동차공업사,3,경기도 김포시 월곶면 군하로 169 (월곶면 갈산리 380-6),,37.7089980667,126.5582736543,1998-09-04,77,1,,,,09:00,18:00,,경기도 김포시청,031-5186-4903,2025-11-18
유병덕 카 클리닉,3,경기도 김포시 통진읍 김포대로2004번길 17-5 (통진읍 도사리 644-8),,37.68242176,126.620311,1998-09-04,104,1,,,,09:00,18:00,,경기도 김포시청,031-5186-4903,2025-11-18
동림카서비스,3,경기도 김포시 통진읍 서암로 118 (통진읍 서암리 797),,37.6954313641,126.6007432553,1998-09-12,190,1,,,,09:00,18:00,,경기도 김포시청,031-5186-4903,2025-11-18
오토오아시스 홈플러스 김포점,3,경기도 김포시 중봉로 14(감정동) / (홈플러스 김포점 2층),,37.6238474484,126.6986084996,1998-09-21,80,1,,,,09:00,18:00,,경기도 김포시청,031-5186-4903,2025-11-18
이레카정비,3,경기도 김포시 하성면 하성로 479 (하성면 마곡리 583-10),,37.717461733,126.6362024677,1998-09-25,171,1,,,,09:00,18:00,,경기도 김포시청,031-5186-4903,2025-11-18
천성카센타,3,경기도 김포시 하성면 하성로 287 (하성면 원산리 486-6),,37.7008925553,126.6354477467,1998-09-25,196,1,,,,09:00,18:00,,경기도 김포시청,031-5186-4903,2025-11-18
주식회사 감동정비,3,경기도 김포시 양촌읍 석모로73번길 92-1 (양촌읍 석모리 1035-5),,37.6489186144,126.6418753161,1998-09-25,98,1,,,,09:00,18:00,,경기도 김포시청,031-5186-4903,2025-11-18
풍무자동차정비센터,3,경기도 김포시 풍무로 120 (풍무동 115-8),,37.6062948,126.722786,1998-09-25,784,1,,,,09:00,18:00,,경기도 김포시청,031-5186-4903,2025-11-18
통진자동차공업사,3,경기도 김포시 월곶면 군하로 227 (월곶면 군하리 39-7),,37.7137909524,126.5562613835,1998-09-25,186,1,,,,09:00,18:00,,경기도 김포시청,031-5186-4903,2025-11-18
현대카센타,3,경기도 김포시 대곶면 대곶북로 218 (대곶면 송마리 3-166),,37.6654381641,126.580269509,1998-10-30,398,1,,,,09:00,18:00,,경기도 김포시청,031-5186-4903,2025-11-18
마이카 공업사,3,경기도 김포시 대곶면 율생로 17 (대곶면 율생리 349-6),,37.6520622554,126.5894020586,1998-10-30,360,1,,,,09:00,18:00,,경기도 김포시청,031-5186-4903,2025-11-18
월곶카정비센터,3,경기도 김포시 월곶면 애기봉로 59(월곶면 고막리 419-9),,37.7199328343,126.5578430582,1998-11-04,198,1,,,,09:00,18:00,,경기도 김포시청,031-5186-4903,2025-11-18
그린카마스타,3,경기도 김포시 양촌읍 양곡리 292-9(양촌읍 오니산로 247),,37.6585638,126.621499,1998-11-09,126,1,,,,09:00,18:00,,경기도 김포시청,031-5186-4903,2025-11-18
한양카인테리어,3,경기도 김포시 대곶면 율생로 94,,37.6506155925,126.5813375571,1998-11-11,206,1,,,,09:00,18:00,,경기도 김포시청,031-5186-4903,2025-11-18
서울카 세차장,3,경기도 김포시 대곶면 율마로 93,,37.6596543944,126.5959428311,1998-11-16,285,1,,,,09:00,18:00,,경기도 김포시청,031-5186-4903,2025-11-18
아시아카센타,3,경기도 김포시 양촌읍 양곡1로 16 (양촌읍 구래리 224-8),,37.6520426582,126.6243174828,1998-11-21,101,1,,,,09:00,18:00,,경기도 김포시청,031-5186-4903,2025-11-18
아우토반카뱅크,3,경기도 김포시 대곶면 대곶로 365,,37.6761334307,126.5539276585,1999-02-27,140,1,,,,09:00,18:00,,경기도 김포시청,031-5186-4903,2025-11-18
한강차량정비,3,경기도 김포시 중구로 71 (북변동 387-8),,37.6268229992,126.7114970507,1999-04-19,170,1,,,,09:00,18:00,,경기도 김포시청,031-5186-4903,2025-11-18
스피드메이트 고촌제일점,3,경기도 김포시 고촌읍 장차로13번길 9 (고촌읍 신곡리 1063-5),,37.6033479692,126.76996821,1999-04-30,439,1,,,,09:00,18:00,,경기도 김포시청,031-5186-4903,2025-11-18
금강공업사,3,경기도 김포시 양촌읍 향동로 8 (양촌읍 대포리 34-1),,37.6201529423,126.6344251074,1999-04-30,2418,1,,,,09:00,18:00,,경기도 김포시청,031-5186-4903,2025-11-18
사우점 기아오토큐㈜,3,경기도 김포시 중구로 3(북변동),,37.6223795379,126.7099584,1999-06-13,714,1,,,,09:00,18:00,,경기도 김포시청,031-5186-4903,2025-11-18
대원종합상사,3,,"경기도 김포시 북변동 135-15, -34",37.6312496757,126.7052131959,1999-07-29,102,1,,,,09:00,18:00,,경기도 김포시청,031-5186-4903,2025-11-18
CJ 모터스,3,경기도 김포시 대곶면 율마로 175 (대곶면 거물대리 392-3),,37.6670361747,126.5969958852,1999-07-29,132,1,,,,09:00,18:00,,경기도 김포시청,031-5186-4903,2025-11-18
부흥카,3,경기도 김포시 대곶면 율마로 74 (대곶면 초원지리 425외426-1),,37.6578468228,126.595565046,1999-08-09,132,1,,,,09:00,18:00,,경기도 김포시청,031-5186-4903,2025-11-18
OK자동차 공업사,3,경기도 김포시 돌문로61번길 11 (사우동 236-1),,37.6194845083,126.7163767639,2000-05-12,303,1,,,,09:00,18:00,,경기도 김포시청,031-5186-4903,2025-11-18
현대카정비센타,3,경기도 김포시 양촌읍 황금1로 212 (양촌읍 학운리 252-1),,37.6245413323,126.6119859066,2000-07-04,848,1,,,,09:00,18:00,,경기도 김포시청,031-5186-4903,2025-11-18
서울카부분정비공업사,3,경기도 김포시 승가로 3 (풍무동 115-11),,37.6063950429,126.7220058539,2000-07-18,144,1,,,,09:00,18:00,,경기도 김포시청,031-5186-4903,2025-11-18
하성점현대자동차,3,경기도 김포시 하성면 월하로 724,,37.7095003538,126.6349593288,2000-09-30,828,1,,,,09:00,18:00,,경기도 김포시청,031-5186-4903,2025-11-18
감정점 기아오토큐,3,경기도 김포시 중봉로25번길 14 (감정동 505),,37.6244523293,126.6961338895,2000-12-07,1007,1,,,,09:00,18:00,,경기도 김포시청,031-5186-4903,2025-11-18
뉴텍카클리닉,3,"경기도 김포시 풍무로 213-1 (사우동 407-18,-53)",,37.6143696613,126.7249223473,2000-12-08,101,1,,,,09:00,18:00,,경기도 김포시청,031-5186-4903,2025-11-18
김포대성카센터,3,경기도 김포시 중봉로 37 (감정동 520-8),,37.6259792753,126.6964679661,2000-12-28,80,1,,,,09:00,18:00,,경기도 김포시청,031-5186-4903,2025-11-18
스피드메이트 김포점,3,경기도 김포시 김포대로 970 (북변동 800),,37.6284863571,126.71262595,2001-02-22,1605,1,,,,09:00,18:00,,경기도 김포시청,031-5186-4903,2025-11-18
기아오토큐 대곶점,3,경기도 김포시 대곶면 율마로 60,,37.6567730162,126.5944037236,2001-03-14,873,1,,,,09:00,18:00,,경기도 김포시청,031-5186-4903,2025-11-18
석모점 현대자동차,3,경기도 김포시 양촌읍 김포한강4로 260 (양촌읍 석모리 354-2),,37.6517043892,126.6545784529,2001-03-14,661,1,,,,09:00,18:00,,경기도 김포시청,031-5186-4903,2025-11-18
서울오토카공업사,3,경기도 김포시 중봉로33번길 4 (감정동 485-16),,37.6257940431,126.6962617577,2001-04-12,496,1,,,,09:00,18:00,,경기도 김포시청,031-5186-4903,2025-11-18
효창모터스,3,경기도 김포시 북변중로 133 (북변동 142-6),,37.630545956,126.7039689149,2001-08-07,89,1,,,,09:00,18:00,,경기도 김포시청,031-5186-4903,2025-11-18
대형카공업사,3,,경기도 김포시 대곶면 대능리 425-1,37.6310226011,126.5929355571,2001-08-07,174,1,,,,09:00,18:00,,경기도 김포시청,031-5186-4903,2025-11-18
감정정비센터,3,경기도 김포시 고촌읍 은행영사정로 155(신곡리),,37.6062074052,126.7838212044,2001-09-12,121,1,,,,09:00,18:00,,경기도 김포시청,031-5186-4903,2025-11-18
풍무카서비스,3,경기도 김포시 풍무로 15 (풍무동 596-5),,37.5969856914,126.7206045797,2001-09-12,107,1,,,,09:00,18:00,,경기도 김포시청,031-5186-4903,2025-11-18
케이지모빌리티 김포서비스프라자,3,경기도 김포시 통진읍 하성로 90 (통진읍 수참리 256 외3),,37.6834652676,126.6319201618,2001-10-11,91,1,,,,09:00,18:00,,경기도 김포시청,031-5186-4903,2025-11-18
MOTOR HOUSE Car Repair,3,경기도 김포시 대곶면 대명항로 267 (대곶면 율생리 351-15),,37.6515042521,126.5904306609,2001-10-30,100,1,,,,09:00,18:00,,경기도 김포시청,031-5186-4903,2025-11-18
장기점현대자동차,3,경기도 김포시 김포한강2로24번길 78-19(장기동),,37.6462615968,126.6767123538,2002-02-26,273,1,,,,09:00,18:00,,경기도 김포시청,031-5186-4903,2025-11-18
팀자동차(티스테이션 장기점),3,경기도 김포시 김포대로 1130-1 (감정동 404-8번지),,37.6338865386,126.6966299879,2002-08-26,73,1,,,,09:00,18:00,,경기도 김포시청,031-5186-4903,2025-11-18
탱크밋션,3,경기도 김포시 통진읍 율마로 226 (통진읍 가현리 473-1),,37.6711468117,126.5988284849,2002-12-02,990,1,,,,09:00,18:00,,경기도 김포시청,031-5186-4903,2025-11-18
쉼터카서비스,3,경기도 김포시 월곶면 애기봉로 476 (월곶면 개곡리 286-3),,37.7294853114,126.5936410636,2003-01-13,534,1,,,,09:00,18:00,,경기도 김포시청,031-5186-4903,2025-11-18
대성카정비센타,3,경기도 김포시 대곶면 율마로 88 (대곶면 초원지리 309),,37.6589483168,126.5962636406,2003-01-27,566,1,,,,09:00,18:00,,경기도 김포시청,031-5186-4903,2025-11-18
한양정비마을,3,경기도 김포시 통진읍 담터로 9,,37.6925803105,126.5921281144,2003-02-24,370,1,,,,09:00,18:00,,경기도 김포시청,031-5186-4903,2025-11-18
YB모터스,3,경기도 김포시 대곶면 대곶북로 131,,37.6602684109,126.5871744408,2003-06-10,120,1,,,,09:00,18:00,,경기도 김포시청,031-5186-4903,2025-11-18
(주)김포밋션자동차공업사,3,경기도 김포시 양촌읍 양곡우회로 50,,37.6660814215,126.6327323121,2003-08-01,172,1,,,,09:00,18:00,,경기도 김포시청,031-5186-4903,2025-11-18
천지카모터스,3,경기도 김포시 양촌읍 양곡로 355,,37.6651392612,126.6371541195,2003-10-16,360,1,,,,09:00,18:00,,경기도 김포시청,031-5186-4903,2025-11-18
통진남부점현대자동차,3,경기도 김포시 통진읍 율마로 332 (통진읍 가현리 229-1),,37.6806514873,126.5985740472,2004-01-02,550,1,,,,09:00,18:00,,경기도 김포시청,031-5186-4903,2025-11-18
청운자동차3급공업사,3,경기도 김포시 장릉1로 30(풍무동),,37.6105467843,126.7229996293,2004-05-14,124,1,,,,09:00,18:00,,경기도 김포시청,031-5186-4903,2025-11-18
유카센타,3,경기도 김포시 풍무로 57번길 30(풍무동),,37.6007636733,126.7195991349,2004-07-19,77,1,,,,09:00,18:00,,경기도 김포시청,031-5186-4903,2025-11-18
화평카센터,3,경기도 김포시 통진읍 율마로 339-60,,37.6843526267,126.5977907933,2004-09-07,79,1,,,,09:00,18:00,,경기도 김포시청,031-5186-4903,2025-11-18
제50카센타,3,"경기도 김포시 양촌읍 양곡4로 141, 나동 101호(삼화상가) (양곡리 279-1)",,37.6605380846,126.6237872345,2004-09-09,363,1,,,,09:00,18:00,,경기도 김포시청,031-5186-4903,2025-11-18
현대모터스,3,경기도 김포시 양촌읍 양곡4로 139 (양곡리 279-1),,37.6601680514,126.6237018365,2007-12-12,81,1,,,,09:00,18:00,,경기도 김포시청,031-5186-4903,2025-11-18
태영자동차공업사,3,경기도 김포시 대곶면 대명항로 480 (대곶면 송마리 1011-18),,37.6477674235,126.5682392104,2004-10-04,556,1,,,,09:00,18:00,,경기도 김포시청,031-5186-4903,2025-11-18
한라자동차공업사,3,경기도 김포시 북변중로 16 (북변동 885),,37.6234658295,126.7130805978,2004-10-22,101,1,,,,09:00,18:00,,경기도 김포시청,031-5186-4903,2025-11-18
양촌점 현대자동차,3,경기도 김포시 양촌읍 양곡4로 40,,37.6529816106,126.6209793141,2004-12-20,765,1,,,,09:00,18:00,,경기도 김포시청,031-5186-4903,2025-11-18
SY모터스,3,경기도 김포시 하성면 월하로 762 (하성면 마곡리 392-4),,37.7103432796,126.6392261366,2005-03-17,91,1,,,,09:00,18:00,,경기도 김포시청,031-5186-4903,2025-11-18
바름정비 김포직영점,3,경기도 김포시 김포한강2로24번길 134-12(장기동),,37.648007484,126.6749956835,2005-03-17,873,1,,,,09:00,18:00,,경기도 김포시청,031-5186-4903,2025-11-18
대경자동차공업사,3,경기도 김포시 봉화로 163번길 37(북변동),,37.6255241217,126.7030376667,2005-06-21,60,1,,,,09:00,18:00,,경기도 김포시청,031-5186-4903,2025-11-18
하성중앙카서비스,3,경기도 김포시 하성면 원산로 100 (하성면 마곡리 707-2),,37.719470837,126.6248011219,2005-09-29,129,1,,,,09:00,18:00,,경기도 김포시청,031-5186-4903,2025-11-18
신한자동차공업사,3,경기도 김포시 양촌읍 삼도로 3 (양촌읍 학운리 1849),,37.6033872502,126.5815082729,2006-03-27,665,1,,,,09:00,18:00,,경기도 김포시청,031-5186-4903,2025-11-18
성신자동차전문정비,3,경기도 김포시 중봉로 33 (감정동 502-34),,37.6253790759,126.6962718289,1998-03-06,101,1,,,,09:00,18:00,,경기도 김포시청,031-5186-4903,2025-11-18
천만카서비스,3,경기도 김포시 대곶면 율마로135번길 64 (대곶면 초원지리 489-1),,37.6616852357,126.5937516231,2006-06-02,1507,1,,,,09:00,18:00,,경기도 김포시청,031-5186-4903,2025-11-18
세일자동차공업사,3,경기도 김포시 대곶면 대곶북로 33 (대곶면 초원지리 362-6),,37.6562001117,126.5967502957,2006-09-11,147,1,,,,09:00,18:00,,경기도 김포시청,031-5186-4903,2025-11-18
영맨카써비스,3,경기도 김포시 감암로 73 (걸포동 387-95),,37.6378332715,126.7100230776,2006-12-22,469,1,,,,09:00,18:00,,경기도 김포시청,031-5186-4903,2025-11-18
피케이모터스,3,경기도 김포시 감암로 91 (걸포동 423-138),,37.6393388423,126.7097421334,2007-01-04,49,1,,,,09:00,18:00,,경기도 김포시청,031-5186-4903,2025-11-18
대림자동차서비스,3,,"경기도 김포시 사우동 139-8,139-12,139-13",37.6180261982,126.7217228799,2007-01-08,156,1,,,,09:00,18:00,,경기도 김포시청,031-5186-4903,2025-11-18
오토오아시스타이어테크,3,경기도 김포시 풍무로 151(풍무동),,37.6088736809,126.7239732494,2007-04-18,497,1,,,,09:00,18:00,,경기도 김포시청,031-5186-4903,2025-11-18
가현자동차공업사,3,경기도 김포시 통진읍 마송2로 94 (마송리 320-6),,37.6863732083,126.5921945325,2007-06-22,103,1,,,,09:00,18:00,,경기도 김포시청,031-5186-4903,2025-11-18
현대모터서비스,3,경기도 김포시 월곶면 군하로 196,,37.7113041721,126.5581026668,2007-11-14,198,1,,,,09:00,18:00,,경기도 김포시청,031-5186-4903,2025-11-18
오토오아시스 홈플러스 풍무점,3,경기도 김포시 풍무로 167 (풍무동),,37.6099638622,126.7241220022,2008-01-24,337,1,,,,09:00,18:00,,경기도 김포시청,031-5186-4903,2025-11-18
좋은자동차공업사,3,경기도 김포시 통진읍 월하로 530 (통진읍 귀전리 605-7),,37.712364108,126.6145560292,2008-02-01,463,1,,,,09:00,18:00,,경기도 김포시청,031-5186-4903,2025-11-18
지경자동차정비,3,경기도 김포시 김포대로 1480 (장기동 25-1),,37.6560315191,126.6690028564,2008-05-07,235,1,,,,09:00,18:00,,경기도 김포시청,031-5186-4903,2025-11-18
광진공업사,3,경기도 김포시 월곶면 월하로 61,,37.7117440105,126.5646134064,2008-05-15,2314,1,,,,09:00,18:00,,경기도 김포시청,031-5186-4903,2025-11-18
명문차량정비,3,경기도 김포시 김포한강9로12번길 97-4 (구래동 6889-8),,37.6409788318,126.6279606973,2008-06-12,309,1,,,,09:00,18:00,,경기도 김포시청,031-5186-4903,2025-11-18
금호타이어 신김포점,3,경기도 김포시 양촌읍 김포한강4로 267 (양촌읍 석모리 343-1),,37.6510031602,126.6534734539,2008-08-06,243,1,,,,09:00,18:00,,경기도 김포시청,031-5186-4903,2025-11-18
타이어프로 사우점,3,경기도 김포시 북변중로 12 (북변동 881),,37.6234363102,126.7135762937,2008-10-08,96,1,,,,09:00,18:00,,경기도 김포시청,031-5186-4903,2025-11-18
대곶자동차공업사,3,경기도 김포시 대곶면 대곶북로 108 (대곶면 초원지리 544),,37.6600944898,126.5900843912,2008-10-29,198,1,,,,09:00,18:00,,경기도 김포시청,031-5186-4903,2025-11-18
으라차차카센타,3,경기도 김포시 양촌읍 석모로5번길 33-7 (양촌읍 석모리 898),,37.650548861,126.6507151631,2008-11-26,114,1,,,,09:00,18:00,,경기도 김포시청,031-5186-4903,2025-11-18
우성자동차공업사,3,경기도 김포시 대곶면 대곶남로 317 (대곶면 대능리 576-1),,37.6218573092,126.5904454302,2008-12-29,99,1,,,,09:00,18:00,,경기도 김포시청,031-5186-4903,2025-11-18
거성카독크(아버지-아들 양도양수),3,경기도 김포시 대곶면 율생중앙로 128 (대곶면 송마리 72-12),,37.6577246162,126.5770579407,2009-07-31,203.5,1,,,,09:00,18:00,,경기도 김포시청,031-5186-4903,2025-11-18
신곡 Motor Line,3,경기도 김포시 고촌읍 신기신동로 34 (고촌읍 신곡리 62-14),,37.6089098309,126.773682011,2009-09-08,186,1,,,,09:00,18:00,,경기도 김포시청,031-5186-4903,2025-11-18
동양자동차공업사,3,경기도 김포시 중구로 16 (사우동 201-7),,37.6227538606,126.7114871769,2009-09-18,88,1,,,,09:00,18:00,,경기도 김포시청,031-5186-4903,2025-11-18
국제자동차공업사,3,경기도 김포시 대곶면 율마로194번길 66 (대곶면 거물대리 183-1),,37.6663758453,126.5997197497,2009-09-28,417,1,,,,09:00,18:00,,경기도 김포시청,031-5186-4903,2025-11-18
모든카프라자,3,경기도 김포시 양촌읍 대곶남로 693 (양촌읍 구래리 110-16),,37.64606742,126.6140878,2009-11-19,474,1,,,,09:00,18:00,,경기도 김포시청,031-5186-4903,2025-11-18
자동차 병원,3,경기도 김포시 대곶면 율마로 46 (대곶면 초원지리 400-1),,37.6561461841,126.5932457757,2009-11-20,195,1,,,,10:00,18:00,,경기도 김포시청,031-5186-4903,2025-11-18
고양자동차공업사,3,경기도 김포시 월곶면 대곶로 458,,37.6844360723,126.5541681634,2009-11-25,669,1,,,,09:00,18:00,,경기도 김포시청,031-5186-4903,2025-11-18
현대공업사,3,경기도 김포시 대곶면 율생로 10 (대곶면 율생리 433-54),,37.6528254792,126.589896012,2009-11-25,86,1,,,,09:00,18:00,,경기도 김포시청,031-5186-4903,2025-11-18
타이어 탑,3,경기도 김포시 고촌읍 김포대로319번길 13-13 (고촌읍 신곡리 584-1 3동1층),,37.5986959687,126.7724236172,2009-12-15,131,1,,,,09:00,18:00,,경기도 김포시청,031-5186-4903,2025-11-18
대산카 공업사,3,경기도 김포시 하성면 하성로 473 (하성면 마곡리 583-5),,37.7171551001,126.6365421805,2009-12-15,508,1,,,,09:00,18:00,,경기도 김포시청,031-5186-4903,2025-11-18
남강에어컨,3,경기도 김포시 통진읍 가현로 198 (통진읍 가현리 312),,37.6790691913,126.5929989048,2010-02-05,90,1,,,,09:00,18:00,,경기도 김포시청,031-5186-4903,2025-11-18
학운점 현대자동차,3,경기도 김포시 양촌읍 황금로23번길 18-24,,37.6193097073,126.6295986323,2010-02-19,298,1,,,,09:00,18:00,,경기도 김포시청,031-5186-4903,2025-11-18
이젠자동차공업사,3,"경기도 김포시 양촌읍 황금로 117, 메타존 지하 166호, 167호",,37.6164960069,126.6212754788,2010-02-19,160,1,,,,09:00,18:00,,경기도 김포시청,031-5186-4903,2025-11-18
한국지엠 장기 바로서비스,3,경기도 김포시 김포한강1로78번길 61-14 (장기동 1526),,37.6437908942,126.6734935918,2010-03-25,86,1,,,,09:00,18:00,,경기도 김포시청,031-5186-4903,2025-11-18
타이어프로 통진점,3,경기도 김포시 통진읍 김포대로 1960 E동 (통진읍 수참리 204-2),,37.6800700195,126.6252491696,2010-04-05,114,1,,,,09:00,18:00,,경기도 김포시청,031-5186-4903,2025-11-18
고촌점 기아오토큐 주식회사,3,경기도 김포시 고촌읍 은행영사정로 23 (고촌읍 신곡리 1080),,37.6017307617,126.7727935114,2010-04-05,959,1,,,,09:00,18:00,,경기도 김포시청,031-5186-4903,2025-11-18
금강카센타,3,경기도 김포시 고촌읍 장차로5번길 36(신곡리),,37.6036944867,126.7686301587,2010-05-25,99,1,,,,09:00,18:00,,경기도 김포시청,031-5186-4903,2025-11-18
현대기아모터스 태성카,3,경기도 김포시 양촌읍 양곡4로 48 (양촌읍 양곡리 380-16),,37.6537874886,126.6205444818,2010-06-23,75,1,,,,09:00,18:00,,경기도 김포시청,031-5186-4903,2025-11-18
장기 카클리닉,3,경기도 김포시 양촌읍 모산로 23 (양촌읍 석모리 283-1),,37.6508981909,126.6581034159,2010-08-12,1126,1,,,,09:00,18:00,,경기도 김포시청,031-5186-4903,2025-11-18
현대마스타자동차공업사,3,경기도 김포시 양촌읍 삼도공단로 78 (양촌읍 학운리 448-418 가동),,37.6000086587,126.5942051031,2010-08-12,158,1,,,,09:00,18:00,,경기도 김포시청,031-5186-4903,2025-11-18
모터스테이션(본점),3,경기도 김포시 고촌읍 은행영사정로 15 (고촌읍 신곡리 1082-1),,37.6012302693,126.7723762629,2010-09-13,554,1,,,,09:00,18:00,,경기도 김포시청,031-5186-4903,2025-11-18
한국타이어김포청석점,3,경기도 김포시 대곶면 율마로 199 (대곶면 거물대리 245-5),,37.6691672557,126.5976308821,2010-09-16,147,1,,,,09:00,18:00,,경기도 김포시청,031-5186-4903,2025-11-18
신태양카독크,3,경기도 김포시 통진읍 가현로 11 (통진읍 가현리 810-10),,37.6666069698,126.5800843014,2010-10-04,110,1,,,,09:00,18:00,,경기도 김포시청,031-5186-4903,2025-11-18
정직한 카센터,3,경기도 김포시 하성면 하성로 365 (하성면 원산리 365-3),,37.7077246248,126.6365315389,2010-10-15,99,1,,,,09:00,18:00,,경기도 김포시청,031-5186-4903,2025-11-18
성수자동차공업사,3,경기도 김포시 하성면 월하로 605 (하성면 원산리 656),,37.7110722,126.622445,2010-12-09,330,1,,,,09:00,18:00,,경기도 김포시청,031-5186-4903,2025-11-18
믿음자동차공업사,3,경기도 김포시 대곶면 종생로 8-39 (대곶면 율생리 324-72),,37.6487092172,126.5860358305,2011-02-22,159,1,,,,09:00,18:00,,경기도 김포시청,031-5186-4903,2025-11-18
프로미카월드 김포점,3,경기도 김포시 양촌읍 양곡로 359 (양촌읍 양곡리 89-1),,37.6645438756,126.6370010644,2011-03-03,496,1,,,,09:00,18:00,,경기도 김포시청,031-5186-4903,2025-11-18
대성카24시정비,3,경기도 김포시 대곶면 율마로 31-1 (대곶면 율생리 371-1),,37.6553443362,126.5916611198,2011-06-29,138,1,,,,09:00,18:00,,경기도 김포시청,031-5186-4903,2025-11-18
몬스터 팩토리,3,경기도 김포시 조리미로 20 (사우동 337-4),,37.6154564534,126.7245459321,2011-08-18,143,1,,,,09:00,18:00,,경기도 김포시청,031-5186-4903,2025-11-18
타이어 프로 고촌점,3,경기도 김포시 고촌읍 은행영사정로 13 (고촌읍 신곡리 1082),,37.6011239173,126.7723112461,2011-09-07,115,1,,,,09:00,18:00,,경기도 김포시청,031-5186-4903,2025-11-18
나사 모터스,3,경기도 김포시 양촌읍 김포대로 1624 (양촌읍 누산리 479-6),,37.6635142254,126.6573273447,2011-12-02,368,1,,,,09:00,18:00,,경기도 김포시청,031-5186-4903,2025-11-18
비홍모터스,3,경기도 김포시 하성면 애기봉로 812 (하성면 마곡리 628-7),,37.7195133208,126.6273445066,2012-02-16,251,1,,,,09:00,18:00,,경기도 김포시청,031-5186-4903,2025-11-18
하모니 카 서비스,3,경기도 김포시 대곶면 대곶북로 249,,37.6680700007,126.5782489633,2012-06-13,199,1,,,,09:00,18:00,,경기도 김포시청,031-5186-4903,2025-11-18
SJ 모터스,3,경기도 김포시 통진읍 김포대로 2055 (통진읍 도사리 680-8),,37.6837862096,126.6156291485,2012-07-24,1692,1,,,,09:00,18:00,,경기도 김포시청,031-5186-4903,2025-11-18
르노삼성자동차 서비스코너 김포양곡점,3,경기도 김포시 양촌읍 양곡로 362 (양촌읍 양곡리 79-1 외 2필지),,37.6649178243,126.6363424451,2012-09-20,146,1,,,,09:00,18:00,,경기도 김포시청,031-5186-4903,2025-11-18
㈜교전모터스,3,경기도 김포시 봉화로 154 나동(북변동),,37.6263529,126.704389,2012-09-24,203,1,,,,09:00,18:00,,경기도 김포시청,031-5186-4903,2025-11-18
정우 카 서비스,3,경기도 김포시 장릉1로 9 (풍무동 67-15),,37.6085360446,126.7226127382,2012-12-05,84,1,,,,09:00,18:00,,경기도 김포시청,031-5186-4903,2025-11-18
애니카랜드 양촌점,3,경기도 김포시 양촌읍 김포대로 1780 (양촌읍 누산리 665-20),,37.6713163082,126.6425397243,2012-12-31,149,1,,,,09:00,18:00,,경기도 김포시청,031-5186-4903,2025-11-18
장기점 기아오토큐,3,경기도 김포시 김포한강2로24번길 114 (장기동 1941-1),,37.6472097465,126.6752865188,2012-12-31,188,1,,,,09:00,18:00,,경기도 김포시청,031-5186-4903,2025-11-18
KING CAR,3,경기도 김포시 운양로 55번길 118(장기동),,37.6652278126,126.67110153,2013-01-18,150,1,,,,09:00,18:00,,경기도 김포시청,031-5186-4903,2025-11-18
C&C 자동차 마을,3,경기도 김포시 김포한강1로78번길 62-9 (장기동 1535),,37.6428422762,126.6726570182,2013-02-20,244,1,,,,09:00,18:00,,경기도 김포시청,031-5186-4903,2025-11-18
명카서비스,3,경기도 김포시 양촌읍 대곶남로 617,,37.6416130266,126.607385508,2013-04-11,181,1,,,,09:00,18:00,,경기도 김포시청,031-5186-4903,2025-11-18
미건리트레드 타이어,3,"경기도 김포시 대곶면 대명항로 594 (대곶면 대명리 370-13,-14)",,37.6462607735,126.5554452441,2013-04-24,3265,1,,,,09:00,18:00,,경기도 김포시청,031-5186-4903,2025-11-18
KY모터스,3,경기도 김포시 대곶서로 241 (대곶면 상마리 88-2),,37.6404843,126.580228,2013-07-11,98,1,,,,09:00,18:00,,경기도 김포시청,031-5186-4903,2025-11-18
스마일카 공업사,3,,"경기도 김포시 양촌읍 학운리 448-181, -211",37.5996092336,126.5938068577,2013-07-25,1198,1,,,,09:00,18:00,,경기도 김포시청,031-5186-4903,2025-11-18
한국타이어 양촌점,3,경기도 김포시 양촌읍 모산로 4 (양촌읍 석모리 296-9),,37.6510547,126.655913,2013-09-09,722,1,,,,09:00,18:00,,경기도 김포시청,031-5186-4903,2025-11-18
티스테이션(양곡점),3,경기도 김포시 양촌읍 양곡4로 41,,37.652832875,126.6202278495,2013-12-04,624,1,,,,09:00,18:00,,경기도 김포시청,031-5186-4903,2025-11-18
카인모터스,3,경기도 김포시 김포한강2로 24번길 78-40 (장기동),,37.6467651812,126.6774462414,2013-12-06,304,1,,,,09:00,18:00,,경기도 김포시청,031-5186-4903,2025-11-18
스피드메이트 김포장기점,3,경기도 김포시 김포한강2로24번길 134-25 (장기동 1927-2),,37.6485134125,126.6756935325,2014-01-16,193,1,,,,09:00,18:00,,경기도 김포시청,031-5186-4903,2025-11-18
남룡공업사,3,경기도 김포시 감암로 73 (걸포동),,37.6378332715,126.7100230776,2014-04-02,469,1,,,,09:00,18:00,,경기도 김포시청,031-5186-4903,2025-11-18
진영타이어,3,경기도 김포시 통진읍 김포대로 2068,,37.6849196552,126.6147522844,2014-05-07,506,1,,,,09:00,18:00,,경기도 김포시청,031-5186-4903,2025-11-18
한강모터스,3,,경기도 김포시 운양동 1026-16,37.654633933,126.6706496228,2014-07-07,762,1,,,,09:00,18:00,,경기도 김포시청,031-5186-4903,2025-11-18
타이어DC마트,3,경기도 김포시 대곶면 대곶남로 577,,37.6385308344,126.6057816715,2014-07-07,513,1,,,,09:00,18:00,,경기도 김포시청,031-5186-4903,2025-11-18
신화카센터,3,경기도 김포시 고촌읍 은행영사정로 17(신곡리),,37.6014335877,126.7725451678,2014-07-18,418,1,,,,09:00,18:00,,경기도 김포시청,031-5186-4903,2025-11-18
타이어프로 장기점,3,경기도 김포시 김포한강1로98번길 17-94(장기동),,37.6468334553,126.6720467709,2014-07-18,143,1,,,,09:00,18:00,,경기도 김포시청,031-5186-4903,2025-11-18
미진자동차공업사,3,경기도 김포시 대곶면 황금1로 337,,37.6338504291,126.6043833446,2014-09-03,489,1,,,,09:00,18:00,,경기도 김포시청,031-5186-4903,2025-11-18
LnJ MOTORS(김포점),3,경기도 김포시 고촌읍 장차로5번길 24 (고촌읍 신곡리 1062-10),,37.6034611053,126.7691232743,2014-11-05,477,1,,,,09:00,18:00,,경기도 김포시청,031-5186-4903,2025-11-18
석정모터스,3,경기도 김포시 대곶면 대곶로423번길 5,,37.6807166467,126.5531587117,2014-11-18,1446,1,,,,09:00,18:00,,경기도 김포시청,031-5186-4903,2025-11-18
타이어프로 양촌점,3,경기도 김포시 양촌읍 양곡4로 70,,37.6553814863,126.6194780351,2014-12-18,156,1,,,,09:00,18:00,,경기도 김포시청,031-5186-4903,2025-11-18
GTC,3,경기도 김포시 양촌읍 구래로59번길 37 (양촌읍 구래리 133),,37.6477524544,126.6139037936,2015-01-20,639,1,,,,09:00,18:00,,경기도 김포시청,031-5186-4903,2025-11-18
스피드메이트 이마트김포한강점,3,경기도 김포시 김포한강7로 71(구래동 이마트 3층),,37.6443389795,126.628286241,2015-02-06,14034,1,,,,09:00,18:00,,경기도 김포시청,031-5186-4903,2025-11-18
형제종합카오토프라자,3,경기도 김포시 고촌읍 아라육로 57번길 111(전호리),,37.5916112474,126.7967812629,2015-05-13,402,1,,,,09:00,18:00,,경기도 김포시청,031-5186-4903,2025-11-18
뉴태성모터스,3,경기도 김포시 북변중로 129(북변동),,37.6302263,126.704053,2015-07-06,90,1,,,,09:00,18:00,,경기도 김포시청,031-5186-4903,2025-11-18
타이어DC마트,3,경기도 김포시 통진읍 서암로 346-1,,37.7113035577,126.6145774,2015-08-05,513,1,,,,09:00,18:00,,경기도 김포시청,031-5186-4903,2025-11-18
Major모터스,3,경기도 김포시 양촌읍 석모로 96-2 (양촌읍 석모리 806번지 나동),,37.653088617,126.6398935941,2015-08-06,828,1,,,,09:00,18:00,,경기도 김포시청,031-5186-4903,2025-11-18
진성모터스,3,경기도 김포시 대곶면 대곶서로 280,,37.643781497,126.5816673404,2015-09-15,989,1,,,,09:00,18:00,,경기도 김포시청,031-5186-4903,2025-11-18
재시카,3,경기도 김포시 고촌읍 태리로 171-2(태리),,37.5983921446,126.7532743333,2015-10-08,188,1,,,,09:00,18:00,,경기도 김포시청,031-5186-4903,2025-11-18
바른자동차정비,3,경기도 김포시 대곶면 율생로 104,,37.6505383388,126.580236099,2015-12-01,428,1,,,,09:00,18:00,,경기도 김포시청,031-5186-4903,2025-11-18
차사랑119,3,경기도 김포시 운곡로 13(장기동),,37.6501124238,126.6593723085,2015-12-14,409,1,,,,09:00,18:00,,경기도 김포시청,031-5186-4903,2025-11-18
한솔카정비공업사,3,경기도 김포시 하성면 월하로 648 (하성면 원산리 571-9),,37.7088377963,126.6267056292,2016-01-11,1837,1,,,,09:00,18:00,,경기도 김포시청,031-5186-4903,2025-11-18
타이어프로 구래점,3,경기도 김포시 양촌읍 석모로73번길 66,,37.6503743899,126.641985495,2016-01-28,404,1,,,,09:00,18:00,,경기도 김포시청,031-5186-4903,2025-11-18
마이카센터,3,경기도 김포시 양촌읍 황금로70번길 38,,37.6204137625,126.6268218629,2016-03-03,230,1,,,,09:00,18:00,,경기도 김포시청,031-5186-4903,2025-11-18
믿음자동차,3,경기도 김포시 통진읍 율마로 236,,37.6720539056,126.5988264354,2016-03-28,96,1,,,,09:00,18:00,,경기도 김포시청,031-5186-4903,2025-11-18
한국타이어 대곶점 SH모터스,3,경기도 김포시 대곶면 율생로 105,,37.6501167629,126.5801576775,2016-04-21,230,1,,,,09:00,18:00,,경기도 김포시청,031-5186-4903,2025-11-18
성호정비센터,3,경기도 김포시 장릉로 120(사우동),,37.6153688444,126.7168423937,2016-06-29,727,1,,,,09:00,18:00,,경기도 김포시청,031-5186-4903,2025-11-18
현대자동차블루핸즈 사우점,3,경기도 김포시 중구로 14(사우동),,37.6225995308,126.7113802756,2016-07-22,593,1,,,,09:00,18:00,,경기도 김포시청,031-5186-4903,2025-11-18
다수리모터스,3,경기도 김포시 김포한강1로98번길 17-104(장기동 17-104),,37.6463470417,126.6716348724,2016-08-10,304,1,,,,09:00,18:00,,경기도 김포시청,031-5186-4903,2025-11-18
우리동네카센타,3,경기도 김포시 걸포로 146(걸포동 4-49),,37.6438506374,126.7019304234,2016-09-26,167,1,,,,09:00,18:00,,경기도 김포시청,031-5186-4903,2025-11-18
한국지엠신김포서비스,3,경기도 김포시 유현로237번길 87(사우동),,37.6143142868,126.7277788476,2016-12-23,296,1,,,,09:00,18:00,,경기도 김포시청,031-5186-4903,2025-11-18
현성자동차정비,3,경기도 김포시 통진읍 율마로 480,,37.6930616341,126.6038163549,2017-01-12,1576,1,,,,09:00,18:00,,경기도 김포시청,031-5186-4903,2025-11-18
양철카튜닝,3,경기도 김포시 양촌읍 김포대로1616번길 13,,37.6637103937,126.6582367657,2017-02-09,121,1,,,,09:00,18:00,,경기도 김포시청,031-5186-4903,2025-11-18
참좋은카센타,3,경기도 김포시 통진읍 율마로 339-21,,37.6825920245,126.5978665053,2017-02-20,487,1,,,,09:00,18:00,,경기도 김포시청,031-5186-4903,2025-11-18
히어로모터스,3,경기도 김포시 통진읍 김포대로 2004,,37.682046308,126.6210198923,2017-03-06,741,1,,,,09:00,18:00,,경기도 김포시청,031-5186-4903,2025-11-18
드림모터스,3,경기도 김포시 운양로56번길 131 (운양동 1006),,37.6548945772,126.6726199812,2017-04-11,98,1,,,,09:00,18:00,,경기도 김포시청,031-5186-4903,2025-11-18
5S커먼레일,3,경기도 김포시 대곶면 율생중앙로52번길 164,,37.6591322972,126.5858426468,2017-07-04,685,1,,,,09:00,18:00,,경기도 김포시청,031-5186-4903,2025-11-18
감정카센터,3,경기도 김포시 감정로38번길 45(감정동),,37.6197869888,126.6984345974,2017-07-04,130,1,,,,09:00,18:00,,경기도 김포시청,031-5186-4903,2025-11-18
국민차공업사,3,"경기도 김포시 고촌읍 아라육로182번길 50, 국민차매매단지(공항점) B동 109호(전호리)",,37.5960378743,126.7831456295,2017-07-03,2947,1,,,,09:00,18:00,,경기도 김포시청,031-5186-4903,2025-11-18
㈜하모니렌트카,3,경기도 김포시 고촌읍 아라육로 318(전호리),,37.6023502265,126.7888215646,2017-09-20,3956,1,,,,09:00,18:00,,경기도 김포시청,031-5186-4903,2025-11-18
퍼니모터스,3,경기도 김포시 양촌읍 석모로5번길 39,,37.6498000498,126.6511998092,2017-10-18,163,1,,,,09:00,18:00,,경기도 김포시청,031-5186-4903,2025-11-18
사우타이어,3,경기도 김포시 북변중로 16(북변동),,37.6234658295,126.7130805978,2017-10-18,259,1,,,,09:00,18:00,,경기도 김포시청,031-5186-4903,2025-11-18
오토오아시스김포한강신도시점,3,경기도 김포시 김포한강3로 400 (마산동 622-1),,37.6417669492,126.6475125148,2017-10-19,180,1,,,,09:00,18:00,,경기도 김포시청,031-5186-4903,2025-11-18
운양동카센타,3,경기도 김포시 운양로 132(운양동),,37.6565555792,126.6776428975,2017-10-19,345,1,,,,09:00,18:00,,경기도 김포시청,031-5186-4903,2025-11-18
담터자동차정비셀프세차,3,경기도 김포시 통진읍 담터로 105,,37.693657826,126.6013358908,2017-10-19,112,1,,,,09:00,18:00,,경기도 김포시청,031-5186-4903,2025-11-18
세미타이어,3,경기도 김포시 양촌읍 김포한강4로 243,,37.6504414303,126.6560699996,2017-11-08,113,1,,,,09:00,18:00,,경기도 김포시청,031-5186-4903,2025-11-18
슈퍼맨카센타,3,경기도 김포시 통진읍 서암로 128,,37.6962258758,126.601393007,2017-12-22,185,1,,,,09:00,18:00,,경기도 김포시청,031-5186-4903,2025-11-18
주식회사 인퍼스트,3,경기도 김포시 김포대로1216번길 278(운양동),,37.6479376108,126.7005080972,2017-12-28,100,1,,,,09:00,18:00,,경기도 김포시청,031-5186-4903,2025-11-18
스피드메이트 김포풍무점,3,경기도 김포시 김포대로 715 (풍무동 16-10) [이마트트레이더스],,37.6127065213,126.7308929605,2018-01-19,213,1,,,,09:00,18:00,,경기도 김포시청,031-5186-4903,2025-11-18
허니모터스,3,경기도 김포시 대곶면 오니산로 104,,37.6649847228,126.6081128159,2018-03-09,387,1,,,,09:00,18:00,,경기도 김포시청,031-5186-4903,2025-11-18
케이카자동차공업사,3,경기도 김포시 대곶면 대곶북로 537,,37.6816854798,126.557536686,2018-03-09,636,1,,,,09:00,18:00,,경기도 김포시청,031-5186-4903,2025-11-18
타이어프로 김포대로점,3,경기도 김포시 유현로237번길 94(풍무동 826),,37.6149188501,126.7279256336,2017-04-26,5266,1,,,,09:00,18:00,,경기도 김포시청,031-5186-4903,2025-11-18
차수리모터스,3,"경기도 김포시 김포한강1로97번길 32-37, 102호(장기동)",,37.6480480359,126.6709681273,2018-05-01,344,1,,,,09:00,18:00,,경기도 김포시청,031-5186-4903,2025-11-18
장암카센타,3,경기도 김포시 김포한강7로22번길 174-137 (마산동),,37.6425901648,126.6411436107,2018-08-21,312,1,,,,09:00,18:00,,경기도 김포시청,031-5186-4903,2025-11-18
세이프오토,3,경기도 김포시 양촌읍 석모로73번길 100,,37.6487456495,126.642209517,2018-08-24,1388,1,,,,09:00,18:00,,경기도 김포시청,031-5186-4903,2025-11-18
정 모터스,3,경기도 김포시 김포한강1로78번길 41-23 (장기동),,37.6441135411,126.6729102334,2018-08-31,100,1,,,,09:00,18:00,,경기도 김포시청,031-5186-4903,2025-11-18
GY모터스,3,경기도 김포시 김포한강3로 616(마산동),,37.6365407,126.623402,2018-08-31,50,1,,,,09:00,18:00,,경기도 김포시청,031-5186-4903,2025-11-18
애니카랜드 북변점,3,경기도 김포시 중구로 15(북변동),,37.6229732591,126.7111593032,2018-08-31,346,1,,,,09:00,18:00,,경기도 김포시청,031-5186-4903,2025-11-18
아라정비,3,"경기도 김포시 고촌읍 아라육로182번길 50, B동 204(국민차매매단지공항점)",,37.5960378743,126.7831456295,2018-09-21,190,1,,,,09:00,18:00,,경기도 김포시청,031-5186-4903,2025-11-18
JEEPRO,3,경기도 김포시 양촌읍 석모1로65번길 60 (양촌읍 석모리 233-4),,37.654485152,126.6541727943,2018-09-21,392,1,,,,09:00,18:00,,경기도 김포시청,031-5186-4903,2025-11-18
준모터스,3,경기도 김포시 풍무로238번길 68(사우동),,37.61372539,126.7273006025,2018-11-29,75,1,,,,09:00,18:00,,경기도 김포시청,031-5186-4903,2025-11-18
성민오토피아,3,경기도 김포시 통진읍 월하로 484,,37.7111089292,126.609832581,2018-11-29,114,1,,,,09:00,18:00,,경기도 김포시청,031-5186-4903,2025-11-18
진 모터스,3,경기도 김포시 양촌읍 김포대로 1690-20 (양촌읍 석모리 550-1),,37.6672904761,126.6503236689,2018-12-31,130,1,,,,09:00,18:00,,경기도 김포시청,031-5186-4903,2025-11-18
이수카센타,3,경기도 김포시 양촌읍 황금로 6-13,,37.6198702874,126.631725107,2019-01-28,180,1,,,,09:00,18:00,,경기도 김포시청,031-5186-4903,2025-11-18
모든카센타,3,경기도 김포시 김포한강4로212번길 72(장기동),,37.6520429473,126.6617820641,2019-01-31,90,1,,,,09:00,18:00,,경기도 김포시청,031-5186-4903,2025-11-18
뉴태성모터스,3,"경기도 김포시 양촌읍 양곡2로30번길 51-16, 111호, 112호",,37.6546486504,126.6302214078,2019-03-11,90,1,,,,09:00,18:00,,경기도 김포시청,031-5186-4903,2025-11-18
진 모터스,3,경기도 김포시 돌문로 83-1 (사우동 201-43),,37.6209596579,126.7143833454,2019-03-27,130,1,,,,10:00,18:00,,경기도 김포시청,031-5186-4903,2025-11-18
클린모터스,3,경기도 김포시 김포대로 1521-1(장기동),,37.6585011119,126.6655253818,2019-05-03,153,1,,,,09:00,18:00,,경기도 김포시청,031-5186-4903,2025-11-18
디오지,3,경기도 김포시 양촌읍 석모로 96-3 (양촌읍 석모리 806 가동),,37.6533595661,126.6398427642,2019-07-08,179,1,,,,09:00,18:00,,경기도 김포시청,031-5186-4903,2025-11-18
빅토리타이어,3,경기도 김포시 통진읍 김포대로 2004,,37.682046308,126.6210198923,2019-08-12,98,1,,,,09:00,18:00,,경기도 김포시청,031-5186-4903,2025-11-18
모던카랜드,3,"경기도 김포시 고촌읍 은행영사정로159번길 29, 나동(신곡리)",,37.6067459817,126.7832622252,2019-10-14,166,1,,,,09:00,18:00,,경기도 김포시청,031-5186-4903,2025-11-18
스피드메이트 학운공단점,3,경기도 김포시 양촌읍 황금3로 98,,37.61071435,126.6195249749,2019-12-20,99,1,,,,09:00,18:00,,경기도 김포시청,031-5186-4903,2025-11-18
만타,3,경기도 김포시 대곶면 산자뫼로 104번길 164 (사업장 : 104번길 164-1),,37.6602083215,126.5686691138,2020-01-08,3306,1,,,,09:00,18:00,,경기도 김포시청,031-5186-4903,2025-11-18
2784모터스,3,경기도 김포시 양촌읍 황금로70번길 5-37 (양촌읍 학운리 2784번지),,37.6197871963,126.6232703496,2020-01-08,74,1,,,,09:00,18:00,,경기도 김포시청,031-5186-4903,2025-11-18
애니카 서비스(2025.4.7. 등록취소),3,경기도 김포시 김포한강2로 24번길 116-57 (장기동),,37.6479279901,126.6758699003,2020-01-23,206.7,3,,,,09:00,18:00,,경기도 김포시청,031-5186-4903,2025-11-18
TG카정비,3,경기도 김포시 양촌읍 황금3로 64,,37.6098948506,126.6161694353,2020-03-19,199,1,,,,09:00,18:00,,경기도 김포시청,031-5186-4903,2025-11-18
현대SB모터스,3,경기도 김포시 김포한강8로 312(구래동),,37.6452849516,126.6335384943,2020-03-19,96,1,,,,09:00,18:00,,경기도 김포시청,031-5186-4903,2025-11-18
선진모터스,3,경기도 김포시 통진읍 마송2로 136,,37.6846997196,126.5967467202,2020-05-19,831,1,,,,09:00,18:00,,경기도 김포시청,031-5186-4903,2025-11-18
이유모터스,3,"경기도 김포시 양촌읍 석모로95번길 46-5, 46-7",,37.6502527525,126.640502426,2020-07-17,198,1,,,,09:00,18:00,,경기도 김포시청,031-5186-4903,2025-11-18
붕붕자동차공업사,3,경기도 김포시 통진읍 김포대로 2331,,37.6943563178,126.5886305986,2020-08-03,292,1,,,,09:00,18:00,,경기도 김포시청,031-5186-4903,2025-11-18
Team Mechanic(팀메카닉),3,경기도 김포시 양촌읍 김포한강10로 266,,37.6507755898,126.618582535,2020-10-05,98,1,,,,09:00,18:00,,경기도 김포시청,031-5186-4903,2025-11-18
가이아캠퍼 서부지사,3,,경기도 김포시 양촌읍 석모리 262-4,37.6530433953,126.6593089462,2020-10-22,165,1,,,,09:00,18:00,,경기도 김포시청,031-5186-4903,2025-11-18
카팩토리,3,경기도 김포시 통진읍 월하로 519번길 14,,37.7129181851,126.6136420088,2020-11-17,180,1,,,,09:00,18:00,,경기도 김포시청,031-5186-4903,2025-11-18
하연,3,경기도 김포시 김포대로 1141번길 29 (감정동),,37.6339892035,126.6936478395,2020-11-17,198,1,,,,09:00,18:00,,경기도 김포시청,031-5186-4903,2025-11-18
케이지모빌리티 김포양촌서비스프라자,3,경기도 김포시 양촌읍 김포한강4로 266-1,,37.6518908613,126.6538610729,2021-01-08,276,1,,,,09:00,18:00,,경기도 김포시청,031-5186-4903,2025-11-18
주식회사 제넥스모터스,3,경기도 김포시 양촌읍 황금로24번길 91-21,,37.6234051478,126.6282023526,2021-01-28,99,1,,,,09:00,18:00,,경기도 김포시청,031-5186-4903,2025-11-18
주식회사 칸모터스,3,경기도 김포시 대곶면 대곶북로158번길 13,,37.6627286346,126.5860747245,2021-02-03,198,1,,,,09:00,18:00,,경기도 김포시청,031-5186-4903,2025-11-18
붉은주팩토리,3,경기도 김포시 고촌읍 풍굴로 18(풍곡리 236-4),,37.6064595311,126.7602796864,2021-02-25,132,1,,,,09:00,18:00,,경기도 김포시청,031-5186-4903,2025-11-18
페어오토내셔널(FAIR AUTO NATIONAL),3,경기도 김포시 대곶면 대곶서로166번길 12,,37.6337161012,126.5773382723,2021-03-09,192,1,,,,09:00,18:00,,경기도 김포시청,031-5186-4903,2025-11-18
SS GARAGE,3,경기도 김포시 양촌읍 듬박로 51,,37.6362355277,126.6189257219,2021-03-15,99,1,,,,09:00,18:00,,경기도 김포시청,031-5186-4903,2025-11-18
엠비원,3,"경기도 김포시 김포한강8로 148번길 105, 102호(마산동)",,37.6344437104,126.647821505,2021-03-19,72,1,,,,09:00,18:00,,경기도 김포시청,031-5186-4903,2025-11-18
운양동카센터,3,경기도 김포시 김포한강11로 331번길 137(운양동),,37.6606428503,126.6811839758,2021-04-01,82,1,,,,09:00,18:00,,경기도 김포시청,031-5186-4903,2025-11-18
오토메카닉,3,경기도 김포시 통진읍 월하로 548번길 196,,37.7063573605,126.6200083985,2021-04-01,198,1,,,,09:00,18:00,,경기도 김포시청,031-5186-4903,2025-11-18
Y모터스,3,경기도 김포시 양촌읍 황금로 24번길 60-2,,37.6220607128,126.6313647392,2021-06-07,195,1,,,,09:00,18:00,,경기도 김포시청,031-5186-4903,2025-11-18
BJ모터스,3,경기도 김포시 승가로 60(풍무동),,37.6066037089,126.7156888721,2021-07-30,330,1,,,,09:00,18:00,,경기도 김포시청,031-5186-4903,2025-11-18
CM자동차정비,3,경기도 김포시 고촌읍 태리로 179(태리 41-3),,37.5975378285,126.7537037747,2021-08-19,134,1,,,,09:00,18:00,,경기도 김포시청,031-5186-4903,2025-11-18
GT Motos,3,경기도 김포시 김포한강9로 115번길 8-1(구래동 6918-18),,37.6470914498,126.6246265785,2021-09-06,149,1,,,,09:00,18:00,,경기도 김포시청,031-5186-4903,2025-11-18
메르카바,3,경기도 김포시 김포한강4로 212번길 36(장기동),,37.6505154368,126.6609064791,2021-09-23,326,1,,,,09:00,18:00,,경기도 김포시청,031-5186-4903,2025-11-18
오토크루,3,,경기도 김포시 양촌읍 구래리 821-12,37.6368491744,126.6216387735,2021-09-23,925,1,,,,09:00,18:00,,경기도 김포시청,031-5186-4903,2025-11-18
LNJ 모터스(김포점),3,경기도 김포시 양촌읍 양곡우회로 23,,37.6658454116,126.6363745292,2021-10-07,117,1,,,,09:00,18:00,,경기도 김포시청,031-5186-4903,2025-11-18
L MOTORS,3,경기도 김포시 김포한강8로194번길 149-4(마산동),,37.6342310561,126.6456773212,2021-11-04,168,1,,,,09:00,18:00,,경기도 김포시청,031-5186-4903,2025-11-18
포링 자동차 공업사,3,"경기도 김포시 양촌읍 김포대로 1688-8, 1688-10",,37.6674456225,126.6513664003,2021-12-22,216,1,,,,09:00,18:00,,경기도 김포시청,031-5186-4903,2025-11-18
RAC,3,"경기도 김포시 양촌읍 대곶검단로742-36, 나동",,37.6065359497,126.6270571051,2021-12-31,198,1,,,,09:00,18:00,,경기도 김포시청,031-5186-4903,2025-11-18
엠팩토리,3,경기도 김포시 양촌읍 모산로13번길 35,,37.6521204688,126.6563394352,2022-02-18,180,1,,,,09:00,18:00,,경기도 김포시청,031-5186-4903,2025-11-18
제이와이모터스2,3,,경기도 김포시 양촌읍 석모리 802-1,37.6527674715,126.6393506408,2022-02-24,347,1,,,,09:00,18:00,,경기도 김포시청,031-5186-4903,2025-11-18
제이와이모터스1,3,,경기도 김포시 양촌읍 석모리 802-7,37.6526298201,126.639032537,2022-02-28,140,1,,,,09:00,18:00,,경기도 김포시청,031-5186-4903,2025-11-18
강동자동차공업사,3,경기도 김포시 대곶면 대명항로 378,,37.648900033,126.5793594293,2022-03-17,76,1,,,,09:00,18:00,,경기도 김포시청,031-5186-4903,2025-11-18
마이스터 모터스,3,경기도 김포시 고촌읍 신곡로 30-10(신곡리 403-3,,37.6054048827,126.7759880698,2022-04-01,661,1,,,,09:00,18:00,,경기도 김포시청,031-5186-4903,2025-11-18
W모터스,3,,"경기도 김포시 마산동 660-1, 1층",37.6353686316,126.6452564707,2022-04-20,138,1,,,,09:00,18:00,,경기도 김포시청,031-5186-4903,2025-11-18
라임모터스,3,경기도 김포시 양촌읍 서현로 78번길 38-16,,37.6489262835,126.6055802148,2022-04-22,818,1,,,,09:00,18:00,,경기도 김포시청,031-5186-4903,2025-11-18
오토케이,3,"경기도 김포시 김포한강7로 22번길 174-102, 1층(마산동 624-4)",,37.6419523505,126.6427729296,2022-05-04,138,1,,,,09:00,18:00,,경기도 김포시청,031-5186-4903,2025-11-18
스피드메이트 석모점,3,경기도 김포시 양촌읍 석모로45번길 34,,37.6509093626,126.6450012274,2022-05-24,100,1,,,,09:00,18:00,,경기도 김포시청,031-5186-4903,2025-11-18
드레스덴 파츠,3,"경기도 김포시 운양로56번길 11, 가동(운양동 964)",,37.6597993809,126.6733559492,2022-07-04,181,1,,,,09:00,18:00,,경기도 김포시청,031-5186-4903,2025-11-18
카봉 모터스,3,,경기도 김포시 통진읍 서암리 267-3 가동,37.70235629,126.604421,2022-07-15,132,1,,,,09:00,18:00,,경기도 김포시청,031-5186-4903,2025-11-18
이지타이어,3,경기도 김포시 양촌읍 양곡로 370,,37.6642132949,126.6358278156,2022-08-11,128,1,,,,09:00,18:00,,경기도 김포시청,031-5186-4903,2025-11-18
한일자동차서비스,3,경기도 김포시 사우로 21(사우동 117-2),,37.6210156589,126.7237133729,2022-08-23,137,1,,,,09:00,18:00,,경기도 김포시청,031-5186-4903,2025-11-18
YB모터스,3,경기도 김포시 걸포로 184(운양동 117-6),,37.6471802686,126.7012273834,2022-09-05,120,1,,,,09:00,18:00,,경기도 김포시청,031-5186-4903,2025-11-18
제이특공대,3,경기도 김포시 양촌읍 봉수대로 1825번길 119,,37.6296007346,126.623057802,2022-10-07,1794,1,,,,09:00,18:00,,경기도 김포시청,031-5186-4903,2025-11-18
㈜노보스개러지,3,경기도 김포시 양촌읍 김포한강4로278번길 19(김포한강4로278번길11),,37.6526852977,126.6524662662,2022-10-13,97,1,,,,09:00,18:00,,경기도 김포시청,031-5186-4903,2025-11-18
행운자동차공업사,3,경기도 김포시 대곶면 대곶북로 68번길 11 (초원지리 411-3),,37.658091567,126.5930614305,2022-10-18,194,1,,,,09:00,18:00,,경기도 김포시청,031-5186-4903,2025-11-18
초이카모터스,3,경기도 김포시 통진읍 가현로230번길 7 (가현리 293-1),,37.6812728333,126.5946349329,2022-10-18,94,1,,,,09:00,18:00,,경기도 김포시청,031-5186-4903,2025-11-18
JL모터스,3,경기도 김포시 풍무로96번길 105(풍무동),,37.604360302,126.7279422506,2023-01-12,97,1,,,,09:00,18:00,,경기도 김포시청,031-5186-4903,2025-11-18
찐타이어,3,경기도 김포시 통진읍 서암고정로 22 1층,,37.6865856,126.609476,2023-03-29,227,1,,,,09:00,18:00,,경기도 김포시청,031-5186-4903,2025-11-18
차차모터스,3,"경기도 김포시 양촌읍 황금3로8번길 88, 126,127호",,37.6088745363,126.616967478,2023-04-06,154,1,,,,09:00,18:00,,경기도 김포시청,031-5186-4903,2025-11-18
삼성카센타,3,경기도 김포시 고촌읍 장차로13번길 17(신곡리 1063),,37.6036358648,126.7696600869,2023-04-19,176,1,,,,09:00,18:00,,경기도 김포시청,031-5186-4903,2025-11-18
라온카센타,3,"경기도 김포시 양촌읍 김포한강8로 16, 가동",,37.6346899837,126.6293326484,2023-05-02,109,1,,,,09:00,18:00,,경기도 김포시청,031-5186-4903,2025-11-18
디테일러명 김포 형제점,3,경기도 김포시 양촌읍 석모로 37-29,,37.6514800348,126.6464439269,2023-05-10,146,1,,,,09:00,18:00,,경기도 김포시청,031-5186-4903,2025-11-18
짚퍼스트,3,경기도 김포시 양촌읍 양곡우회로 93(양곡리 242-1),,37.6642843585,126.628893016,2023-07-21,140,1,,,,09:00,18:00,,경기도 김포시청,031-5186-4903,2025-11-18
정비박스,3,"경기도 김포시 양촌읍 구래리 733-35,734-2 (김포한강8로 28-3)",,37.6339806,126.630651,2023-07-21,184,1,,,,09:00,18:00,,경기도 김포시청,031-5186-4903,2025-11-18
프로메카,3,경기도 김포시 양촌읍 양곡우회로 86,,37.6648752483,126.6288500335,2023-07-27,182,1,,,,09:00,18:00,,경기도 김포시청,031-5186-4903,2025-11-18
DH모터스,3,경기도 김포시 하성면 원산리 484-2(하성면 하성로 297),,37.7015827,126.636033,2023-07-27,90,1,,,,09:00,18:00,,경기도 김포시청,031-5186-4903,2025-11-18
공임나라 양곡점,3,경기도 김포시 양촌읍 양곡로 367,,37.6640986544,126.6364294047,2023-09-07,146,1,,,,09:00,18:00,,경기도 김포시청,031-5186-4903,2025-11-18
아리랑모터스,3,경기도 김포시 감암로 105(걸포동 423-97),,37.6404896437,126.7094767219,2023-10-31,190,1,,,,09:00,18:00,,경기도 김포시청,031-5186-4903,2025-11-18
아이모터스카센터,3,경기도 김포시 통진읍 김포대로1950번길 4,,37.6794303858,126.6264875554,2023-10-31,95,1,,,,09:00,18:00,,경기도 김포시청,031-5186-4903,2025-11-18
장기카센터,3,경기도 김포시 김포한강4로212번길 22(장기동 1870-30),,37.6499725179,126.6604404988,2023-12-04,80,1,,,,09:00,18:00,,경기도 김포시청,031-5186-4903,2025-11-18
비엠 팩토리,3,경기도 김포시 대곶면 소래로97번길 104-50,,37.657462966,126.5688490894,2023-12-26,66,1,,,,09:00,18:00,,경기도 김포시청,031-5186-4903,2025-11-18
성수모터스,3,경기도 김포시 대곶면 대곶서로 293,,37.6449180895,126.5814920237,2024-01-19,145,1,,,,09:00,18:00,,경기도 김포시청,031-5186-4903,2025-11-18
테크닉오토,3,경기도 김포시 양촌읍 양곡3로 203,,37.6626358665,126.6275994073,2024-02-01,99,1,,,,09:00,18:00,,경기도 김포시청,031-5186-4903,2025-11-18
현대카서비스,3,"경기도 김포시 양촌읍 황금3로7번길85, 105호, 106호",,37.6112802803,126.6195877809,2024-03-19,164,1,,,,09:00,18:00,,경기도 김포시청,031-5186-4903,2025-11-18
비바서비스 주식회사,3,경기도 김포시 통진읍 조강로 154,,37.6945361757,126.5901123234,2024-04-02,102,1,,,,09:00,18:00,,경기도 김포시청,031-5186-4903,2025-11-18
황금카모터스,3,경기도 김포시 감암로 91-1(걸포동 423-121),,37.6392328052,126.7090871056,2024-04-15,128,1,,,,09:00,18:00,,경기도 김포시청,031-5186-4903,2025-11-18
DK AUTO(디케이 아우토),3,경기도 김포시 김포시 양촌읍 황금1로 308-22,,37.6310399,126.607396,2024-04-17,99,1,,,,09:00,18:00,,경기도 김포시청,031-5186-4903,2025-11-18
아우토벨트 김포,3,경기도 김포시 고촌읍 태리로 205(태리 70-4),,37.5963421086,126.7557879522,2024-06-04,181,1,,,,09:00,18:00,,경기도 김포시청,031-5186-4903,2025-11-18
타이어천재&오일,3,경기도 김포시 양촌읍 석모로 87(석모리 1010-4),,37.6526982554,126.6407315557,2024-08-14,303,1,,,,09:00,18:00,,경기도 김포시청,031-5186-4903,2025-11-18
JS모터스,3,"경기도 김포시 양촌읍 김포한강8로 36-2, 가동 101호, 102호",,37.633961418,126.6320567415,2024-09-05,229,1,,,,09:00,18:00,,경기도 김포시청,031-5186-4903,2025-11-18
골든렌치 셀프정비소(폐업 예정이라 함),3,경기도 김포시 양촌읍 유현삭시로247번길 21-30,,37.634984367,126.6116787796,2024-10-22,98,1,,,,09:00,18:00,,경기도 김포시청,031-5186-4903,2025-11-18
브로(bro)모터스,3,경기도 김포시 고촌읍 신기신동로30번길 36-47,,37.6060372791,126.7762217328,2024-11-15,165.34,1,,,,09:00,18:00,,경기도 김포시청,031-5186-4903,2025-11-18
현대플러스,3,경기도 김포시 대곶면 대곶서로 190-12,,37.6353408125,126.5785655562,2024-12-09,146.88,1,,,,09:00,18:00,,경기도 김포시청,031-5186-4903,2025-11-18
따봉타이어,3,경기도 김포시 풍무로 214(사우동),,37.6141490127,126.7255039672,2024-12-12,159.52,1,,,,09:00,18:00,,경기도 김포시청,031-5186-4903,2025-11-18
카에프제트 아우토하우스,3,경기도 김포시 김포한강2로24번길 116-15(장기동 1937-8),,37.6471367361,126.6757467782,2024-12-20,158.12,1,,,,09:00,18:00,,경기도 김포시청,031-5186-4903,2025-11-18
(김포)타이어파는 청년,3,"경기도 김포시 해평로 125-32, 가동",,37.6524651586,126.661465987,2025-04-22,104,1,,,,09:00,18:00,,경기도 김포시청,031-5186-4903,2025-11-18
알엠비모터스,3,경기도 김포시 양촌읍 봉수대로 1853-54(구래리 772-9),,37.6343805,126.626227,2025-04-30,99,1,,,,09:00,18:00,,경기도 김포시청,031-5186-4903,2025-11-18
메르카바 대곶점,3,"경기도 김포시 대곶면 초원로 47, 가동",,37.6548516,126.600139,2025-06-30,260,1,,,,09:00,18:00,,경기도 김포시청,031-5186-4903,2025-11-18
대성자동차공업사,3,,"경기도 김포시 통진읍 가현리 866-49, 가동",37.6622602471,126.5838809016,2025-07-11,93.5,1,,,,09:00,18:00,,경기도 김포시청,031-5186-4903,2025-11-18
㈜씨제이모터스 양촌점,3,경기도 김포시 양촌읍 봉수대로 1844,,37.6331305,126.629052,2025-07-28,96,1,,,,09:00,18:00,,경기도 김포시청,031-5186-4903,2025-11-18
픽스모터스,3,경기도 김포시 양촌읍 구래리 744(황금로24번길 205),,37.6283499,126.628564,2025-08-06,49,1,,,,09:00,18:00,,경기도 김포시청,031-5186-4903,2025-11-18
대한특장,3,,경기도 김포시 대곶면 대능리 490-2(사무소),37.6271007913,126.5892393295,2025-10-13,1050,1,,,,09:00,18:00,,경기도 김포시청,031-5186-4903,2025-11-18
이브이스타트,3,경기도 김포시 통진읍 율마로300번길 127,,37.6798653103,126.6034592676,2025-10-24,100,1,,,,09:00,18:00,,경기도 김포시청,031-5186-4903,2025-11-18
인카모터스,3,경기도 김포시 양촌읍 김포대로 1772(누산리 636-9),,37.6708010367,126.6433420909,2025-11-10,220,1,,,,09:00,18:00,,경기도 김포시청,031-5186-4903,2025-11-18
태영타이어,3,경기도 김포시 김포한강8로 28-2(양촌읍 구래리 733-34),,37.6341773,126.630434,2025-11-11,102,1,,,,09:00,18:00,,경기도 김포시청,031-5186-4903,2025-11-18
㈜세기보링,4,경기도 김포시 양촌읍 향동로 43,,37.6230248491,126.6361527624,2025-10-30,208,1,,,,09:00,18:00,,경기도 김포시청,031-5186-4903,2025-11-18
정비박스,4,경기도 김포시 양촌읍 김포한강8로 28-3,,37.6340302721,126.6304741098,2025-04-03,184,1,,,,09:00,18:00,,경기도 김포시청,031-5186-4903,2025-11-18
제이특공대(엔진사업부),4,경기도 김포시 양촌읍 봉수대로1825번길 119,,37.6296007346,126.623057802,2024-06-28,1794,1,,,,09:00,18:00,,경기도 김포시청,031-5186-4903,2025-11-18
오정헤드,4,경기도 김포시 대곶면 율생중앙로52번길 172-5,,37.6593576845,126.5865512948,2019-04-12,107,1,,,,09:00,18:00,,경기도 김포시청,031-5186-4903,2025-11-18
덕산보링,4,경기도 김포시 양촌읍 누산봉성로99번길 33,,37.6773756542,126.6452914337,2002-10-29,191,1,,,,09:00,18:00,,경기도 김포시청,031-5186-4903,2025-11-18
