자동차정비업체명,자동차정비업체종류,소재지도로명주소,소재지지번주소,위도,경도,사업등록일자,면적,영업상태,폐업일자,휴업시작일자,휴업종료일자,운영시작시각,운영종료시각,전화번호,관리기관명,관리기관전화번호,데이터기준일자
탑리종합정비공장,1,경상북도 의성군 금성면 동부로 2459,경상북도 의성군 금성면 대리리 212,36.26611962,128.678145,2007-03-20,643,1,,,,09:00,18:00,,경상북도 의성군청,054-830-6251,2026-06-18
안계자동차정비공장,1,경상북도 의성군 안계면 안신로 19,경상북도 의성군 안계면 용기리 961-4,36.39065351,128.4356302,2006-03-29,437,1,,,,09:00,18:00,,경상북도 의성군청,054-830-6251,2026-06-18
강동종합정비,1,경상북도 의성군 의성읍 의성길안로 29,경상북도 의성군 의성읍 중리리 583,36.36095623,128.7030765,2002-11-01,606,1,,,,09:00,18:00,,경상북도 의성군청,054-830-6251,2026-06-18
경북종합특장,1,경상북도 의성군 의성읍 북부길 203,경상북도 의성군 의성읍 업리 995,36.3711195322,128.6822562231,1997-07-15,921,1,,,,09:00,18:00,,경상북도 의성군청,054-830-6251,2026-06-18
의성자동차정비공장,1,경상북도 의성군 의성읍 홍술로 81,경상북도 의성군 의성읍 원당리 12-3,36.355978,128.6882208,1982-01-01,581,1,,,,09:00,18:00,,경상북도 의성군청,054-830-6251,2026-06-18
의성현대정비공장,2,경상북도 의성군 의성읍 홍술로 105-7,경상북도 의성군 의성읍 원당리 2-4,36.35612793,128.690331,2004-01-30,93,1,,,,09:00,18:00,,경상북도 의성군청,054-830-6251,2026-06-18
제일종합모터스,2,경상북도 의성군 의성읍 홍술로 89-13,경상북도 의성군 의성읍 원당리 17-8,36.35580183,128.6866591,2020-04-03,478,1,,,,09:00,18:00,,경상북도 의성군청,054-830-6251,2026-06-18
달곰 타이어,3,경상북도 의성군 안계면 서부로 1657,경상북도 의성군 안계면 용기리 487-104,36.38477842,128.4430676,2015-06-19,151,1,,,,09:00,18:00,,경상북도 의성군청,054-830-6251,2026-06-18
의성마늘카센타,3,경상북도 의성군 의성읍 북부길 129,경상북도 의성군 의성읍 철파리 217-7,36.36533306,128.6856712,2013-01-16,287,1,,,,09:00,18:00,,경상북도 의성군청,054-830-6251,2026-06-18
금호타이어 의성대리점,3,경상북도 의성군 의성읍 북부길 39,경상북도 의성군 의성읍 후죽리 363-4,36.359311856,128.6919899117,2012-11-07,236,1,,,,09:00,18:00,,경상북도 의성군청,054-830-6251,2026-06-18
기원차마당,3,경상북도 의성군 의성읍 홍술로 45,경상북도 의성군 의성읍 원당리 49-1,36.35390623,128.6844326,2012-09-14,207,1,,,,09:00,18:00,,경상북도 의성군청,054-830-6251,2026-06-18
부성부분정비,3,경상북도 의성군 단촌면 신기길 32,경상북도 의성군 단촌면 세촌리 811-3,36.42428923,128.6711849,2011-07-25,115,1,,,,09:00,18:00,,경상북도 의성군청,054-830-6251,2026-06-18
애니카랜드의성점,3,경상북도 의성군 의성읍 북원2길 33-4,경상북도 의성군 의성읍 후죽리 425-2,36.3596184509,128.6966992178,2011-06-09,339,1,,,,09:00,18:00,,경상북도 의성군청,054-830-6251,2026-06-18
쌍용자동차의성서비스프라자,3,경상북도 의성군 의성읍 경북대로 5740,경상북도 의성군 의성읍 원당리 243-2,36.3538837009,128.6818426366,2011-02-07,50,1,,,,09:00,18:00,,경상북도 의성군청,054-830-6251,2026-06-18
진성카센터,3,경상북도 의성군 의성읍 치선오상길 13,경상북도 의성군 의성읍 도동리 594-1,36.3403185844,128.701439819,2010-11-29,161,1,,,,09:00,18:00,,경상북도 의성군청,054-830-6251,2026-06-18
에이스부분정비,3,경상북도 의성군 의성읍 북부길 40,경상북도 의성군 의성읍 후죽리 368-7,36.35948348,128.6923228,2010-11-26,121,1,,,,09:00,18:00,,경상북도 의성군청,054-830-6251,2026-06-18
비안카센터,3,경상북도 의성군 비안면 강변길 43,경상북도 의성군 비안면 이두리 326-3,36.3376766049,128.488603848,2010-06-19,117,1,,,,09:00,18:00,,경상북도 의성군청,054-830-6251,2026-06-18
월드카부분정비,3,경상북도 의성군 의성읍 북부길 13,경상북도 의성군 의성읍 후죽리 858-33,36.35732638,128.6934263,2010-02-18,398,1,,,,09:00,18:00,,경상북도 의성군청,054-830-6251,2026-06-18
대륙카서비스,3,경상북도 의성군 다인면 가원농공길 5,경상북도 의성군 다인면 가원리 89-3,36.43792778,128.3714661,2010-02-05,100,1,,,,09:00,18:00,,경상북도 의성군청,054-830-6251,2026-06-18
의성우수카,3,경상북도 의성군 의성읍 문소3길 72,경상북도 의성군 의성읍 후죽리 521-10,36.35225596,128.6949676,2009-07-21,388,1,,,,09:00,18:00,,경상북도 의성군청,054-830-6251,2026-06-18
금성카센타,3,경상북도 의성군 의성읍 동서1길 1,경상북도 의성군 의성읍 후죽리 655,36.34954558,128.6943312,2009-07-07,48,1,,,,09:00,18:00,,경상북도 의성군청,054-830-6251,2026-06-18
의성점 현대자동차,3,경상북도 의성군 의성읍 구봉길 242,경상북도 의성군 의성읍 도서리 92-10,36.34683526,128.6961032,2008-09-25,230,1,,,,09:00,18:00,,경상북도 의성군청,054-830-6251,2026-06-18
금성카센타,3,경상북도 의성군 금성면 동부로 2501-3,경상북도 의성군 금성면 대리리 220-8,36.26951781,128.6776919,2008-07-24,56,1,,,,09:00,18:00,,경상북도 의성군청,054-830-6251,2026-06-18
안계점기아오토큐,3,경상북도 의성군 안계면 서부로 1786,경상북도 의성군 안계면 용기리 980-10,36.3921921242,128.4320276936,2008-01-16,60,1,,,,09:00,18:00,,경상북도 의성군청,054-830-6251,2026-06-18
제일카센터,3,경상북도 의성군 금성면 금성현서로 45,경상북도 의성군 금성면 탑리리 1374-1,36.25141386,128.687270,2007-08-01,291,1,,,,09:00,18:00,,경상북도 의성군청,054-830-6251,2026-06-18
단밀부분정비,3,경상북도 의성군 단밀면 중동단밀로 966,경상북도 의성군 단밀면 속암리 168-3,36.37559877,128.3833337,2007-04-11,417,1,,,,09:00,18:00,,경상북도 의성군청,054-830-6251,2026-06-18
기아오토큐의성점,3,경상북도 의성군 의성읍 경북대로 5804,경상북도 의성군 의성읍 철파리 404-21,36.35889613,128.6857422,2006-07-20,103,1,,,,09:00,18:00,,경상북도 의성군청,054-830-6251,2026-06-18
한국카부분정비,3,경상북도 의성군 의성읍 홍술로 39,경상북도 의성군 의성읍 원당리 41-1,36.3538153224,128.6837287495,2006-06-30,261,1,,,,09:00,18:00,,경상북도 의성군청,054-830-6251,2026-06-18
붕붕카센터,3,경상북도 의성군 안계면 서부로 1772,경상북도 의성군 안계면 용기리 928-18,36.39140698,128.4332241,2006-05-01,55,1,,,,09:00,18:00,,경상북도 의성군청,054-830-6251,2026-06-18
만도부분정비,3,경상북도 의성군 의성읍 동서1길 83,경상북도 의성군 의성읍 상리리 707-1,36.350149461,128.7034178341,2006-01-18,98,1,,,,09:00,18:00,,경상북도 의성군청,054-830-6251,2026-06-18
한국부분정비,3,경상북도 의성군 금성면 동부로 2288,경상북도 의성군 금성면 산운리 663-4,36.25117747,128.6831676,2005-06-25,330,1,,,,09:00,18:00,,경상북도 의성군청,054-830-6251,2026-06-18
비봉자동차정비,3,경상북도 의성군 안계면 서부로 1764,경상북도 의성군 안계면 용기리 928-6,36.39111484,128.4340054,2005-05-20,484,1,,,,09:00,18:00,,경상북도 의성군청,054-830-6251,2026-06-18
형제부분정비,3,경상북도 의성군 안계면 안계길 101,경상북도 의성군 안계면 용기리 500-18,36.38243432,128.4408518,2005-03-04,322,1,,,,09:00,18:00,,경상북도 의성군청,054-830-6251,2026-06-18
금호카센터,3,경상북도 의성군 안계면 서부로 1756,경상북도 의성군 안계면 용기리 924-12,36.39053099,128.4347278,2004-09-21,99,1,,,,09:00,18:00,,경상북도 의성군청,054-830-6251,2026-06-18
국우카안계점,3,경상북도 의성군 봉양면 봉기길 36,경상북도 의성군 봉양면 도원리 774,36.29508193,128.5760344,2003-03-21,187,1,,,,09:00,18:00,,경상북도 의성군청,054-830-6251,2026-06-18
단북부분정비,3,경상북도 의성군 단북면 도안로 2087,경상북도 의성군 단북면 노연리 666-4,36.38567983,128.4244263,2002-09-05,99,1,,,,09:00,18:00,,경상북도 의성군청,054-830-6251,2026-06-18
에덴자동차정비센터,3,경상북도 의성군 단북면 안계길 259,경상북도 의성군 단북면 노연리 400-3,36.392736736,128.4288838622,2000-12-15,50,1,,,,09:00,18:00,,경상북도 의성군청,054-830-6251,2026-06-18
현대부분정비,3,경상북도 의성군 안계면 용기12길 33,경상북도 의성군 안계면 용기리 501-2,36.38248264,128.4388838,2000-06-30,206,1,,,,09:00,18:00,,경상북도 의성군청,054-830-6251,2026-06-18
의성IC카센타,3,경상북도 의성군 봉양면 경북대로 4368,경상북도 의성군 봉양면 도원리 967-1,36.29052911,128.5756032,2000-02-27,55,1,,,,09:00,18:00,,경상북도 의성군청,054-830-6251,2026-06-18
안계부분정비,3,경상북도 의성군 안계면 용기3길 38,경상북도 의성군 안계면 용기리 910-1,36.38861112,128.4358081,2000-01-20,96,1,,,,09:00,18:00,,경상북도 의성군청,054-830-6251,2026-06-18
영진카부분정비,3,경상북도 의성군 의성읍 구봉길 246,경상북도 의성군 의성읍 도서리 92-1,36.34707527,128.6957821,2000-01-17,60,1,,,,09:00,18:00,,경상북도 의성군청,054-830-6251,2026-06-18
단촌카부분정비,3,경상북도 의성군 단촌면 장터길 19-1,경상북도 의성군 단촌면 하화리 1093-6,36.42222233,128.674128,2000-01-15,82,1,,,,09:00,18:00,,경상북도 의성군청,054-830-6251,2026-06-18
탑리종합부분정비,3,경상북도 의성군 금성면 동부로 2453,경상북도 의성군 금성면 대리리 209-1,36.26540204,128.6783733,1999-10-22,98,1,,,,09:00,18:00,,경상북도 의성군청,054-830-6251,2026-06-18
단산부분정비,3,경상북도 의성군 단촌면 경북대로 6236,경상북도 의성군 단촌면 방하리 199,36.3937467778,128.6796953681,1999-01-23,178,1,,,,09:00,18:00,,경상북도 의성군청,054-830-6251,2026-06-18
도리원부분정비,3,경상북도 의성군 봉양면 도리원3길 32,경상북도 의성군 봉양면 화전리 516-10,36.30050506,128.5773776,1998-11-15,184,1,,,,09:00,18:00,,경상북도 의성군청,054-830-6251,2026-06-18
태양카부분정비,3,경상북도 의성군 봉양면 도리원3길 14,경상북도 의성군 봉양면 화전리 137-4,36.29959273,128.5784546,1998-01-30,98,1,,,,09:00,18:00,,경상북도 의성군청,054-830-6251,2026-06-18
형제카,3,경상북도 의성군 의성읍 홍술로 83,경상북도 의성군 의성읍 원당리 80-1,36.3552715,128.6879261,1997-11-25,330,1,,,,09:00,18:00,,경상북도 의성군청,054-830-6251,2026-06-18
국우부분정비,3,경상북도 의성군 구천면 소보안계로 1747,경상북도 의성군 구천면 내산리 288-7,36.35712597,128.4260938,1997-06-16,484,1,,,,09:00,18:00,,경상북도 의성군청,054-830-6251,2026-06-18
다인부분정비,3,경상북도 의성군 다인면 서부로 2758,경상북도 의성군 다인면 서릉리 103-3,36.4481531579,128.3548049716,1996-11-01,322,1,,,,09:00,18:00,,경상북도 의성군청,054-830-6251,2026-06-18
신안부분정비,3,경상북도 의성군 봉양면 봉기길 9-1,경상북도 의성군 봉양면 도원리 920,36.2935629,128.5741929,1996-10-15,99,1,,,,09:00,18:00,,경상북도 의성군청,054-830-6251,2026-06-18
한국지엠의성지정서비스,3,경상북도 의성군 봉양면 봉기길 15,경상북도 의성군 봉양면 도원리 945,36.29399694,128.5744271,1995-12-06,187,1,,,,09:00,18:00,,경상북도 의성군청,054-830-6251,2026-06-18
대남부분정비,3,경상북도 의성군 안계면 서부로 1496,경상북도 의성군 안계면 위양리 529-4,36.37447874,128.4538225,1994-11-05,99,1,,,,09:00,18:00,,경상북도 의성군청,054-830-6251,2026-06-18
토탈카부분정비,3,경상북도 의성군 의성읍 구봉길 235,경상북도 의성군 의성읍 도서리 100-2,36.34616127,128.6957987,1994-06-09,50,1,,,,09:00,18:00,,경상북도 의성군청,054-830-6251,2026-06-18
신기부분정비,3,경상북도 의성군 의성읍 문소1길 2,경상북도 의성군 의성읍 도동리 639-5,36.34084733,128.7025594,1994-03-24,206,1,,,,09:00,18:00,,경상북도 의성군청,054-830-6251,2026-06-18
다인농협부분정비,3,경상북도 의성군 다인면 서부로 2809,경상북도 의성군 다인면 서릉리 177-2,36.45138934,128.3510843,1987-08-26,55,1,,,,09:00,18:00,,경상북도 의성군청,054-830-6251,2026-06-18
의성밧데리,3,경상북도 의성군 의성읍 구봉길 202,경상북도 의성군 의성읍 도동리 990-2,36.3442595,128.6988799,1986-11-12,96,1,,,,09:00,18:00,,경상북도 의성군청,054-830-6251,2026-06-18
