자동차정비업체명,자동차정비업체종류,소재지도로명주소,소재지지번주소,위도,경도,사업등록일자,면적,영업상태,폐업일자,휴업시작일자,휴업종료일자,운영시작시각,운영종료시각,전화번호,관리기관명,관리기관전화번호,데이터기준일자
건천자동차정비,2,경상북도 경주시 건천읍 단석로 1972,경상북도 경주시 건천읍 천포리 654-6,35.84688414,129.0991167,1992-10-07,876,1,,,,,,,경상북도 경주시 차량등록사업소,054-779-6539,2026-04-02
월성자동차정비공장,1,경상북도 경주시 안강읍 안강중앙로 261,경상북도 경주시 안강읍 안강리 298-2,35.99190578,129.2288016,1992-12-14,1289,1,,,,,,,경상북도 경주시 차량등록사업소,054-779-6539,2026-04-02
경주현대서비스(주),1,경상북도 경주시 공단로 45,경상북도 경주시 황성동 1071-8,35.87455148,129.2191614,1993-05-24,4539.9,1,,,,,,,경상북도 경주시 차량등록사업소,054-779-6539,2026-04-02
현대정비,2,경상북도 경주시 강동면 단구안계길 12-3,경상북도 경주시 강동면 단구리 1220-17,36.0553758,129.2427163,1995-06-03,990,1,,,,,,,경상북도 경주시 차량등록사업소,054-779-6539,2026-04-02
불국자동차정비공업사,1,경상북도 경주시 산업로 3003,경상북도 경주시 시래동 326-39,35.77463451,129.2999466,1995-06-09,1091,1,,,,,,,경상북도 경주시 차량등록사업소,054-779-6539,2026-04-02
(주)신라자동차정비공장,1,경상북도 경주시 태종로 293,경상북도 경주시 충효동 1757,35.83971259,129.1646597,1995-09-01,2589,1,,,,,,,경상북도 경주시 차량등록사업소,054-779-6539,2026-04-02
협성자동차종합정비공업사,1,경상북도 경주시 공단로 77,경상북도 경주시 황성동 56-3,35.87313832,129.2220053,1997-01-16,3298,1,,,,,,,경상북도 경주시 차량등록사업소,054-779-6539,2026-04-02
서광자동차랜드,3,경상북도 경주시 동천로 95,경상북도 경주시 동천동 784-5,35.85625635,129.2264274,1997-07-12,194.6,1,,,,,,,경상북도 경주시 차량등록사업소,054-779-6539,2026-04-02
신경주타이어,3,경상북도 경주시 알천남로 142,경상북도 경주시 성동동 188-82,35.85170013,129.2167836,1997-07-22,360,1,,,,,,,경상북도 경주시 차량등록사업소,054-779-6539,2026-04-02
대광자동차정비,3,경상북도 경주시 북문로 95,경상북도 경주시 성건동 41-7,35.85020696,129.2129023,1997-08-13,181,1,,,,,,,경상북도 경주시 차량등록사업소,054-779-6539,2026-04-02
도금속자동차정비공업사,3,경상북도 경주시 화랑로69번길 6-1,경상북도 경주시 서부동 186-1,35.845128,129.2087535,1997-08-30,162.35,1,,,,,,,경상북도 경주시 차량등록사업소,054-779-6539,2026-04-02
현대블루모터스,3,경상북도 경주시 감포읍 동해안로 2247,경상북도 경주시 감포읍 감포리 630-4,35.80643758,129.4974807,1997-10-11,100,1,,,,,,,경상북도 경주시 차량등록사업소,054-779-6539,2026-04-02
금강종합모터스,3,경상북도 경주시 탈해로 62,경상북도 경주시 동천동 889-1,35.85088032,129.2303254,1997-10-11,298.1,1,,,,,,,경상북도 경주시 차량등록사업소,054-779-6539,2026-04-02
창선자동차정비공업사,3,경상북도 경주시 안강읍 안강중앙로 13,경상북도 경주시 안강읍 산대리 1526-1,35.9967751,129.2016995,1997-10-17,190,1,,,,,,,경상북도 경주시 차량등록사업소,054-779-6539,2026-04-02
한국자동차정비공업사,3,경상북도 경주시 원화로 515,경상북도 경주시 용강동 962,35.86636566,129.2225456,1997-10-20,123.6,1,,,,,,,경상북도 경주시 차량등록사업소,054-779-6539,2026-04-02
대백자동차정비공업사,3,경상북도 경주시 초당길 17,경상북도 경주시 동천동 922-8,35.84579981,129.2306408,1997-10-30,146,1,,,,,,,경상북도 경주시 차량등록사업소,054-779-6539,2026-04-02
현대자동차그린서비스사정점,3,경상북도 경주시 첨성로 17,경상북도 경주시 사정동 437-1,35.83313189,129.2042179,1997-11-18,197,1,,,,,,,경상북도 경주시 차량등록사업소,054-779-6539,2026-04-02
대경자동차정비공업사,3,경상북도 경주시 용강상리길 20,경상북도 경주시 용강동 1059,35.86303264,129.2262953,1997-11-21,157.66,1,,,,,,,경상북도 경주시 차량등록사업소,054-779-6539,2026-04-02
성동점 현대자동차,3,경상북도 경주시 알천남로 176-3,경상북도 경주시 성동동 116-3,35.84957494,129.2191059,1997-12-03,158,1,,,,,,,경상북도 경주시 차량등록사업소,054-779-6539,2026-04-02
현곡자동차정비공업사,3,경상북도 경주시 현곡면 용담로 182,경상북도 경주시 현곡면 금장리 445-6,35.86760027,129.2027312,1997-12-11,130.93,1,,,,,,,경상북도 경주시 차량등록사업소,054-779-6539,2026-04-02
건천경성자동차정비공업사,3,경상북도 경주시 건천읍 내서로 1083,경상북도 경주시 건천읍 천포리 417-9,35.85166049,129.1012099,1997-12-19,195,1,,,,,,,경상북도 경주시 차량등록사업소,054-779-6539,2026-04-02
왕표자동차정비공업사,3,경상북도 경주시 유림로97번길 52,경상북도 경주시 용강동 831,35.87225225,129.223095,1997-12-24,179,1,,,,,,,경상북도 경주시 차량등록사업소,054-779-6539,2026-04-02
별궁카,3,경상북도 경주시 양정로218번길 4,경상북도 경주시 동천동 733-228,35.85208833,129.2244039,1998-01-10,152.8,1,,,,,,,경상북도 경주시 차량등록사업소,054-779-6539,2026-04-02
목원모터스,3,경상북도 경주시 안강읍 안강중앙로 22,경상북도 경주시 안강읍 산대리 1529-4,35.99588106,129.2027614,1998-01-20,352,1,,,,,,,경상북도 경주시 차량등록사업소,054-779-6539,2026-04-02
우신종합자동차정비공장,1,경상북도 경주시 외외1길 166,경상북도 경주시 충효동 1793-4,35.83378256,129.1627896,1998-02-03,2646,1,,,,,,,경상북도 경주시 차량등록사업소,054-779-6539,2026-04-02
우방자동차정비공업사,3,경상북도 경주시 금성로 336-1,경상북도 경주시 서부동 2-76,35.84781423,129.2071343,1998-02-10,101,1,,,,,,,경상북도 경주시 차량등록사업소,054-779-6539,2026-04-02
부흥자동차정비공업사,3,경상북도 경주시 초당길15번길 9,경상북도 경주시 동천동 919-11,35.84637024,129.2309374,1998-02-27,182.2,1,,,,,,,경상북도 경주시 차량등록사업소,054-779-6539,2026-04-02
e-편한 카센타,3,경상북도 경주시 원지길30번길 4,경상북도 경주시 황성동 249-11,35.86776216,129.2209493,1998-03-12,195,1,,,,,,,경상북도 경주시 차량등록사업소,054-779-6539,2026-04-02
현대자동차그린서비스용강점,3,경상북도 경주시 소금강로19번길 17-2,경상북도 경주시 용강동 1347-8,35.86146494,129.2216038,1998-03-19,141.1,1,,,,,,,경상북도 경주시 차량등록사업소,054-779-6539,2026-04-02
경주카에어콘정비공업사,3,경상북도 경주시 북문로 7,경상북도 경주시 성건동 484-12,35.8501883,129.2033211,1998-03-20,199,1,,,,,,,경상북도 경주시 차량등록사업소,054-779-6539,2026-04-02
만도카서비스,3,경상북도 경주시 갓뒤길3번길 2,경상북도 경주시 황성동 218-1,35.87061871,129.2167569,1998-03-26,198,1,,,,,,,경상북도 경주시 차량등록사업소,054-779-6539,2026-04-02
스피드메이트 동천점,3,경상북도 경주시 양정로 261,경상북도 경주시 동천동 788-1,35.85602548,129.2239634,1998-04-21,373.4,1,,,,,,,경상북도 경주시 차량등록사업소,054-779-6539,2026-04-02
사방자동차정비공업사,3,경상북도 경주시 안강읍 안현로 876,경상북도 경주시 안강읍 사방리 583-21,35.93634815,129.2319774,1998-05-12,195,1,,,,,,,경상북도 경주시 차량등록사업소,054-779-6539,2026-04-02
우주자동차정비공업사,3,경상북도 경주시 원화로 380,경상북도 경주시 동천동 733-451,35.85439992,129.218838,1998-05-15,142.74,1,,,,,,,경상북도 경주시 차량등록사업소,054-779-6539,2026-04-02
서천자동차정비공업사,3,경상북도 경주시 알천남로 256,경상북도 경주시 황오동 389-46,35.84507642,129.2262959,1998-05-18,296,1,,,,,,,경상북도 경주시 차량등록사업소,054-779-6539,2026-04-02
형제자동차정비공업사,3,경상북도 경주시 안강읍 안강중앙로 50,경상북도 경주시 안강읍 산대리 1570,35.99506645,129.2055255,1998-05-19,187,1,,,,,,,경상북도 경주시 차량등록사업소,054-779-6539,2026-04-02
행운자동차정비공업사,3,경상북도 경주시 북문로 89,경상북도 경주시 성건동 43-4,35.85028463,129.2123743,1998-06-10,132,1,,,,,,,경상북도 경주시 차량등록사업소,054-779-6539,2026-04-02
청송자동차정비공업사,3,경상북도 경주시 외동읍 입실로 1,경상북도 경주시 외동읍 구어리 332-2,35.70901457,129.3253058,1998-06-11,145,1,,,,,,,경상북도 경주시 차량등록사업소,054-779-6539,2026-04-02
성원자동차정비공업사,3,경상북도 경주시 양남면 죽전안길 30,경상북도 경주시 양남면 나아리 416-5,35.69972951,129.4719359,1998-06-23,199,1,,,,,,,경상북도 경주시 차량등록사업소,054-779-6539,2026-04-02
부국자동차정비공업사,3,경상북도 경주시 외동읍 입실로3길 29,경상북도 경주시 외동읍 입실리 1059-1,35.71560398,129.3232529,1998-07-22,192.5,1,,,,,,,경상북도 경주시 차량등록사업소,054-779-6539,2026-04-02
삼성자동차정비공업사,3,경상북도 경주시 감포읍 동해안로 2285,경상북도 경주시 감포읍 감포리 24,35.80925608,129.5001873,1998-08-10,190,1,,,,,,,경상북도 경주시 차량등록사업소,054-779-6539,2026-04-02
경북카서비스,3,경상북도 경주시 서면 내서로 465,경상북도 경주시 서면 아화리 285-8,35.89156259,129.0534138,1998-09-15,103.45,1,,,,,,,경상북도 경주시 차량등록사업소,054-779-6539,2026-04-02
참좋은모터샵,3,경상북도 경주시 안강읍 구부랑3길 22,경상북도 경주시 안강읍 산대리 2404-8,36.00139773,129.1943518,1998-09-23,174.38,1,,,,,,,경상북도 경주시 차량등록사업소,054-779-6539,2026-04-02
경우자동차정비공업사,3,경상북도 경주시 태종로 751,경상북도 경주시 노동동 276-1,35.83979761,129.2104136,1998-10-26,180.5,1,,,,,,,경상북도 경주시 차량등록사업소,054-779-6539,2026-04-02
경신자동차정비공업사,3,경상북도 경주시 북문로 36,경상북도 경주시 성건동 173,35.84978619,129.2063728,1998-12-28,199.92,1,,,,,,,경상북도 경주시 차량등록사업소,054-779-6539,2026-04-02
은희자동차정비공업사,3,경상북도 경주시 양정로 156-3,경상북도 경주시 성동동 110-14,35.84777187,129.2209382,1998-12-28,145,1,,,,,,,경상북도 경주시 차량등록사업소,054-779-6539,2026-04-02
태화자동차정비공업사,3,경상북도 경주시 외동읍 입실로1길 26,경상북도 경주시 외동읍 입실리 743,35.71179288,129.3282289,1999-02-08,200,1,,,,,,,경상북도 경주시 차량등록사업소,054-779-6539,2026-04-02
부흥카세차장,3,경상북도 경주시 외동읍 입실로 54,경상북도 경주시 외동읍 입실리 887-4,35.71331611,129.3251301,1999-02-08,456.9,1,,,,,,,경상북도 경주시 차량등록사업소,054-779-6539,2026-04-02
파워자동차정비,3,경상북도 경주시 황성로64번길 9-3,경상북도 경주시 황성동 269-16,35.86757722,129.2182954,1999-02-22,199,1,,,,,,,경상북도 경주시 차량등록사업소,054-779-6539,2026-04-02
영진카클리닉,3,경상북도 경주시 양정로 292,경상북도 경주시 동천동 987-5,35.8588734,129.2245127,1999-02-22,129.8,1,,,,,,,경상북도 경주시 차량등록사업소,054-779-6539,2026-04-02
우민부분정비공업사,3,경상북도 경주시 외동읍 입실로 25,경상북도 경주시 외동읍 입실리 881-10,35.71072472,129.3254095,1999-03-05,161,1,,,,,,,경상북도 경주시 차량등록사업소,054-779-6539,2026-04-02
정비반장,3,경상북도 경주시 동문로 91-1,경상북도 경주시 성건동 651-25,35.85277074,129.2140002,1999-03-09,182.5,1,,,,,,,경상북도 경주시 차량등록사업소,054-779-6539,2026-04-02
애니카랜드동천점,3,경상북도 경주시 탈해로 58,경상북도 경주시 동천동 889-15,35.85066684,129.2299037,1999-04-22,399.8,1,,,,,,,경상북도 경주시 차량등록사업소,054-779-6539,2026-04-02
르노코리아자동차서비스코너성건,3,경상북도 경주시 북성로 4-3,경상북도 경주시 성건동 452-1,35.84732385,129.2022813,1999-04-24,217.92,1,,,,,,,경상북도 경주시 차량등록사업소,054-779-6539,2026-04-02
현대자동차그린서비스성건점,3,경상북도 경주시 북문로 63,경상북도 경주시 성건동 655-3,35.85037519,129.2093244,1999-08-04,197.5,1,,,,,,,경상북도 경주시 차량등록사업소,054-779-6539,2026-04-02
황성점 기아오토큐,3,경상북도 경주시 용담로 24-41,경상북도 경주시 황성동 361-7,35.86100155,129.2202535,1999-08-18,162,1,,,,,,,경상북도 경주시 차량등록사업소,054-779-6539,2026-04-02
충효점 현대자동차,3,경상북도 경주시 태종로 450-2,경상북도 경주시 충효동 463,35.84344132,129.1790817,1999-08-28,702,1,,,,,,,경상북도 경주시 차량등록사업소,054-779-6539,2026-04-02
성건점 기아오토큐,3,경상북도 경주시 북문로 8,경상북도 경주시 성건동 483-17,35.84968266,129.2032853,1999-08-31,182.4,1,,,,,,,경상북도 경주시 차량등록사업소,054-779-6539,2026-04-02
동신자동차정비공업사,3,경상북도 경주시 산내면 단석로 700,경상북도 경주시 산내면 의곡리 168,35.75849092,129.045553,1999-10-19,330,1,,,,,,,경상북도 경주시 차량등록사업소,054-779-6539,2026-04-02
오복자동차정비공업사,3,경상북도 경주시 원효로 192-5,경상북도 경주시 황오동 72-6,35.84117612,129.2219292,1999-11-02,108,1,,,,,,,경상북도 경주시 차량등록사업소,054-779-6539,2026-04-02
(주)마당,3,경상북도 경주시 충현로 84-36,경상북도 경주시 충효동 710-13,35.85257722,129.1701657,1999-11-13,405.2,1,,,,,,,경상북도 경주시 차량등록사업소,054-779-6539,2026-04-02
로얄카서비스,3,경상북도 경주시 안강읍 구부랑길 41,경상북도 경주시 안강읍 산대리 2400-4,36.00125587,129.1964301,1999-11-23,194.6,1,,,,,,,경상북도 경주시 차량등록사업소,054-779-6539,2026-04-02
극동자동차정비공업사,3,경상북도 경주시 백률로82번길 10,경상북도 경주시 동천동 779-3,35.85583296,129.2280694,1999-12-21,198,1,,,,,,,경상북도 경주시 차량등록사업소,054-779-6539,2026-04-02
부일자동차정비공업사,3,경상북도 경주시 외동읍 산업로 2610,경상북도 경주시 외동읍 죽동리 298-9,35.74334111,129.3175209,1999-12-24,146.64,1,,,,,,,경상북도 경주시 차량등록사업소,054-779-6539,2026-04-02
박병길자동차정비공업사,3,경상북도 경주시 강동면 안현로 2256,경상북도 경주시 강동면 단구리 1205,36.05425316,129.240794,2000-02-10,199.3,1,,,,,,,경상북도 경주시 차량등록사업소,054-779-6539,2026-04-02
한별자동차정비,3,경상북도 경주시 용담로116번길 18,경상북도 경주시 황성동 895-5,35.8662179,129.2102336,2000-02-25,366,1,,,,,,,경상북도 경주시 차량등록사업소,054-779-6539,2026-04-02
화랑 모터스,3,경상북도 경주시 화랑로22번길 19,경상북도 경주시 성건동 374-32,35.84310102,129.2030373,2000-03-06,225.6,1,,,,,,,경상북도 경주시 차량등록사업소,054-779-6539,2026-04-02
혜성정비,3,경상북도 경주시 소금강로61번길 25,경상북도 경주시 용강동 1336-2,35.861993,129.2257082,2000-03-10,399.4,1,,,,,,,경상북도 경주시 차량등록사업소,054-779-6539,2026-04-02
경동오토패밀리,3,경상북도 경주시 알천북로 255-1,경상북도 경주시 동천동 587,35.84755509,129.2264274,2000-04-18,194.47,1,,,,,,,경상북도 경주시 차량등록사업소,054-779-6539,2026-04-02
협신자동차정비공업사,3,경상북도 경주시 공단로 11,경상북도 경주시 황성동 837-1,35.87635367,129.2159209,2000-04-28,159,1,,,,,,,경상북도 경주시 차량등록사업소,054-779-6539,2026-04-02
국제소형자동차정비,2,경상북도 경주시 현곡면 안현로 284,경상북도 경주시 현곡면 라원리 778-2,35.88820799,129.2190343,2000-07-15,781,1,,,,,,,경상북도 경주시 차량등록사업소,054-779-6539,2026-04-02
최병철카클리닉,3,경상북도 경주시 안강읍 구부랑2길 22-1,경상북도 경주시 안강읍 산대리 2411-7,36.00031084,129.1940748,2000-08-28,107.88,1,,,,,,,경상북도 경주시 차량등록사업소,054-779-6539,2026-04-02
한국지엠경주안강바로서비스,3,경상북도 경주시 안강읍 안강중앙로 53,경상북도 경주시 안강읍 산대리 1659-8,35.99519997,129.2062316,2000-09-01,192,1,,,,,,,경상북도 경주시 차량등록사업소,054-779-6539,2026-04-02
두리자동차정비공업사,3,경상북도 경주시 승삼1길 35,경상북도 경주시 용강동 1285-1,35.87962218,129.2299714,2000-09-01,180.7,1,,,,,,,경상북도 경주시 차량등록사업소,054-779-6539,2026-04-02
뉴광명자동차정비공업사,3,경상북도 경주시 대경로 4412,경상북도 경주시 광명동 367-2,35.81862295,129.1477232,2000-09-08,198.61,1,,,,,,,경상북도 경주시 차량등록사업소,054-779-6539,2026-04-02
오토오아시스 경주점,3,경상북도 경주시 충효녹지길 6,경상북도 경주시 충효동 3020-7,35.84033792,129.1897842,2000-11-08,120,1,,,,,,,경상북도 경주시 차량등록사업소,054-779-6539,2026-04-02
보문자동차정비공업사,3,경상북도 경주시 양정로 309-2,경상북도 경주시 용강동 1359-9,35.86051999,129.2240004,2000-12-20,334.6,1,,,,,,,경상북도 경주시 차량등록사업소,054-779-6539,2026-04-02
연식자동차정비,3,경상북도 경주시 천북면 천북로 53,경상북도 경주시 천북면 신당리 1399-369,35.89021905,129.2430123,2001-01-15,823,1,,,,,,,경상북도 경주시 차량등록사업소,054-779-6539,2026-04-02
평화1급종합정비,1,경상북도 경주시 유림로5번길 35,경상북도 경주시 황성동 844-1,35.87551632,129.2150674,2001-01-30,1726,1,,,,,,,경상북도 경주시 차량등록사업소,054-779-6539,2026-04-02
동천점 기아오토큐,3,경상북도 경주시 탈해로52번길 18,경상북도 경주시 동천동 907,35.84916982,129.2303527,2001-03-21,109,1,,,,,,,경상북도 경주시 차량등록사업소,054-779-6539,2026-04-02
서면종합카센타,3,경상북도 경주시 원화로 475,경상북도 경주시 용강동 1174-11,35.86276107,129.221103,2001-03-21,131.69,1,,,,,,,경상북도 경주시 차량등록사업소,054-779-6539,2026-04-02
현성자동차정비공업사,3,경상북도 경주시 안강읍 구부랑3길 24-9,경상북도 경주시 안강읍 산대리 2405-9,36.00198791,129.1939919,2001-05-21,199,1,,,,,,,경상북도 경주시 차량등록사업소,054-779-6539,2026-04-02
수왕자동변속기정비공업사,3,경상북도 경주시 소금강로 23,경상북도 경주시 용강동 1357-7,35.85996841,129.222884,2001-05-21,156.6,1,,,,,,,경상북도 경주시 차량등록사업소,054-779-6539,2026-04-02
자동차나라,3,경상북도 경주시 안강읍 구부랑길 27,경상북도 경주시 안강읍 산대리 2416-11,35.99999671,129.1961385,2001-06-04,179.3,1,,,,,,,경상북도 경주시 차량등록사업소,054-779-6539,2026-04-02
통일운수정비공업사,2,경상북도 경주시 원효로 202,경상북도 경주시 인왕동 653-3,35.84150995,129.2228061,2001-09-17,2926,1,,,,,,,경상북도 경주시 차량등록사업소,054-779-6539,2026-04-02
건천점현대자동차,3,경상북도 경주시 건천읍 내서로 1201,경상북도 경주시 건천읍 조전리 34-3,35.84356664,129.1094374,2001-10-19,156.8,1,,,,,,,경상북도 경주시 차량등록사업소,054-779-6539,2026-04-02
현대자동차황성점,3,경상북도 경주시 갓뒤길3번길 1-6,경상북도 경주시 황성동 645-16,35.87070538,129.2162988,2001-11-19,345,1,,,,,,,경상북도 경주시 차량등록사업소,054-779-6539,2026-04-02
유진자동차병원,3,경상북도 경주시 초당길159번길 12,경상북도 경주시 동천동 890-9,35.85023185,129.2302913,2001-12-13,199.7,1,,,,,,,경상북도 경주시 차량등록사업소,054-779-6539,2026-04-02
M모터클럽,3,경상북도 경주시 양정로 200,경상북도 경주시 동천동 599-20,35.85052674,129.2243548,2002-01-11,159.8,1,,,,,,,경상북도 경주시 차량등록사업소,054-779-6539,2026-04-02
스피트메이트 새화랑점,3,경상북도 경주시 초당길 103,경상북도 경주시 동천동 936,35.84679492,129.2351141,2002-02-23,2390.6,1,,,,,,,경상북도 경주시 차량등록사업소,054-779-6539,2026-04-02
대신자동차정비공업사,3,경상북도 경주시 소금강로 61,경상북도 경주시 용강동 1345-9,35.86019611,129.2268666,2002-03-14,199.4,1,,,,,,,경상북도 경주시 차량등록사업소,054-779-6539,2026-04-02
자동차나라정비공업사,3,경상북도 경주시 충효녹지길 68-8,경상북도 경주시 충효동 2976,35.84325943,129.1841005,2002-05-08,178.9,1,,,,,,,경상북도 경주시 차량등록사업소,054-779-6539,2026-04-02
동천카써비스,3,경상북도 경주시 알천북로 277,경상북도 경주시 동천동 913-8,35.84646978,129.228381,2002-07-03,190.8,1,,,,,,,경상북도 경주시 차량등록사업소,054-779-6539,2026-04-02
그린 모터샵,3,경상북도 경주시 동천로60번길 20,경상북도 경주시 동천동 835-1,35.85309972,129.2286824,2002-07-24,115.11,1,,,,,,,경상북도 경주시 차량등록사업소,054-779-6539,2026-04-02
케이지모빌리티 경주서비스프라자,3,경상북도 경주시 천북면 천북로 97,경상북도 경주시 천북면 신당리 741-1,35.89217865,129.2456801,2002-10-01,2000,1,,,,,,,경상북도 경주시 차량등록사업소,054-779-6539,2026-04-02
안강모터스,3,경상북도 경주시 안강읍 화전중앙길 44,경상북도 경주시 안강읍 산대리 1931-4,35.98970842,129.2150717,2002-10-25,149,1,,,,,,,경상북도 경주시 차량등록사업소,054-779-6539,2026-04-02
불국사카센타,3,경상북도 경주시 산업로 3007,경상북도 경주시 시래동 373-8,35.77475422,129.2999813,2002-11-18,174.22,1,,,,,,,경상북도 경주시 차량등록사업소,054-779-6539,2026-04-02
육일자동차정비공업사,2,경상북도 경주시 안강읍 부곡길 56,경상북도 경주시 안강읍 근계리 1170-1,35.98939299,129.2048964,2002-11-19,1655,1,,,,,,,경상북도 경주시 차량등록사업소,054-779-6539,2026-04-02
안강자동차정비공업사,3,경상북도 경주시 안강읍 비화동길 19,경상북도 경주시 안강읍 안강리 351-11,35.99036289,129.2254435,2003-03-21,517,1,,,,,,,경상북도 경주시 차량등록사업소,054-779-6539,2026-04-02
현대카센타,3,경상북도 경주시 문무대왕면 경감로 2474,경상북도 경주시 문무대왕면 어일리 808-1,35.79278726,129.4433764,2003-04-25,161.32,1,,,,,,,경상북도 경주시 차량등록사업소,054-779-6539,2026-04-02
프라미스랜드,3,경상북도 경주시 용담로116번길 4,경상북도 경주시 황성동 924,35.8651553,129.2095136,2003-06-02,161.7,1,,,,,,,경상북도 경주시 차량등록사업소,054-779-6539,2026-04-02
새대구 정비,3,경상북도 경주시 봉황로 173,경상북도 경주시 성건동 620-177,35.85511012,129.209998,2003-08-01,183.6,1,,,,,,,경상북도 경주시 차량등록사업소,054-779-6539,2026-04-02
성건자동차정비,3,경상북도 경주시 탈해로 44,경상북도 경주시 동천동 888-3,35.84982466,129.229253,2003-09-16,197.3,1,,,,,,,경상북도 경주시 차량등록사업소,054-779-6539,2026-04-02
만남자동차정비,3,경상북도 경주시 외동읍 산업로 2153-8,경상북도 경주시 외동읍 구어리 456,35.70526389,129.3263879,2003-09-27,112,1,,,,,,,경상북도 경주시 차량등록사업소,054-779-6539,2026-04-02
스피드 메이트 충효점,3,경상북도 경주시 태종로 418,경상북도 경주시 충효동 547-4,35.84431504,129.1758874,2004-02-07,330,1,,,,,,,경상북도 경주시 차량등록사업소,054-779-6539,2026-04-02
천북카서비스,3,경상북도 경주시 천북면 동산3길 7,경상북도 경주시 천북면 동산리 443-9,35.8960893,129.2687333,2004-02-27,165,1,,,,,,,경상북도 경주시 차량등록사업소,054-779-6539,2026-04-02
우방카클리닉,3,경상북도 경주시 백률로 60,경상북도 경주시 동천동 784-2,35.85639257,129.2258744,2004-03-09,198,1,,,,,,,경상북도 경주시 차량등록사업소,054-779-6539,2026-04-02
형산자동차정비공업사,3,경상북도 경주시 삼거리앞길 15,경상북도 경주시 도지동 678-11,35.79713351,129.2691777,2004-05-10,103.5,1,,,,,,,경상북도 경주시 차량등록사업소,054-779-6539,2026-04-02
대아종합정비,1,경상북도 경주시 공단로 35,경상북도 경주시 황성동 1070-4,35.87494739,129.2183865,2004-05-25,1584.3,1,,,,,,,경상북도 경주시 차량등록사업소,054-779-6539,2026-04-02
애니카랜드 안강점,3,경상북도 경주시 안강읍 피일길 86,경상북도 경주시 안강읍 옥산리 597-8,35.99926837,129.1834615,2004-06-15,1230,1,,,,,,,경상북도 경주시 차량등록사업소,054-779-6539,2026-04-02
대형특장종합정비,1,경상북도 경주시 공단로57번길 9,경상북도 경주시 황성동 1071-6,35.87452561,129.2200736,2004-06-15,1662.5,1,,,,,,,경상북도 경주시 차량등록사업소,054-779-6539,2026-04-02
(주)대한일급정비,1,경상북도 경주시 외동읍 영지로 13,경상북도 경주시 외동읍 냉천리 201,35.71606665,129.2999471,2004-07-30,1226,1,,,,,,,경상북도 경주시 차량등록사업소,054-779-6539,2026-04-02
금장카클리닉,3,경상북도 경주시 현곡면 동대로 230,경상북도 경주시 현곡면 금장리 460-13,35.86739299,129.2018247,2004-08-06,177,1,,,,,,,경상북도 경주시 차량등록사업소,054-779-6539,2026-04-02
북부자동차정비공업사,1,경상북도 경주시 안강읍 안현로 1903,경상북도 경주시 안강읍 노당리 1053-2,36.02510537,129.226835,2004-09-06,1847,1,,,,,,,경상북도 경주시 차량등록사업소,054-779-6539,2026-04-02
초원카센타,3,경상북도 경주시 외동읍 연안2길 3,경상북도 경주시 외동읍 연안리 777-9,35.72930402,129.3203019,2004-09-13,199,1,,,,,,,경상북도 경주시 차량등록사업소,054-779-6539,2026-04-02
삼성종합자동차정비공업사,1,경상북도 경주시 건천읍 용명공단길 11,경상북도 경주시 건천읍 건천리 168-13,35.85190879,129.1018144,2005-01-26,1001,1,,,,,,,경상북도 경주시 차량등록사업소,054-779-6539,2026-04-02
경국 차 정비,3,경상북도 경주시 건천읍 내서로 1069,경상북도 경주시 건천읍 천포리 314-11,35.85274453,129.1004186,2005-05-06,152.3,1,,,,,,,경상북도 경주시 차량등록사업소,054-779-6539,2026-04-02
카매니아정비,3,경상북도 경주시 공영주택길 38,경상북도 경주시 성건동 633-5,35.85449474,129.2108385,2005-07-01,149.1,1,,,,,,,경상북도 경주시 차량등록사업소,054-779-6539,2026-04-02
외동점 현대자동차,3,경상북도 경주시 외동읍 모화남1길 5,경상북도 경주시 외동읍 모화리 202-1,35.67052535,129.3367111,2005-07-12,129.6,1,,,,,,,경상북도 경주시 차량등록사업소,054-779-6539,2026-04-02
엘림자동차,3,경상북도 경주시 봉황로 176-5,경상북도 경주시 성건동 620-94,35.85519636,129.2107125,2005-07-15,172.9,1,,,,,,,경상북도 경주시 차량등록사업소,054-779-6539,2026-04-02
한국지엠경주용강지정서비스,3,경상북도 경주시 양정로 315,경상북도 경주시 용강동 1359-1,35.86087343,129.223910,2005-11-24,121,1,,,,,,,경상북도 경주시 차량등록사업소,054-779-6539,2026-04-02
경주종합정비,1,경상북도 경주시 천북면 천북로 200-3,경상북도 경주시 천북면 신당리 113,35.89802902,129.2539887,2005-12-31,2701,1,,,,,,,경상북도 경주시 차량등록사업소,054-779-6539,2026-04-02
르노코리아자동차서비스코너경주점,3,경상북도 경주시 소금강로61번길 81,경상북도 경주시 용강동 1310,35.86652877,129.2234938,2006-01-23,176.15,1,,,,,,,경상북도 경주시 차량등록사업소,054-779-6539,2026-04-02
대동카24시,3,경상북도 경주시 건천읍 단석로 1858,경상북도 경주시 건천읍 천포리 1061-8,35.84095824,129.0887241,2006-02-01,199,1,,,,,,,경상북도 경주시 차량등록사업소,054-779-6539,2026-04-02
보스카정비,3,경상북도 경주시 소금강로61번길 3,경상북도 경주시 용강동 1345-5,35.86029844,129.2267519,2006-03-21,396.9,1,,,,,,,경상북도 경주시 차량등록사업소,054-779-6539,2026-04-02
오케이카클리닉,3,경상북도 경주시 서악5길 24,경상북도 경주시 서악동 645-3,35.82624845,129.1872231,2006-03-31,200,1,,,,,,,경상북도 경주시 차량등록사업소,054-779-6539,2026-04-02
동국카,3,경상북도 경주시 충효중앙길 96,경상북도 경주시 충효동 2955-2,35.84479277,129.1808612,2006-07-06,199,1,,,,,,,경상북도 경주시 차량등록사업소,054-779-6539,2026-04-02
두산정비공업사,3,경상북도 경주시 금성로319번길 29-8,경상북도 경주시 성건동 326-1,35.84593493,129.2035071,2006-07-06,463,1,,,,,,,경상북도 경주시 차량등록사업소,054-779-6539,2026-04-02
승진자동차정비공장,3,경상북도 경주시 탈해로 32,경상북도 경주시 동천동 910-3,35.84881421,129.2292202,2006-08-11,662.8,1,,,,,,,경상북도 경주시 차량등록사업소,054-779-6539,2026-04-02
안승자동차3급정비공업사,3,경상북도 경주시 대경로 4405,경상북도 경주시 광명동 391-10,35.81932969,129.147449,2006-10-27,330,1,,,,,,,경상북도 경주시 차량등록사업소,054-779-6539,2026-04-02
만호자동차정비공업사,3,경상북도 경주시 건천읍 용명공단길 26,경상북도 경주시 건천읍 건천리 177-4,35.85257698,129.1037466,2007-02-14,389.5,1,,,,,,,경상북도 경주시 차량등록사업소,054-779-6539,2026-04-02
동명모터샵,3,경상북도 경주시 안강읍 비화중로 53,경상북도 경주시 안강읍 양월리 1223-7,35.99252242,129.2188286,2007-02-27,100,1,,,,,,,경상북도 경주시 차량등록사업소,054-779-6539,2026-04-02
내남자동차정비,3,경상북도 경주시 내남면 반구대로 2980,경상북도 경주시 내남면 노곡리 999-2,35.74084644,129.2042492,2007-02-28,249,1,,,,,,,경상북도 경주시 차량등록사업소,054-779-6539,2026-04-02
드림모터스,3,경상북도 경주시 초당길15번길 22-1,경상북도 경주시 동천동 929-4,35.84696456,129.2323153,2007-03-12,238,1,,,,,,,경상북도 경주시 차량등록사업소,054-779-6539,2026-04-02
장군 카 매니저,3,경상북도 경주시 안강읍 구부랑두림길 22,경상북도 경주시 안강읍 산대리 2418-6,36.00001342,129.1926462,2007-03-23,169,1,,,,,,,경상북도 경주시 차량등록사업소,054-779-6539,2026-04-02
대경자동차정비공업사,3,경상북도 경주시 외동읍 산업로 2209,경상북도 경주시 외동읍 입실리 853,35.709341,129.3234228,2007-03-23,723,1,,,,,,,경상북도 경주시 차량등록사업소,054-779-6539,2026-04-02
태선 자동차 부분정비,3,경상북도 경주시 외동읍 산업로 2762-5,경상북도 경주시 외동읍 괘릉리 701,35.75706841,129.3150036,2007-05-07,900,1,,,,,,,경상북도 경주시 차량등록사업소,054-779-6539,2026-04-02
우리 타이어 부분정비,3,경상북도 경주시 외동읍 산업로 2470,경상북도 경주시 외동읍 연안리 611-2,35.73110464,129.3211102,2007-05-07,198,1,,,,,,,경상북도 경주시 차량등록사업소,054-779-6539,2026-04-02
철강 카 센터,3,경상북도 경주시 양정로 96,경상북도 경주시 황오동 23-14,35.84404126,129.2229759,2007-06-22,149,1,,,,,,,경상북도 경주시 차량등록사업소,054-779-6539,2026-04-02
영신 모터스,3,경상북도 경주시 건천읍 내서로 1186,경상북도 경주시 건천읍 조전리 247-2,35.8443101,129.1079698,2007-07-27,126.65,1,,,,,,,경상북도 경주시 차량등록사업소,054-779-6539,2026-04-02
경주 카114,3,경상북도 경주시 첨성로 21,경상북도 경주시 사정동 439-3,35.83319686,129.2045417,2007-08-24,435,1,,,,,,,경상북도 경주시 차량등록사업소,054-779-6539,2026-04-02
경북 자동차 정비,3,경상북도 경주시 천북면 천북로 176,경상북도 경주시 천북면 신당리 81-3,35.89687596,129.251896,2008-04-28,135,1,,,,,,,경상북도 경주시 차량등록사업소,054-779-6539,2026-04-02
명진자동차정비공장,2,경상북도 경주시 강동면 산업로 5551-9,경상북도 경주시 강동면 호명리 248-3,35.9715958,129.2468433,2008-05-15,820,1,,,,,,,경상북도 경주시 차량등록사업소,054-779-6539,2026-04-02
미쉐린 타이어 태성총판,3,경상북도 경주시 외동읍 산업로 2022,경상북도 경주시 외동읍 구어리 65-6,35.69450444,129.3321612,2008-08-12,198,1,,,,,,,경상북도 경주시 차량등록사업소,054-779-6539,2026-04-02
대화 타이어,3,경상북도 경주시 외동읍 산업로 2246,경상북도 경주시 외동읍 입실리 1259-3,35.71208655,129.3209123,2008-08-12,187.74,1,,,,,,,경상북도 경주시 차량등록사업소,054-779-6539,2026-04-02
우수부분정비공업사,3,경상북도 경주시 외동읍 관문로 1220,경상북도 경주시 외동읍 문산리 480-2,35.6795904,129.3145919,2008-08-19,120.6,1,,,,,,,경상북도 경주시 차량등록사업소,054-779-6539,2026-04-02
현일 자동차 정비,3,경상북도 경주시 외동읍 산업로 2272,경상북도 경주시 외동읍 입실리 1144,35.71391511,129.3196751,2008-10-08,100,1,,,,,,,경상북도 경주시 차량등록사업소,054-779-6539,2026-04-02
현곡자동차정비공업사,1,경상북도 경주시 현곡면 용담로 583-19,경상북도 경주시 현곡면 하구리 347-1,35.88974431,129.1686955,2008-11-17,1714,1,,,,,,,경상북도 경주시 차량등록사업소,054-779-6539,2026-04-02
경동정비,3,경상북도 경주시 안강읍 안현로 1489-1,경상북도 경주시 안강읍 안강리 380-2,35.98817584,129.2272987,2008-12-08,1141,1,,,,,,,경상북도 경주시 차량등록사업소,054-779-6539,2026-04-02
케이지모빌리티충효서비스프라자,3,경상북도 경주시 재동길 24,경상북도 경주시 충효동 1474-1,35.8468698319,129.169130215,2009-02-02,645.1,1,,,,,,,경상북도 경주시 차량등록사업소,054-779-6539,2026-04-02
애니카랜드 감포점,3,경상북도 경주시 감포읍 동해안로 2246,경상북도 경주시 감포읍 감포리 629-10,35.80612801,129.4976363,2009-04-23,440,1,,,,,,,경상북도 경주시 차량등록사업소,054-779-6539,2026-04-02
오토서비스경주점,3,경상북도 경주시 공단로 97,경상북도 경주시 용강동 800-11,35.8734415,129.2248628,2009-07-20,101.95,1,,,,,,,경상북도 경주시 차량등록사업소,054-779-6539,2026-04-02
제일자동차정비공업사,2,경상북도 경주시 충효4길 10-3,경상북도 경주시 충효동 2971-8,35.84364296,129.1828295,2009-07-29,693.9,1,,,,,,,경상북도 경주시 차량등록사업소,054-779-6539,2026-04-02
SKY 모터샵,3,경상북도 경주시 황성로28번길 5,경상북도 경주시 황성동 506-5,35.86568093,129.214891,2009-08-12,174.2,1,,,,,,,경상북도 경주시 차량등록사업소,054-779-6539,2026-04-02
오토클럽,3,경상북도 경주시 원화로 455,경상북도 경주시 황성동 360-1,35.8612289,129.2203354,2009-09-22,312,1,,,,,,,경상북도 경주시 차량등록사업소,054-779-6539,2026-04-02
서라벌자동차정비공업사,3,경상북도 경주시 산업로 3533,경상북도 경주시 동방동 272,35.80682893,129.2595394,2009-10-09,108,1,,,,,,,경상북도 경주시 차량등록사업소,054-779-6539,2026-04-02
씽씽모터샵,3,경상북도 경주시 안강읍 화전중앙길 15,경상북도 경주시 안강읍 산대리 1878-38,35.99222017,129.2158931,2010-01-25,317,1,,,,,,,경상북도 경주시 차량등록사업소,054-779-6539,2026-04-02
㈜황금자동차정비,1,경상북도 경주시 알천남로 300,경상북도 경주시 구황동 883-58,35.84318494,129.2307451,2010-02-18,1322,1,,,,,,,경상북도 경주시 차량등록사업소,054-779-6539,2026-04-02
77카센타,3,경상북도 경주시 외동읍 산업로 2886,경상북도 경주시 외동읍 괘릉리 1085-2,35.76753081,129.309985,2010-04-23,277,1,,,,,,,경상북도 경주시 차량등록사업소,054-779-6539,2026-04-02
월성카,3,경상북도 경주시 양남면 동해안로 568,경상북도 경주시 양남면 읍천리 214-7,35.69314214,129.4733652,2010-05-12,385,1,,,,,,,경상북도 경주시 차량등록사업소,054-779-6539,2026-04-02
범아정비,3,경상북도 경주시 외동읍 관문로 1250,경상북도 경주시 외동읍 문산리 392,35.68020457,129.3176056,2010-05-28,555,1,,,,,,,경상북도 경주시 차량등록사업소,054-779-6539,2026-04-02
로드매너저,3,경상북도 경주시 동천로60번길 13,경상북도 경주시 동천동 833-4,35.85322951,129.2280487,2010-07-23,433.1,1,,,,,,,경상북도 경주시 차량등록사업소,054-779-6539,2026-04-02
GM대우경주중부바로정비,3,경상북도 경주시 북문로 6,경상북도 경주시 성건동 483-3,35.849756,129.2031141,2010-08-13,433,1,,,,,,,경상북도 경주시 차량등록사업소,054-779-6539,2026-04-02
대흥타이어,3,경상북도 경주시 서면 대경로 3241,경상북도 경주시 서면 심곡리 1138-2,35.89403841,129.0620697,2010-08-19,162,1,,,,,,,경상북도 경주시 차량등록사업소,054-779-6539,2026-04-02
한국타이어 경주영업소,3,경상북도 경주시 금성로 263,경상북도 경주시 노서동 121-4,35.84110422,129.2068017,2010-11-24,348.8,1,,,,,,,경상북도 경주시 차량등록사업소,054-779-6539,2026-04-02
현대자동차 안강점,3,경상북도 경주시 안강읍 안강중앙로 40-1,경상북도 경주시 안강읍 산대리 1574-8,35.99526591,129.2045179,2010-12-17,789.13,1,,,,,,,경상북도 경주시 차량등록사업소,054-779-6539,2026-04-02
타이어테크 외동점,3,경상북도 경주시 외동읍 산업로 1866,경상북도 경주시 외동읍 모화리 330-8,35.68055544,129.3328906,2011-07-07,854,1,,,,,,,경상북도 경주시 차량등록사업소,054-779-6539,2026-04-02
성지모터스,3,경상북도 경주시 북문로 83,경상북도 경주시 성건동 67-4,35.85032986,129.2116452,2011-07-28,370,1,,,,,,,경상북도 경주시 차량등록사업소,054-779-6539,2026-04-02
양남종합카,3,경상북도 경주시 양남면 동해안로 602,경상북도 경주시 양남면 읍천리 100-3,35.69616538,129.4734401,2011-08-31,510,1,,,,,,,경상북도 경주시 차량등록사업소,054-779-6539,2026-04-02
애니오토,3,경상북도 경주시 초당길 111,경상북도 경주시 동천동 932-8,35.84746983,129.2344246,2011-09-20,469.9,1,,,,,,,경상북도 경주시 차량등록사업소,054-779-6539,2026-04-02
기아자동차 오토큐 외동점,3,경상북도 경주시 외동읍 산업로 2213,경상북도 경주시 외동읍 입실리 1344-74,35.70963759,129.3230796,2012-05-29,813,1,,,,,,,경상북도 경주시 차량등록사업소,054-779-6539,2026-04-02
공임천국 터보카정비,3,경상북도 경주시 현곡면 용담로 496,경상북도 경주시 현곡면 하구리 1004-2,35.88628998,129.1774955,2012-10-19,198,1,,,,,,,경상북도 경주시 차량등록사업소,054-779-6539,2026-04-02
현대카서비스,3,경상북도 경주시 양남면 나아3길 6-4,경상북도 경주시 양남면 나아리 481-2,35.70082154,129.4701244,2012-10-23,562,1,,,,,,,경상북도 경주시 차량등록사업소,054-779-6539,2026-04-02
경동모터샵,3,경상북도 경주시 용황로6길 20,경상북도 경주시 용강동 1433,35.8813058,129.2252446,2012-10-30,287.9,1,,,,,,,경상북도 경주시 차량등록사업소,054-779-6539,2026-04-02
카 포인트,3,경상북도 경주시 현곡면 금장4길 23,경상북도 경주시 현곡면 금장리 659-2,35.86561846,129.2009507,2012-12-06,227,1,,,,,,,경상북도 경주시 차량등록사업소,054-779-6539,2026-04-02
차고집,3,경상북도 경주시 알천남로 68,경상북도 경주시 성건동 620-227,35.8556789,129.2099961,2013-01-18,167.47,1,,,,,,,경상북도 경주시 차량등록사업소,054-779-6539,2026-04-02
(주)황실타이어,3,경상북도 경주시 산업로 4417,경상북도 경주시 용강동 800-18,35.87390845,129.2257117,2013-01-31,330,1,,,,,,,경상북도 경주시 차량등록사업소,054-779-6539,2026-04-02
동득3급자동차부분정비,3,경상북도 경주시 충효녹지길 138,경상북도 경주시 충효동 2935-3,35.84497937,129.1764703,2013-03-29,472.6,1,,,,,,,경상북도 경주시 차량등록사업소,054-779-6539,2026-04-02
골드정비,3,경상북도 경주시 소금강로61번길 45,경상북도 경주시 용강동 1326-2,35.86361255,129.224895,2013-04-30,368,1,,,,,,,경상북도 경주시 차량등록사업소,054-779-6539,2026-04-02
T.B.K휠얼라이먼트,3,경상북도 경주시 외동읍 산업로 2075,경상북도 경주시 외동읍 구어리 131-1,35.69907123,129.3288976,2013-06-18,660,1,,,,,,,경상북도 경주시 차량등록사업소,054-779-6539,2026-04-02
오디오클럽,3,경상북도 경주시 갓뒤길 19,경상북도 경주시 황성동 199-1,35.87125017,129.2180495,2013-10-17,403,1,,,,,,,경상북도 경주시 차량등록사업소,054-779-6539,2026-04-02
천포카센타,3,경상북도 경주시 건천읍 천포방내길 2,경상북도 경주시 건천읍 천포리 670-6,35.84618502,129.097749,2014-01-10,535,1,,,,,,,경상북도 경주시 차량등록사업소,054-779-6539,2026-04-02
개인택시정비센타,3,경상북도 경주시 부엉길 9-5,경상북도 경주시 석장동 1205-7,35.84918945,129.1972592,2014-06-13,438,1,,,,,,,경상북도 경주시 차량등록사업소,054-779-6539,2026-04-02
외동정비카센타,3,경상북도 경주시 외동읍 산업로 2246,경상북도 경주시 외동읍 입실리 1259-3,35.71208655,129.3209123,2014-07-15,200,1,,,,,,,경상북도 경주시 차량등록사업소,054-779-6539,2026-04-02
(주)스마일일급정비,1,경상북도 경주시 천북면 신당대밑길 59,경상북도 경주시 천북면 신당리 828-1,35.88988816,129.2416003,2014-08-01,3491,1,,,,,,,경상북도 경주시 차량등록사업소,054-779-6539,2026-04-02
(주) 경주현대상용서비스,1,경상북도 경주시 태종로 266-3,경상북도 경주시 충효동 1775-6,35.83704305,129.1647591,2014-08-22,5781,1,,,,,,,경상북도 경주시 차량등록사업소,054-779-6539,2026-04-02
티스테이션 안강점,3,경상북도 경주시 안강읍 호국로 2632,경상북도 경주시 안강읍 산대리 1514-6,35.99692369,129.1984336,2015-02-25,662,1,,,,,,,경상북도 경주시 차량등록사업소,054-779-6539,2026-04-02
강동카써비스,3,경상북도 경주시 강동면 강동로 8-16,경상북도 경주시 강동면 유금리 1007-6,35.98823737,129.2756362,2015-05-07,312,1,,,,,,,경상북도 경주시 차량등록사업소,054-779-6539,2026-04-02
태명카정비,3,경상북도 경주시 태종로 436,경상북도 경주시 충효동 397-5,35.84374908,129.1778919,2015-07-16,926,1,,,,,,,경상북도 경주시 차량등록사업소,054-779-6539,2026-04-02
현대정비,3,경상북도 경주시 양정로 35,경상북도 경주시 인왕동 537-1,35.83889601,129.2221149,2015-07-30,637,1,,,,,,,경상북도 경주시 차량등록사업소,054-779-6539,2026-04-02
애니카랜드 성건점,3,경상북도 경주시 금성로 382,경상북도 경주시 성건동 645-21,35.85164718,129.2072079,2015-09-16,200,1,,,,,,,경상북도 경주시 차량등록사업소,054-779-6539,2026-04-02
진원모터스,3,경상북도 경주시 양정로 155-18,경상북도 경주시 성동동 420-14,35.84861292,129.2205474,2015-11-13,403,1,,,,,,,경상북도 경주시 차량등록사업소,054-779-6539,2026-04-02
88카인터리어,3,경상북도 경주시 임해로96번길 1,경상북도 경주시 구황동 857-44,35.84027345,129.2292286,2015-12-08,76,1,,,,,,,경상북도 경주시 차량등록사업소,054-779-6539,2026-04-02
강변카모터스,3,경상북도 경주시 안강읍 안강시장길 54,경상북도 경주시 안강읍 양월리 1322-2,35.9878944,129.2223607,2016-07-22,132,1,,,,,,,경상북도 경주시 차량등록사업소,054-779-6539,2026-04-02
삼영정비공업사,3,경상북도 경주시 강동면 강동산단로 65,경상북도 경주시 강동면 왕신리 산 116,35.95611164,129.3116942,2016-07-26,1322,1,,,,,,,경상북도 경주시 차량등록사업소,054-779-6539,2026-04-02
두성자동차정비공장,1,경상북도 경주시 유림로13번길 156,경상북도 경주시 용강동 732-1,35.87775656,129.2254759,2016-08-17,3770.07,1,,,,,,,경상북도 경주시 차량등록사업소,054-779-6539,2026-04-02
경북특장차,1,경상북도 경주시 안강읍 새안현로 1276,경상북도 경주시 안강읍 하곡리 615-5,35.98014903,129.1413805,2016-11-07,2400,1,,,,,,,경상북도 경주시 차량등록사업소,054-779-6539,2026-04-02
J모터스&타이어,3,경상북도 경주시 알천남로 260,경상북도 경주시 황오동 389-36,35.84502191,129.2264904,2016-11-25,315,1,,,,,,,경상북도 경주시 차량등록사업소,054-779-6539,2026-04-02
유일모터스 정비공장,2,경상북도 경주시 알마을길 45-1,경상북도 경주시 충효동 1758-7,35.83927402,129.1645901,2017-05-16,846,1,,,,,,,경상북도 경주시 차량등록사업소,054-779-6539,2026-04-02
The VIP,3,경상북도 경주시 공단로 34,경상북도 경주시 황성동 1073,35.87467031,129.2174948,2017-06-26,165,1,,,,,,,경상북도 경주시 차량등록사업소,054-779-6539,2026-04-02
올라이드(All RlDE),3,경상북도 경주시 재동길 52,경상북도 경주시 충효동 1454-12,35.84569979,129.1671101,2017-08-16,340,1,,,,,,,경상북도 경주시 차량등록사업소,054-779-6539,2026-04-02
통큰타이어,3,경상북도 경주시 화랑로 26,경상북도 경주시 성건동 369-14,35.84454457,129.2034508,2017-10-24,345.1,1,,,,,,,경상북도 경주시 차량등록사업소,054-779-6539,2026-04-02
(주) 경주현대상용서비스,1,경상북도 경주시 태종로 276-7,경상북도 경주시 충효동 1779,35.83768597,129.1652278,2017-11-01,5408,1,,,,,,,경상북도 경주시 차량등록사업소,054-779-6539,2026-04-02
제이제이모터스종합정비,2,경상북도 경주시 유림로13번길 113,경상북도 경주시 황성동 1068-3,35.87886438,129.2214377,2017-12-01,696,1,,,,,,,경상북도 경주시 차량등록사업소,054-779-6539,2026-04-02
보성엔진,4,경상북도 경주시 외동읍 모화산단길 5,경상북도 경주시 외동읍 모화리 1816,35.68054523,129.3249591,2017-12-28,486.05,1,,,,,,,경상북도 경주시 차량등록사업소,054-779-6539,2026-04-02
코스탑1급자동차종합정비,1,경상북도 경주시 외동읍 문구로 116,경상북도 경주시 외동읍 문산리 214,35.68806689,129.3159872,2018-01-09,2981,1,,,,,,,경상북도 경주시 차량등록사업소,054-779-6539,2026-04-02
중앙자동차정비,3,경상북도 경주시 강변로 190,경상북도 경주시 노서동 157-8,35.84055619,129.2020741,2018-05-14,102,1,,,,,,,경상북도 경주시 차량등록사업소,054-779-6539,2026-04-02
스마트오일충효점,3,경상북도 경주시 충효구획2길 32,경상북도 경주시 충효동 1474,35.84698071,129.1684088,2018-05-14,478.1,1,,,,,,,경상북도 경주시 차량등록사업소,054-779-6539,2026-04-02
달성정비,3,경상북도 경주시 안강읍 안현로 2003,경상북도 경주시 안강읍 노당리 457,36.03387184,129.2291707,2018-08-14,300,1,,,,,,,경상북도 경주시 차량등록사업소,054-779-6539,2026-04-02
효문밧데리부분정비,3,경상북도 경주시 외동읍 산업로 2116,경상북도 경주시 외동읍 구어리 209-12,35.70256484,129.3286926,2019-01-03,1194,1,,,,,,,경상북도 경주시 차량등록사업소,054-779-6539,2026-04-02
일등타이어 경주점,3,경상북도 경주시 금성로 348,경상북도 경주시 서부동 2-36,35.84876457,129.2071243,2019-01-09,223,1,,,,,,,경상북도 경주시 차량등록사업소,054-779-6539,2026-04-02
엔디알(NDR) 자동차정비,3,경상북도 경주시 양정로324번길 9,경상북도 경주시 용강동 1331-5,35.86198189,129.2246347,2019-01-16,288.9,1,,,,,,,경상북도 경주시 차량등록사업소,054-779-6539,2026-04-02
대성자동차정비,3,경상북도 경주시 양남면 하서중앙길 55,경상북도 경주시 양남면 하서리 641-2,35.67597317,129.4627843,2019-02-26,417,1,,,,,,,경상북도 경주시 차량등록사업소,054-779-6539,2026-04-02
경주타이어,3,경상북도 경주시 토용길 39,경상북도 경주시 용강동 1310-18,35.86598509,129.2235224,2019-04-11,624.1,1,,,,,,,경상북도 경주시 차량등록사업소,054-779-6539,2026-04-02
서라벌 타이어·정비,3,경상북도 경주시 용황로14길 6,경상북도 경주시 용강동 1595,35.88177275,129.2295701,2019-06-11,546,1,,,,,,,경상북도 경주시 차량등록사업소,054-779-6539,2026-04-02
(주)대양씨엔에스,3,경상북도 경주시 천북면 천북로 79,경상북도 경주시 천북면 신당리 1399-415,35.89116098,129.2451381,2019-07-25,692,1,,,,,,,경상북도 경주시 차량등록사업소,054-779-6539,2026-04-02
대양카프라자,3,경상북도 경주시 현진앞3길 55,경상북도 경주시 황성동 1187,35.88240512,129.2190835,2019-08-23,961.7,1,,,,,,,경상북도 경주시 차량등록사업소,054-779-6539,2026-04-02
차조은서비스,3,경상북도 경주시 안강읍 구부랑길 33,경상북도 경주시 안강읍 산대리 2416-1,36.00053043,129.1962838,2019-10-22,434.7,1,,,,,,,경상북도 경주시 차량등록사업소,054-779-6539,2026-04-02
동천현대모터스,3,경상북도 경주시 백률로57번길 6-7,경상북도 경주시 동천동 772-4,35.85731345,129.2263835,2020-08-20,981.2,1,,,,,,,경상북도 경주시 차량등록사업소,054-779-6539,2026-04-02
카플라자,3,경상북도 경주시 용황로11길 6-14,경상북도 경주시 용강동 1671,35.88304691,129.2304669,2020-09-03,211.11,1,,,,,,,경상북도 경주시 차량등록사업소,054-779-6539,2026-04-02
MB모터스,3,경상북도 경주시 유림로5번길 153,경상북도 경주시 용강동 1447,35.88097079,129.2252736,2020-11-09,369.4,1,,,,,,,경상북도 경주시 차량등록사업소,054-779-6539,2026-04-02
오케이 카센터,3,경상북도 경주시 백률로 77,경상북도 경주시 동천동 776-4,35.85686182,129.2278963,2020-11-16,448.2,1,,,,,,,경상북도 경주시 차량등록사업소,054-779-6539,2026-04-02
국가대표1등타이어 경주점,3,경상북도 경주시 원화로 515,경상북도 경주시 용강동 962,35.86636566,129.2225456,2020-12-14,1000,1,,,,,,,경상북도 경주시 차량등록사업소,054-779-6539,2026-04-02
DY동양,3,경상북도 경주시 천북면 천북산단로 29,경상북도 경주시 천북면 화산리 1180,35.93264345,129.2720552,2021-02-22,1619,1,,,,,,,경상북도 경주시 차량등록사업소,054-779-6539,2026-04-02
넥센타이어 불국점(현대카),3,경상북도 경주시 산업로 2988,경상북도 경주시 시래동 308-2,35.7738174,129.3021989,2021-03-25,724,1,,,,,,,경상북도 경주시 차량등록사업소,054-779-6539,2026-04-02
덕우 자동차 전문정비,3,경상북도 경주시 충효구획길 6,경상북도 경주시 충효동 1479,35.84639519,129.170475,2021-12-22,473.9,1,,,,,,,경상북도 경주시 차량등록사업소,054-779-6539,2026-04-02
TDC garage,3,경상북도 경주시 대경로 4443-2,경상북도 경주시 광명동 132-1,35.81920289,129.1516152,2021-12-23,279,1,,,,,,,경상북도 경주시 차량등록사업소,054-779-6539,2026-04-02
우방금호카서비스,3,경상북도 경주시 안강읍 구부랑4길 3,경상북도 경주시 안강읍 산대리 2400,36.00167326,129.1963103,2022-03-02,953.4,1,,,,,,,경상북도 경주시 차량등록사업소,054-779-6539,2026-04-02
냉천자동차정비공업사,2,경상북도 경주시 외동읍 냉천공단길 97-26,경상북도 경주시 외동읍 냉천리 342-30,35.70588352,129.2969233,2022-04-04,1289,1,,,,,,,경상북도 경주시 차량등록사업소,054-779-6539,2026-04-02
카스피탈,3,경상북도 경주시 산업로 2989,경상북도 경주시 시래동 341-3,35.77366419,129.3013169,2022-08-12,262,1,,,,,,,경상북도 경주시 차량등록사업소,054-779-6539,2026-04-02
삼진택시(주),3,경상북도 경주시 공단로 84,경상북도 경주시 황성동 57-1,35.87283137,129.2222468,2022-08-12,915,1,,,,,,,경상북도 경주시 차량등록사업소,054-779-6539,2026-04-02
박카스정비센터,3,경상북도 경주시 건천읍 내서로 1147,경상북도 경주시 건천읍 조전리 7-11,35.84715306,129.1056269,2022-10-05,147,1,,,,,,,경상북도 경주시 차량등록사업소,054-779-6539,2026-04-02
태양자동차정비,3,경상북도 경주시 외동읍 산업로 2016,경상북도 경주시 외동읍 구어리 60-6,35.69390803,129.3323894,2022-10-20,900,1,,,,,,,경상북도 경주시 차량등록사업소,054-779-6539,2026-04-02
현대기공정비,3,경상북도 경주시 외동읍 산업로 2021,경상북도 경주시 외동읍 구어리 76,35.69431022,129.3312939,2022-11-02,380,1,,,,,,,경상북도 경주시 차량등록사업소,054-779-6539,2026-04-02
일봉대형정비,3,경상북도 경주시 안강읍 호국로 2387,경상북도 경주시 안강읍 옥산리 1164,35.99256627,129.1727753,2022-12-09,800,1,,,,,,,경상북도 경주시 차량등록사업소,054-779-6539,2026-04-02
동남카센타,3,경상북도 경주시 산업로 2896,경상북도 경주시 시래동 260-2,35.76814748,129.3093849,2022-12-19,474,1,,,,,,,경상북도 경주시 차량등록사업소,054-779-6539,2026-04-02
용강정비,3,경상북도 경주시 유림로13번길 165,경상북도 경주시 용강동 760-3,35.87736584,129.2270969,2022-12-26,798,1,,,,,,,경상북도 경주시 차량등록사업소,054-779-6539,2026-04-02
그린1급종합검사정비,1,경상북도 경주시 외동읍 문구로 32,경상북도 경주시 외동읍 석계리 15-3,35.6820472,129.3123651,2022-12-28,4498,1,,,,,,,경상북도 경주시 차량등록사업소,054-779-6539,2026-04-02
용황모터스,3,경상북도 경주시 현진앞3길 34,경상북도 경주시 황성동 1207,35.88302402,129.2212822,2023-01-17,319.2,1,,,,,,,경상북도 경주시 차량등록사업소,054-779-6539,2026-04-02
현대블루오토,3,경상북도 경주시 구매3길 1-8,경상북도 경주시 시래동 1027,35.77197649,129.3045078,2023-03-16,1269.7,1,,,,,,,경상북도 경주시 차량등록사업소,054-779-6539,2026-04-02
그린자동차재활산업,3,경상북도 경주시 외동읍 구어들밑길 28,경상북도 경주시 외동읍 구어리 648-10,35.6938568,129.312826,2023-04-07,6037,1,,,,,,,경상북도 경주시 차량등록사업소,054-779-6539,2026-04-02
HT모터스,3,경상북도 경주시 외동읍 산업로 2135,경상북도 경주시 외동읍 구어리 217-3,35.70376736,129.3272586,2023-07-04,4010,1,,,,,,,경상북도 경주시 차량등록사업소,054-779-6539,2026-04-02
오토렉스 자동차전문정비소,3,경상북도 경주시 외동읍 문산공단안길 26-4,경상북도 경주시 외동읍 문산리 790-1,35.66908907,129.3257808,2024-02-13,255.5,1,,,,,,,경상북도 경주시 차량등록사업소,054-779-6539,2026-04-02
신일모터스,1,경상북도 경주시 용황로11길 26-11,경상북도 경주시 용강동 1686-1,35.8839059,129.230450,2024-03-04,248.3,1,,,,,,,경상북도 경주시 차량등록사업소,054-779-6539,2026-04-02
외동정비사업소,1,경상북도 경주시 외동읍 내외로 362,경상북도 경주시 외동읍 냉천리 1197,35.70982326,129.2928609,2024-05-09,1367,1,,,,,,,경상북도 경주시 차량등록사업소,054-779-6539,2026-04-02
김반장현대모터스,3,경상북도 경주시 태종로 464,경상북도 경주시 충효동 467-2,35.84286145,129.180574,2024-09-13,113.57,1,,,,,,,경상북도 경주시 차량등록사업소,054-779-6539,2026-04-02
JH모터스,3,경상북도 경주시 안강읍 화전길 90,경상북도 경주시 안강읍 산대리 2043-6,35.99199804,129.2091214,2024-10-11,397,1,,,,,,,경상북도 경주시 차량등록사업소,054-779-6539,2026-04-02
하나로카서비스,3,경상북도 경주시 양남면 하서중앙길 66,경상북도 경주시 양남면 하서리 611,35.67686089,129.4624343,2025-07-15,473.9,1,,,,,,,경상북도 경주시 차량등록사업소,054-779-6539,2026-04-02
㈜대한자동차종합정비,2,경상북도 경주시 외동읍 구어2산단로 155,경상북도 경주시 외동읍 구어리 1411-9,35.6974067736,129.3022442023,2026-02-12,1045,1,,,,,,,경상북도 경주시 차량등록사업소,054-779-6539,2026-04-02
넘버원모터스,3,경상북도 경주시 원화로386-3,경상북도 경주시 동천동 733-641,35.8550024361,129.2190581781,2026-03-27,258,1,,,,,,,경상북도 경주시 차량등록사업소,054-779-6539,2026-04-02
