자동차정비업체명,자동차정비업체종류,소재지도로명주소,소재지지번주소,위도,경도,사업등록일자,면적,영업상태,폐업일자,휴업시작일자,휴업종료일자,운영시작시각,운영종료시각,전화번호,관리기관명,관리기관전화번호,데이터기준일자
삼정건설기계,1,경상북도 경산시 진량읍 공단로 437-1,,35.86992152,128.8181557,2014-09-11,1711.2,1,,,,09:00,18:00,053-857-3710,경상북도 경산시청 차량등록사업소,053-810-5250,2026-05-21
건아종합정비공장,1,경상북도 경산시 화랑로 178(갑제동),,35.83048927,128.7644476,2015-01-19,340.8,1,,,,09:00,18:00,053-817-2990,경상북도 경산시청 차량등록사업소,053-810-5250,2026-05-21
정인모터스,1,경상북도 경산시 압량읍 가일길 24,,35.83652461,128.7753498,2015-06-01,604.46,1,,,,09:00,18:00,053-811-8393,경상북도 경산시청 차량등록사업소,053-810-5250,2026-05-21
하양특장종합정비,1,경상북도 경산시 하양읍 하양로 315,,35.92057725,128.8391916,2017-05-16,798.63,1,,,,09:00,18:00,053-852-2111,경상북도 경산시청 차량등록사업소,053-810-5250,2026-05-21
삼성정비,1,경상북도 경산시 남천면 삼성역길 36-36,,35.76414078,128.7228326,2018-03-26,555.16,1,,,,09:00,18:00,053-812-7370,경상북도 경산시청 차량등록사업소,053-810-5250,2026-05-21
대양1급종합정비공장,1,경상북도 경산시 진량읍 공단7로 3,,35.85856966,128.8270119,2018-08-10,523.3,1,,,,09:00,18:00,053-853-9360,경상북도 경산시청 차량등록사업소,053-810-5250,2026-05-21
(주)크레인특장 경산와촌지점,1,경상북도 경산시 하양읍 지식산업4로 100,,35.93174524,128.8197358,2019-09-04,1642.4,1,,,,09:00,18:00,053-852-8811,경상북도 경산시청 차량등록사업소,053-810-5250,2026-05-21
한길종합정비,1,경상북도 경산시 하양읍 대경로 774,,35.9135609,128.8250004,2022-01-13,482.2,1,,,,09:00,18:00,053-853-8700,경상북도 경산시청 차량등록사업소,053-810-5250,2026-05-21
신갑을종합정비,1,경상북도 경산시 진량읍 공단10로 332,,35.88523233,128.836497974,2022-06-24,2944.63,1,,,,09:00,18:00,000-000-0000,경상북도 경산시청 차량등록사업소,053-810-5250,2026-05-21
광림특장,1,경상북도 경산시 진량읍 공단12로 213,,35.87366881,128.8423388,2023-06-08,418,1,,,,09:00,18:00,053-637-1998,경상북도 경산시청 차량등록사업소,053-810-5250,2026-05-21
주식회사 우성정비센터,1,경상북도 경산시 한의대로 114,,35.80696788,128.7770505,2023-11-16,435.63,1,,,,09:00,18:00,053-202-2000,경상북도 경산시청 차량등록사업소,053-810-5250,2026-05-21
새한자동차정비공장,2,경상북도 경산시 경안로 249(중방동),,35.82960708,128.7355719,2000-01-06,193,1,,,,09:00,18:00,053-816-7070,경상북도 경산시청 차량등록사업소,053-810-5250,2026-05-21
경산대흥자동차정비,2,경상북도 경산시 경산로 289(중산동),,35.83347849,128.7224226,2001-10-11,396,1,,,,09:00,18:00,053-812-3434,경상북도 경산시청 차량등록사업소,053-810-5250,2026-05-21
대원모터스,2,경상북도 경산시 원효로 280(평산동),,35.8155858,128.7661498,2003-01-15,344,1,,,,09:00,18:00,053-817-5200,경상북도 경산시청 차량등록사업소,053-810-5250,2026-05-21
경인자동차정비공장,2,경상북도 경산시 원효로 166(사동),,35.82023625,128.7545966,2003-05-19,473,1,,,,09:00,18:00,053-802-9004,경상북도 경산시청 차량등록사업소,053-810-5250,2026-05-21
진양특장자동차정비공장,1,경상북도 경산시 진량읍 일연로115길 26,,35.85892715,128.8029307,1994-05-17,1405,1,,,,09:00,18:00,053-851-8170,경상북도 경산시청 차량등록사업소,053-810-5250,2026-05-21
하양현대서비스,1,경상북도 경산시 진량읍 공단10로 349,,35.88618408,128.834673,1994-07-20,1827.5,1,,,,09:00,18:00,053-851-9009,경상북도 경산시청 차량등록사업소,053-810-5250,2026-05-21
영남종합정비공장,1,경상북도 경산시 압량읍 대학로 516,,35.85289354,128.7678774,1997-04-17,883,1,,,,09:00,18:00,053-817-4815,경상북도 경산시청 차량등록사업소,053-810-5250,2026-05-21
㈜황금,1,경상북도 경산시 자인면 설총로 832,,35.81039264,128.8279827,1997-11-27,686.5,1,,,,09:00,18:00,053-856-7766,경상북도 경산시청 차량등록사업소,053-810-5250,2026-05-21
동부자동차정비,1,경상북도 경산시 남매로 59(삼남동),,35.816276,128.7417166,2005-03-29,952,1,,,,09:00,18:00,053-816-0700,경상북도 경산시청 차량등록사업소,053-810-5250,2026-05-21
갑을종합정비,1,경상북도 경산시 진량읍 동자1길 25,,35.87108684,128.8012025,2005-08-18,559,1,,,,09:00,18:00,053-853-7562,경상북도 경산시청 차량등록사업소,053-810-5250,2026-05-21
㈜두레종합정비공장,1,경상북도 경산시 감못둑길 72(갑제동),,35.83420127,128.7723083,2005-08-22,1320,1,,,,09:00,18:00,053-817-9442,경상북도 경산시청 차량등록사업소,053-810-5250,2026-05-21
금강자동차종합정비,1,경상북도 경산시 대학로 23-1(중산동),,35.83513376,128.7246728,2006-07-07,482,1,,,,09:00,18:00,053-814-0093,경상북도 경산시청 차량등록사업소,053-810-5250,2026-05-21
르노코리아경산사업소,1,경상북도 경산시 압량읍 대학로 405,,35.84383232,128.7625851,2007-09-13,1354,1,,,,09:00,18:00,053-817-3000,경상북도 경산시청 차량등록사업소,053-810-5250,2026-05-21
경산버스㈜,1,경상북도 경산시 압량읍 원효로 606,,35.81262884,128.8010256,2007-10-19,180,1,,,,09:00,18:00,053-801-8347,경상북도 경산시청 차량등록사업소,053-810-5250,2026-05-21
대평정비㈜,1,경상북도 경산시 경안로87길 25-4(대평동),,35.84395629,128.7297348,2007-11-22,100,1,,,,09:00,18:00,053-812-2813,경상북도 경산시청 차량등록사업소,053-810-5250,2026-05-21
경산자동차정비,1,경상북도 경산시 압량읍 대학로 357,,35.8414288,128.7594039,2009-05-01,1088,1,,,,09:00,18:00,053-817-7500,경상북도 경산시청 차량등록사업소,053-810-5250,2026-05-21
해동종합정비공장,1,경상북도 경산시 하양읍 대경로 826,,35.91623796,128.829264,2010-01-19,843,1,,,,09:00,18:00,053-851-0090,경상북도 경산시청 차량등록사업소,053-810-5250,2026-05-21
금호종합정비공장,1,"경상북도 경산시 와촌면 하양로 481, 1207동",,35.92692891,128.8557936,2010-04-28,686.4,1,,,,09:00,18:00,053-856-8300,경상북도 경산시청 차량등록사업소,053-810-5250,2026-05-21
애드준,1,경상북도 경산시 진량읍 일연로 590,,35.86119914,128.8057372,2012-06-28,1173,1,,,,09:00,18:00,053-854-0891,경상북도 경산시청 차량등록사업소,053-810-5250,2026-05-21
경산서비스기아오토큐 주식회사,1,경상북도 경산시 압량읍 대학로 511,,35.85308017,128.7658617,2013-05-31,1923.43,1,,,,09:00,18:00,053-811-1000,경상북도 경산시청 차량등록사업소,053-810-5250,2026-05-21
성암자동차정비,2,경상북도 경산시 경산로 231(중산동),,35.82856033,128.723879,2003-05-23,393,1,,,,09:00,18:00,053-814-9600,경상북도 경산시청 차량등록사업소,053-810-5250,2026-05-21
대림자동차정비,2,경상북도 경산시 남매로 241(중방동),,35.83243203,128.7406052,2004-03-23,575,1,,,,09:00,18:00,053-815-9001,경상북도 경산시청 차량등록사업소,053-810-5250,2026-05-21
진성모터스,2,"경상북도 경산시 경산로 273, 103동(중산동)",,35.83229547,128.7226879,2006-06-14,128,1,,,,09:00,18:00,053-815-2331,경상북도 경산시청 차량등록사업소,053-810-5250,2026-05-21
대경정비,2,경상북도 경산시 남천면 하도로 73,,35.73265546,128.7349927,2006-07-25,593,1,,,,09:00,18:00,053-813-3761,경상북도 경산시청 차량등록사업소,053-810-5250,2026-05-21
현대자동차경산서비스,2,경상북도 경산시 진량읍 의송길 6,,35.86357677,128.8038389,2006-10-17,659,1,,,,09:00,18:00,053-852-3800,경상북도 경산시청 차량등록사업소,053-810-5250,2026-05-21
제일자동차정비,2,"경상북도 경산시 진량읍 일연로 469, 102동",,35.85095838,128.8042895,2007-04-24,383.73,1,,,,09:00,18:00,053-852-5666,경상북도 경산시청 차량등록사업소,053-810-5250,2026-05-21
카비젼맵시,2,경상북도 경산시 진량읍 일연로 696,,35.87041835,128.8043447,2014-08-20,327.58,1,,,,09:00,18:00,053-856-9961,경상북도 경산시청 차량등록사업소,053-810-5250,2026-05-21
미래모터스 주식회사,2,경상북도 경산시 하양읍 대경로 916,,35.92087873,128.8374166,2022-08-08,427.3,1,,,,09:00,18:00,000-000-0000,경상북도 경산시청 차량등록사업소,053-810-5250,2026-05-21
행운모터스,2,경상북도 경산시 와촌면 상암길37길 30-14,,35.94383007,128.8550795,2024-11-20,1743,1,,,,09:00,18:00,053-856-2280,경상북도 경산시청 차량등록사업소,053-810-5250,2026-05-21
한모터스자동차경정비,3,경상북도 경산시 압량읍 부적길 96,,35.8476802,128.7633095,1997-06-30,216,1,,,,09:00,18:00,053-802-1195,경상북도 경산시청 차량등록사업소,053-810-5250,2026-05-21
달구벌카서비스,3,경상북도 경산시 진량읍 공단로 295,,35.85782179,128.8199449,1997-08-19,65,1,,,,09:00,18:00,053-817-0101,경상북도 경산시청 차량등록사업소,053-810-5250,2026-05-21
정평점 현대자동차,3,경상북도 경산시 성동로 12(정평동),,35.83580155,128.7257732,1997-10-14,678,1,,,,09:00,18:00,053-814-9966,경상북도 경산시청 차량등록사업소,053-810-5250,2026-05-21
신라카써비스,3,경상북도 경산시 서상길 8(삼남동),,35.8136405,128.7381166,1997-10-27,600,1,,,,09:00,18:00,053-812-9500,경상북도 경산시청 차량등록사업소,053-810-5250,2026-05-21
안전카써비스,3,경상북도 경산시 중앙로 65(중방동),,35.82294587,128.7340288,1998-03-27,264,1,,,,09:00,18:00,053-813-2172,경상북도 경산시청 차량등록사업소,053-810-5250,2026-05-21
무학카센타,3,경상북도 경산시 하양읍 동서3길 1,,35.91946621,128.8210649,1998-03-31,165,1,,,,09:00,18:00,053-853-0906,경상북도 경산시청 차량등록사업소,053-810-5250,2026-05-21
레드카모터스,3,경상북도 경산시 장산로 278(사동),,35.81657862,128.7542295,1998-04-17,832,1,,,,09:00,18:00,053-815-2109,경상북도 경산시청 차량등록사업소,053-810-5250,2026-05-21
영주카서비스,3,경상북도 경산시 성암로12길 7(옥산동),,35.82277497,128.7238543,1998-05-28,186,1,,,,09:00,18:00,053-816-5678,경상북도 경산시청 차량등록사업소,053-810-5250,2026-05-21
자인교종합카랜드,3,경상북도 경산시 압량읍 원효로 600,,35.81246733,128.8004564,1998-05-28,379,1,,,,09:00,18:00,053-817-4384,경상북도 경산시청 차량등록사업소,053-810-5250,2026-05-21
금박산카써비스,3,경상북도 경산시 진량읍 공단로 567,,35.88209962,128.8182407,1998-05-28,215,1,,,,09:00,18:00,053-851-0339,경상북도 경산시청 차량등록사업소,053-810-5250,2026-05-21
경북카센타,3,경상북도 경산시 진량읍 공단4로 153,,35.87085456,128.8281616,1998-07-29,224,1,,,,09:00,18:00,053-856-7949,경상북도 경산시청 차량등록사업소,053-810-5250,2026-05-21
시천카센타,3,경상북도 경산시 와촌면 하양로 409,,35.92448034,128.8484956,1998-08-31,145,1,,,,09:00,18:00,053-852-0093,경상북도 경산시청 차량등록사업소,053-810-5250,2026-05-21
애니카랜드 경산점,3,경상북도 경산시 강변서로 233(정평동),,35.82851464,128.7304989,1998-08-31,396,1,,,,09:00,18:00,053-812-1832,경상북도 경산시청 차량등록사업소,053-810-5250,2026-05-21
대영카써비스,3,경상북도 경산시 성암로12길 38(옥산동),,35.82040773,128.7246248,1998-09-09,198,1,,,,09:00,18:00,053-813-3789,경상북도 경산시청 차량등록사업소,053-810-5250,2026-05-21
금성카써비스,3,경상북도 경산시 원효로40길 34(사동),,35.81658794,128.7556334,1998-10-31,350,1,,,,09:00,18:00,053-802-1792,경상북도 경산시청 차량등록사업소,053-810-5250,2026-05-21
성암부분정비,3,경상북도 경산시 성암로 17(옥산동),,35.82227564,128.7196099,1998-11-18,266,1,,,,09:00,18:00,053-811-2793,경상북도 경산시청 차량등록사업소,053-810-5250,2026-05-21
경림카센타,3,경상북도 경산시 진량읍 대학로 1385,,35.90238326,128.8236949,1998-11-18,825,1,,,,09:00,18:00,053-853-2977,경상북도 경산시청 차량등록사업소,053-810-5250,2026-05-21
삼주종합정비센터,3,경상북도 경산시 진량읍 공단4로 141,,35.86989251,128.8280451,1998-11-30,330,1,,,,09:00,18:00,053-852-6968,경상북도 경산시청 차량등록사업소,053-810-5250,2026-05-21
공단카센터,3,경상북도 경산시 진량읍 공단6로 134-5,,35.87109355,128.8257019,1998-11-30,280,1,,,,09:00,18:00,053-854-8383,경상북도 경산시청 차량등록사업소,053-810-5250,2026-05-21
재본카포스,3,경상북도 경산시 장산로 139(삼북동),,35.81870721,128.7402265,1998-12-24,318,1,,,,09:00,18:00,053-815-8853,경상북도 경산시청 차량등록사업소,053-810-5250,2026-05-21
대일카써비스,3,경상북도 경산시 진량읍 봉회길 69,,35.8843534,128.8155479,1999-01-18,313,1,,,,09:00,18:00,053-853-5642,경상북도 경산시청 차량등록사업소,053-810-5250,2026-05-21
동아카써비스,3,경상북도 경산시 장산로24길 2(삼북동),,35.81793011,128.7374151,1999-01-18,132,1,,,,09:00,18:00,053-816-3290,경상북도 경산시청 차량등록사업소,053-810-5250,2026-05-21
경동카써비스,3,경상북도 경산시 압량읍 대학로 355,,35.8408447,128.7592251,1999-03-08,165,1,,,,09:00,18:00,053-817-1255,경상북도 경산시청 차량등록사업소,053-810-5250,2026-05-21
영카랜드,3,경상북도 경산시 진량읍 공단로 429,,35.86982271,128.8185398,1999-04-13,429,1,,,,09:00,18:00,053-856-7558,경상북도 경산시청 차량등록사업소,053-810-5250,2026-05-21
동부카써비스,3,경상북도 경산시 원효로 200(사동),,35.81856575,128.7580423,1999-04-24,432,1,,,,09:00,18:00,053-817-7752,경상북도 경산시청 차량등록사업소,053-810-5250,2026-05-21
경산 I.C카센타,3,경상북도 경산시 압량읍 대학로 760,,35.87203145,128.7803552,1999-05-10,220,1,,,,09:00,18:00,053-818-3330,경상북도 경산시청 차량등록사업소,053-810-5250,2026-05-21
성심카서비스,3,경상북도 경산시 원효로 186(사동),,35.8191516,128.7566973,1999-07-31,535,1,,,,09:00,18:00,053-818-8484,경상북도 경산시청 차량등록사업소,053-810-5250,2026-05-21
중방점 기아오토큐,3,경상북도 경산시 중방로 58(중방동),,35.82978426,128.7405295,1999-08-07,646,1,,,,09:00,18:00,053-812-8572,경상북도 경산시청 차량등록사업소,053-810-5250,2026-05-21
팔공경정비,3,경상북도 경산시 와촌면 금송로 486,,35.95248322,128.8355143,1999-09-20,365,1,,,,09:00,18:00,053-853-8883,경상북도 경산시청 차량등록사업소,053-810-5250,2026-05-21
경산카랜드,3,경상북도 경산시 장산로 132(삼북동),,35.81827247,128.7393884,1999-10-12,429,1,,,,09:00,18:00,053-816-3697,경상북도 경산시청 차량등록사업소,053-810-5250,2026-05-21
중앙점 기아오토큐,3,경상북도 경산시 경안로 168(중방동),,35.82253593,128.7379846,1999-12-10,804,1,,,,09:00,18:00,053-811-8572,경상북도 경산시청 차량등록사업소,053-810-5250,2026-05-21
한국지엠 하양바로서비스,3,경상북도 경산시 하양읍 대경로 672,,35.90825848,128.815162,1999-12-10,495,1,,,,09:00,18:00,053-857-8572,경상북도 경산시청 차량등록사업소,053-810-5250,2026-05-21
최희철카클리닉,3,경상북도 경산시 원효로40길 46(사동),,35.81558648,128.7549698,2000-01-24,464,1,,,,09:00,18:00,053-811-1575,경상북도 경산시청 차량등록사업소,053-810-5250,2026-05-21
영남카써비스,3,경상북도 경산시 압량읍 대학로 483,,35.85064924,128.7653205,2000-02-10,395,1,,,,09:00,18:00,053-818-5556,경상북도 경산시청 차량등록사업소,053-810-5250,2026-05-21
장원종합카써비스,3,경상북도 경산시 하양읍 금송로 157,,35.92542545,128.8245318,2000-03-28,143,1,,,,09:00,18:00,053-853-5644,경상북도 경산시청 차량등록사업소,053-810-5250,2026-05-21
연호카부분정비,3,경상북도 경산시 하양읍 대경로159길 8,,35.91548912,128.8254127,2000-04-21,381,1,,,,09:00,18:00,053-851-9592,경상북도 경산시청 차량등록사업소,053-810-5250,2026-05-21
현대자동차 진량점,3,경상북도 경산시 진량읍 낙산길 4,,35.87521806,128.8119613,2000-05-12,551,1,,,,09:00,18:00,053-854-4500,경상북도 경산시청 차량등록사업소,053-810-5250,2026-05-21
형제3급부분정비,3,경상북도 경산시 자인면 일연로 118,,35.82236991,128.8196826,2000-06-12,264,1,,,,09:00,18:00,053-856-1383,경상북도 경산시청 차량등록사업소,053-810-5250,2026-05-21
케이지 모빌리티 진량서비스프라자,3,경상북도 경산시 진량읍 대학로 1334,,35.89770788,128.8238551,2000-11-06,990,1,,,,09:00,18:00,053-854-8600,경상북도 경산시청 차량등록사업소,053-810-5250,2026-05-21
상명자동차정비,3,경상북도 경산시 대학로16길 35(정평동),,35.83083942,128.7307712,2001-02-15,214,1,,,,09:00,18:00,053-813-0951,경상북도 경산시청 차량등록사업소,053-810-5250,2026-05-21
대구카센타,3,경상북도 경산시 남천면 남천로 503,,35.76924653,128.7248011,2001-04-27,343,1,,,,09:00,18:00,053-811-6543,경상북도 경산시청 차량등록사업소,053-810-5250,2026-05-21
대동카센타,3,경상북도 경산시 용성면 원효로 1356,,35.79593994,128.8707273,2001-04-27,251,1,,,,09:00,18:00,053-853-6960,경상북도 경산시청 차량등록사업소,053-810-5250,2026-05-21
코끼리카프라자,3,경상북도 경산시 진량읍 다문로 61,,35.87531857,128.8176653,2001-07-04,165,1,,,,09:00,18:00,053-857-2155,경상북도 경산시청 차량등록사업소,053-810-5250,2026-05-21
"경산라지에다, 카에어컨",3,경상북도 경산시 화랑로 156(갑제동),,35.82857625,128.7649277,2001-08-18,660,1,,,,09:00,18:00,053-814-4868,경상북도 경산시청 차량등록사업소,053-810-5250,2026-05-21
하양카토피아,3,경상북도 경산시 하양읍 대경로 817,,35.91625861,128.8278141,2001-11-21,950,1,,,,09:00,18:00,053-854-0364,경상북도 경산시청 차량등록사업소,053-810-5250,2026-05-21
영대모터스,3,경상북도 경산시 대학로 280(대동),,35.83049163,128.7521801,2002-05-13,321,1,,,,09:00,18:00,053-813-3337,경상북도 경산시청 차량등록사업소,053-810-5250,2026-05-21
무림카클리닉,3,경상북도 경산시 하양읍 대경로 107-1,,35.88028284,128.7658818,2002-07-23,237,1,,,,09:00,18:00,053-853-9393,경상북도 경산시청 차량등록사업소,053-810-5250,2026-05-21
보성카써비스,3,경상북도 경산시 한의대로 104(점촌동),,35.80630485,128.7769405,2002-08-06,448,1,,,,09:00,18:00,053-813-0586,경상북도 경산시청 차량등록사업소,053-810-5250,2026-05-21
OK자동차정비,3,경상북도 경산시 진량읍 공단9로 1,,35.85734329,128.834659,2002-09-14,893,1,,,,09:00,18:00,053-856-1208,경상북도 경산시청 차량등록사업소,053-810-5250,2026-05-21
승리종합카서비스,3,경상북도 경산시 백양로33길 47-1(사동),,35.81540459,128.7611389,2002-11-19,204,1,,,,09:00,18:00,053-817-1333,경상북도 경산시청 차량등록사업소,053-810-5250,2026-05-21
중앙카써비스,3,경상북도 경산시 대학로16길 53(정평동),,35.8292355,128.7308083,2003-03-03,178,1,,,,09:00,18:00,053-816-1255,경상북도 경산시청 차량등록사업소,053-810-5250,2026-05-21
오너라인자동차정비,3,경상북도 경산시 진량읍 대학로 1406,,35.90396584,128.8247226,2003-03-07,105,1,,,,09:00,18:00,053-857-6997,경상북도 경산시청 차량등록사업소,053-810-5250,2026-05-21
진석오토서비스,3,경상북도 경산시 원효로 126(계양동),,35.82229478,128.751082,2003-03-18,392,1,,,,09:00,18:00,053-812-7175,경상북도 경산시청 차량등록사업소,053-810-5250,2026-05-21
스피드메이트 경산점,3,"경상북도 경산시 진량읍 대학로 1021, 205동",,35.87619643,128.8083362,2003-04-14,258,1,,,,09:00,18:00,053-857-0178,경상북도 경산시청 차량등록사업소,053-810-5250,2026-05-21
용성카센타,3,경상북도 경산시 용성면 원효로 1367,,35.79602813,128.8720894,2003-04-15,339,1,,,,09:00,18:00,053-851-0550,경상북도 경산시청 차량등록사업소,053-810-5250,2026-05-21
태성카센타,3,경상북도 경산시 계양로16길 59(사동),,35.81981475,128.7547724,2003-04-15,594,1,,,,09:00,18:00,053-812-5161,경상북도 경산시청 차량등록사업소,053-810-5250,2026-05-21
박준카클리닉,3,경상북도 경산시 장산로 102(서상동),,35.81763082,128.7362701,2003-08-09,600,1,,,,09:00,18:00,053-813-5330,경상북도 경산시청 차량등록사업소,053-810-5250,2026-05-21
영진카클리닉,3,경상북도 경산시 하양읍 대경로 774,,35.9135609,128.8250004,2003-08-23,231,1,,,,09:00,18:00,053-854-2992,경상북도 경산시청 차량등록사업소,053-810-5250,2026-05-21
썬카서비스,3,경상북도 경산시 장산로 107(삼북동),,35.81825787,128.7366347,2003-09-25,125,1,,,,09:00,18:00,053-813-3650,경상북도 경산시청 차량등록사업소,053-810-5250,2026-05-21
일등종합카마스타,3,경상북도 경산시 경안로29길 40(중방동),,35.82032312,128.7334176,2003-12-03,132,1,,,,09:00,18:00,053-816-0211,경상북도 경산시청 차량등록사업소,053-810-5250,2026-05-21
애니카랜드 진량점,3,경상북도 경산시 진량읍 공단6로 157,,35.87319434,128.8246323,2003-12-23,462,1,,,,09:00,18:00,053-857-0020,경상북도 경산시청 차량등록사업소,053-810-5250,2026-05-21
왕성모터스,3,경상북도 경산시 진량읍 황제1길 91,,35.86130029,128.8170979,2003-12-30,505,1,,,,09:00,18:00,053-857-9393,경상북도 경산시청 차량등록사업소,053-810-5250,2026-05-21
황제종합카써비스,3,경상북도 경산시 진량읍 공단로 504,,35.8762761,128.8193485,2004-01-09,1650,1,,,,09:00,18:00,053-854-0977,경상북도 경산시청 차량등록사업소,053-810-5250,2026-05-21
운성부분정비,3,경상북도 경산시 자인면 자인로 10,,35.82305265,128.8200364,2004-01-13,807,1,,,,09:00,18:00,053-854-1082,경상북도 경산시청 차량등록사업소,053-810-5250,2026-05-21
극동카경정비,3,경상북도 경산시 진량읍 공단2로 17,,35.87171176,128.8210814,2004-02-24,120,1,,,,09:00,18:00,053-856-8884,경상북도 경산시청 차량등록사업소,053-810-5250,2026-05-21
자인카센타,3,경상북도 경산시 자인면 일연로 70-1,,35.81957592,128.822976,2004-04-02,250,1,,,,09:00,18:00,053-857-6422,경상북도 경산시청 차량등록사업소,053-810-5250,2026-05-21
청구카써비스,3,경상북도 경산시 진량읍 대학로 936,,35.87442574,128.7994704,2004-05-31,508,1,,,,09:00,18:00,053-854-4211,경상북도 경산시청 차량등록사업소,053-810-5250,2026-05-21
새한부분정비,3,경상북도 경산시 압량읍 부적길 104,,35.84822603,128.7635356,2004-09-24,351,1,,,,09:00,18:00,053-817-7889,경상북도 경산시청 차량등록사업소,053-810-5250,2026-05-21
갑일카써비스,3,경상북도 경산시 옥산로 202(중산동),,35.83287456,128.7221537,2004-11-30,562,1,,,,09:00,18:00,053-812-5109,경상북도 경산시청 차량등록사업소,053-810-5250,2026-05-21
광모터스,3,경상북도 경산시 진량읍 해든길 11-1,,35.87385401,128.8176231,2005-01-14,207,1,,,,09:00,18:00,053-853-0840,경상북도 경산시청 차량등록사업소,053-810-5250,2026-05-21
김도형카,3,"경상북도 경산시 대학로8길 9, 104동(정평동)",,35.83357421,128.7267342,2005-02-18,198,1,,,,09:00,18:00,053-811-6174,경상북도 경산시청 차량등록사업소,053-810-5250,2026-05-21
호야카닥터,3,"경상북도 경산시 진량읍 공단로 451, 105동",,35.87191912,128.8186367,2005-04-18,94,1,,,,09:00,18:00,053-853-9158,경상북도 경산시청 차량등록사업소,053-810-5250,2026-05-21
계양점 현대자동차,3,경상북도 경산시 원효로 120(계양동),,35.82222673,128.7505078,2005-05-02,633,1,,,,09:00,18:00,053-802-8204,경상북도 경산시청 차량등록사업소,053-810-5250,2026-05-21
뉴현대모터스,3,경상북도 경산시 대학로16길 25(정평동),,35.83164921,128.7307557,2005-05-12,125,1,,,,09:00,18:00,053-814-9967,경상북도 경산시청 차량등록사업소,053-810-5250,2026-05-21
대진밧데리,3,경상북도 경산시 진량읍 공단6로 193,,35.87629868,128.8246428,2005-06-27,330,1,,,,09:00,18:00,053-856-5284,경상북도 경산시청 차량등록사업소,053-810-5250,2026-05-21
자인미래카,3,경상북도 경산시 자인면 원효로 743,,35.81554174,128.815444,2005-07-21,231,1,,,,09:00,18:00,053-857-9688,경상북도 경산시청 차량등록사업소,053-810-5250,2026-05-21
현대카센타,3,경상북도 경산시 강변서로51길 4(정평동),,35.83021127,128.7312254,2005-07-29,151,1,,,,09:00,18:00,053-812-1188,경상북도 경산시청 차량등록사업소,053-810-5250,2026-05-21
금강카,3,경상북도 경산시 대학로16길 23(정평동),,35.83173544,128.7307567,2005-10-14,396,1,,,,09:00,18:00,053-811-8832,경상북도 경산시청 차량등록사업소,053-810-5250,2026-05-21
천리마카써비스,3,경상북도 경산시 진량읍 공단2로 33,,35.87189435,128.822951,2005-11-17,719,1,,,,09:00,18:00,053-852-3750,경상북도 경산시청 차량등록사업소,053-810-5250,2026-05-21
엠카,3,경상북도 경산시 경안로 115(삼북동),,35.81786322,128.7381585,2006-03-28,325,1,,,,09:00,18:00,053-812-9565,경상북도 경산시청 차량등록사업소,053-810-5250,2026-05-21
현대카서비스,3,경상북도 경산시 진량읍 공단로 597,,35.88465702,128.8173328,2006-05-10,204,1,,,,09:00,18:00,053-856-6111,경상북도 경산시청 차량등록사업소,053-810-5250,2026-05-21
하양점 현대자동차,3,경상북도 경산시 하양읍 대경로 799,,35.91530069,128.8263014,2006-06-02,645,1,,,,09:00,18:00,053-854-4317,경상북도 경산시청 차량등록사업소,053-810-5250,2026-05-21
농업회사법인 보경팜테크(주),3,경상북도 경산시 와촌면 하양로 471,,35.92697979,128.8550083,2006-07-18,164,1,,,,09:00,18:00,053-853-5367,경상북도 경산시청 차량등록사업소,053-810-5250,2026-05-21
스피드메이트,3,"경상북도 경산시 옥산로 227, 102동(중산동)",,35.83491113,128.7200873,2006-07-18,206,1,,,,09:00,18:00,053-813-7557,경상북도 경산시청 차량등록사업소,053-810-5250,2026-05-21
오너라인(경산점),3,경상북도 경산시 경안로 77(삼남동),,35.81458431,128.738555,2006-07-27,148,1,,,,09:00,18:00,053-811-7040,경상북도 경산시청 차량등록사업소,053-810-5250,2026-05-21
KSC엔지니어,3,경상북도 경산시 진량읍 공단6로 163,,35.87359728,128.8244922,2006-08-10,462,1,,,,09:00,18:00,053-295-9116,경상북도 경산시청 차량등록사업소,053-810-5250,2026-05-21
오빌종합카센타,3,경상북도 경산시 둥지로 85(임당동),,35.84287467,128.7485585,2006-09-29,194,1,,,,09:00,18:00,053-817-3232,경상북도 경산시청 차량등록사업소,053-810-5250,2026-05-21
현대박부장카클리닉,3,"경상북도 경산시 남매로 35, 311동(삼남동)",,35.81431549,128.7409957,2006-10-11,330,1,,,,09:00,18:00,053-816-4119,경상북도 경산시청 차량등록사업소,053-810-5250,2026-05-21
케이모터스,3,"경상북도 경산시 경안로43길 16, 106동(중방동)",,35.82677853,128.7347479,2006-10-16,426,1,,,,09:00,18:00,053-813-0911,경상북도 경산시청 차량등록사업소,053-810-5250,2026-05-21
한양카클리닉,3,경상북도 경산시 경안로50길 28(중방동),,35.82933272,128.7390034,2006-10-16,198,1,,,,09:00,18:00,053-814-0759,경상북도 경산시청 차량등록사업소,053-810-5250,2026-05-21
한국지엠 진량바로서비스,3,경상북도 경산시 진량읍 다문로 103,,35.8765039,128.8220232,2006-11-03,310,1,,,,09:00,18:00,053-852-7288,경상북도 경산시청 차량등록사업소,053-810-5250,2026-05-21
애니카랜드 하양점,3,경상북도 경산시 하양읍 대경로 680,,35.90863251,128.8157531,2007-02-08,429,1,,,,09:00,18:00,053-853-9191,경상북도 경산시청 차량등록사업소,053-810-5250,2026-05-21
타이어타운 진량점,3,경상북도 경산시 진량읍 공단1로 41,,35.87398012,128.8236823,2007-03-29,340,1,,,,09:00,18:00,053-246-8488,경상북도 경산시청 차량등록사업소,053-810-5250,2026-05-21
머쉰제이알,3,경상북도 경산시 경안로 102(삼남동),,35.81660211,128.7388674,2007-04-11,429,1,,,,09:00,18:00,053-812-6336,경상북도 경산시청 차량등록사업소,053-810-5250,2026-05-21
에이스카모터스,3,경상북도 경산시 진량읍 공단2로9길 6,,35.87207411,128.8236278,2007-05-08,322,1,,,,09:00,18:00,053-854-0177,경상북도 경산시청 차량등록사업소,053-810-5250,2026-05-21
서울카써비스,3,경상북도 경산시 경청로218길 17-4(백천동),,35.80177467,128.7404027,2007-06-11,237,1,,,,09:00,18:00,053-816-4565,경상북도 경산시청 차량등록사업소,053-810-5250,2026-05-21
카박사 이정호,3,경상북도 경산시 경산로 151(사정동),,35.82185363,128.7275768,2007-07-19,415,1,,,,09:00,18:00,053-811-4691,경상북도 경산시청 차량등록사업소,053-810-5250,2026-05-21
영성모터스,3,경상북도 경산시 경안로 133(삼북동),,35.81943542,128.7378721,2007-08-06,313,1,,,,09:00,18:00,053-812-7573,경상북도 경산시청 차량등록사업소,053-810-5250,2026-05-21
타이어프로 영남대점,3,경상북도 경산시 백자로20길 2(사동),,35.81384564,128.7568539,2007-08-06,229,1,,,,09:00,18:00,053-801-9088,경상북도 경산시청 차량등록사업소,053-810-5250,2026-05-21
내고을카센타,3,경상북도 경산시 하양읍 대학로295길 12-15,,35.91083136,128.8214351,2007-08-30,311,1,,,,09:00,18:00,053-856-5858,경상북도 경산시청 차량등록사업소,053-810-5250,2026-05-21
동경부분종합정비,3,경상북도 경산시 남천면 남천로 773,,35.78701118,128.7305132,2007-12-13,690,1,,,,09:00,18:00,053-813-7058,경상북도 경산시청 차량등록사업소,053-810-5250,2026-05-21
동강카써비스,3,경상북도 경산시 와촌면 동강길 2,,35.954353,128.8341645,2007-12-20,326,1,,,,09:00,18:00,053-852-7869,경상북도 경산시청 차량등록사업소,053-810-5250,2026-05-21
남산카써비스,3,경상북도 경산시 경산로 67(옥곡동),,35.81491011,128.7313492,2008-01-31,264,1,,,,09:00,18:00,053-813-3201,경상북도 경산시청 차량등록사업소,053-810-5250,2026-05-21
현대카매니저,3,경상북도 경산시 하양읍 대경로 672,,35.90825848,128.815162,2008-02-21,334,1,,,,09:00,18:00,053-857-6651,경상북도 경산시청 차량등록사업소,053-810-5250,2026-05-21
제이모터스,3,경상북도 경산시 하양읍 조산천서길 17,,35.9150806,128.8231983,2008-05-13,153,1,,,,09:00,18:00,053-852-8852,경상북도 경산시청 차량등록사업소,053-810-5250,2026-05-21
박윤자동차시스템,3,경상북도 경산시 백양로33길 11-2(사동),,35.81271707,128.7593482,2008-05-13,287,1,,,,09:00,18:00,053-801-6868,경상북도 경산시청 차량등록사업소,053-810-5250,2026-05-21
조양카3급부분정비,3,경상북도 경산시 자인면 일연로 350,,35.84122929,128.8085751,2008-05-29,333,1,,,,09:00,18:00,053-857-9871,경상북도 경산시청 차량등록사업소,053-810-5250,2026-05-21
DH모터스,3,경상북도 경산시 경산로 159-1(옥산동),,35.8225979,128.7270678,2008-06-16,183,1,,,,09:00,18:00,053-811-3070,경상북도 경산시청 차량등록사업소,053-810-5250,2026-05-21
J-모터스,3,경상북도 경산시 강변동로 68(서상동),,35.81707853,128.7342966,2008-06-20,221,1,,,,09:00,18:00,053-817-8572,경상북도 경산시청 차량등록사업소,053-810-5250,2026-05-21
오일하우스 하양점,3,경상북도 경산시 하양읍 대경로 670,,35.9081806,128.8148181,2008-10-16,264,1,,,,09:00,18:00,053-857-5145,경상북도 경산시청 차량등록사업소,053-810-5250,2026-05-21
차사랑모터라이프,3,경상북도 경산시 중앙로17길 22(중방동),,35.82523768,128.735504,2008-10-28,276,1,,,,09:00,18:00,053-814-8777,경상북도 경산시청 차량등록사업소,053-810-5250,2026-05-21
경북드림모터스,3,경상북도 경산시 와촌면 하양로 529,,35.92863241,128.8608691,2009-01-07,377,1,,,,09:00,18:00,053-852-5109,경상북도 경산시청 차량등록사업소,053-810-5250,2026-05-21
오렌지모터스,3,경상북도 경산시 진량읍 다문로 77,,35.87559185,128.8193809,2009-02-05,201,1,,,,09:00,18:00,053-857-1373,경상북도 경산시청 차량등록사업소,053-810-5250,2026-05-21
우방카센타,3,경상북도 경산시 하양읍 동서길 1,,35.91722308,128.8184865,2009-03-03,306,1,,,,09:00,18:00,053-851-7789,경상북도 경산시청 차량등록사업소,053-810-5250,2026-05-21
스카이모터스,3,경상북도 경산시 와촌면 금송로 369,,35.94250379,128.8343273,2009-03-18,240,1,,,,09:00,18:00,053-853-8881,경상북도 경산시청 차량등록사업소,053-810-5250,2026-05-21
카테크,3,경상북도 경산시 경안로 96(삼남동),,35.81627441,128.7390013,2009-06-08,479,1,,,,09:00,18:00,053-818-8884,경상북도 경산시청 차량등록사업소,053-810-5250,2026-05-21
대복카서비스,3,경상북도 경산시 장산로 276(사동),,35.81668784,128.753976,2009-12-22,1023,1,,,,09:00,18:00,053-802-6337,경상북도 경산시청 차량등록사업소,053-810-5250,2026-05-21
삼거리카센타,3,경상북도 경산시 진량읍 공단11로6길 66,,35.87733108,128.8432091,2010-01-28,967,1,,,,09:00,18:00,053-851-1075,경상북도 경산시청 차량등록사업소,053-810-5250,2026-05-21
우리마을카센터,3,경상북도 경산시 자인면 설총로 888,,35.81563364,128.8267487,2010-06-22,169,1,,,,09:00,18:00,053-852-8383,경상북도 경산시청 차량등록사업소,053-810-5250,2026-05-21
대성카서비스,3,"경상북도 경산시 하양읍 대경로 117, 202동",,35.88087834,128.7670059,2010-06-22,1535,1,,,,09:00,18:00,053-853-4931,경상북도 경산시청 차량등록사업소,053-810-5250,2026-05-21
대현모터스,3,경상북도 경산시 백자로 141(사동),,35.81751144,128.7592116,2010-07-15,415,1,,,,09:00,18:00,053-811-1717,경상북도 경산시청 차량등록사업소,053-810-5250,2026-05-21
금호카부분정비,3,경상북도 경산시 계양로 46(계양동),,35.81973585,128.7481978,2010-07-21,592,1,,,,09:00,18:00,053-814-6898,경상북도 경산시청 차량등록사업소,053-810-5250,2026-05-21
스피드메이트(정평점),3,경상북도 경산시 대평길1길 15(대평동),,35.84007014,128.7323207,2010-08-19,202,1,,,,09:00,18:00,053-815-8253,경상북도 경산시청 차량등록사업소,053-810-5250,2026-05-21
동훈카모터스,3,"경상북도 경산시 경청로 1067, 108동(백천동)",,35.8005575,128.7370212,2011-03-17,264,1,,,,09:00,18:00,053-813-0717,경상북도 경산시청 차량등록사업소,053-810-5250,2026-05-21
우리카부분정비,3,경상북도 경산시 계양로 187(계양동),,35.83230761,128.7486583,2011-04-05,157,1,,,,09:00,18:00,053-816-1929,경상북도 경산시청 차량등록사업소,053-810-5250,2026-05-21
새한자동차정비,3,경상북도 경산시 중방로 132(계양동),,35.8333557,128.7471414,2011-04-05,330,1,,,,09:00,18:00,053-817-1929,경상북도 경산시청 차량등록사업소,053-810-5250,2026-05-21
자인모터스,3,경상북도 경산시 자인면 원효로 747,,35.81533587,128.8161398,2011-05-04,300,1,,,,09:00,18:00,053-856-2155,경상북도 경산시청 차량등록사업소,053-810-5250,2026-05-21
중방모터스,3,"경상북도 경산시 중앙로17길 70, 103동(중방동)",,35.8296642,128.7343306,2011-06-14,291,1,,,,09:00,18:00,053-812-8819,경상북도 경산시청 차량등록사업소,053-810-5250,2026-05-21
극동카써비스,3,경상북도 경산시 진량읍 봉회길 34,,35.88158876,128.8139768,2011-10-20,582,1,,,,09:00,18:00,053-856-1358,경상북도 경산시청 차량등록사업소,053-810-5250,2026-05-21
진명카모터스,3,경상북도 경산시 진량읍 공단로 530,,35.87880746,128.8197017,2011-12-06,680,1,,,,09:00,18:00,053-852-8656,경상북도 경산시청 차량등록사업소,053-810-5250,2026-05-21
남촌카,3,경상북도 경산시 자인면 한장군로 404,,35.8268946,128.8155483,2011-12-14,264,1,,,,09:00,18:00,053-856-0864,경상북도 경산시청 차량등록사업소,053-810-5250,2026-05-21
진량점 기아오토큐,3,경상북도 경산시 진량읍 낙산1길 52-2,,35.8766454,128.8177758,2012-01-12,1015,1,,,,09:00,18:00,053-852-8252,경상북도 경산시청 차량등록사업소,053-810-5250,2026-05-21
진우카서비스,3,경상북도 경산시 중앙로 15-3(사정동),,35.82048959,128.7291307,2012-03-06,681,1,,,,09:00,18:00,053-816-3944,경상북도 경산시청 차량등록사업소,053-810-5250,2026-05-21
태왕카서비스,3,경상북도 경산시 원효로 150(계양동),,35.82063582,128.753256,2012-03-29,293,1,,,,09:00,18:00,053-801-9171,경상북도 경산시청 차량등록사업소,053-810-5250,2026-05-21
경산발통천국,3,경상북도 경산시 남매로4길 2-1(상방동),,35.81246034,128.7410264,2012-03-30,333,1,,,,09:00,18:00,053-813-0087,경상북도 경산시청 차량등록사업소,053-810-5250,2026-05-21
영대종합부분정비,3,경상북도 경산시 중방로 122(계양동),,35.83273759,128.746586,2012-05-17,204,1,,,,09:00,18:00,053-815-9788,경상북도 경산시청 차량등록사업소,053-810-5250,2026-05-21
조은카서비스,3,경상북도 경산시 원효로 110(계양동),,35.82249213,128.7495968,2012-07-19,367,1,,,,09:00,18:00,053-818-8572,경상북도 경산시청 차량등록사업소,053-810-5250,2026-05-21
와이지모터스,3,경상북도 경산시 백자로 145(사동),,35.81779693,128.7595494,2012-08-07,268,1,,,,09:00,18:00,053-633-7115,경상북도 경산시청 차량등록사업소,053-810-5250,2026-05-21
백천점 현대자동차,3,경상북도 경산시 백천길 2(백천동),,35.80727857,128.7414936,2012-10-31,820,1,,,,09:00,18:00,053-816-0082,경상북도 경산시청 차량등록사업소,053-810-5250,2026-05-21
예도부분정비,3,경상북도 경산시 장산로 229(계양동),,35.81894158,128.7497591,2012-11-13,561,1,,,,09:00,18:00,053-802-5151,경상북도 경산시청 차량등록사업소,053-810-5250,2026-05-21
대성카센터,3,경상북도 경산시 계양로 10(계양동),,35.81659233,128.7470907,2012-12-27,285,1,,,,09:00,18:00,000-000-0000,경상북도 경산시청 차량등록사업소,053-810-5250,2026-05-21
대성모터스,3,경상북도 경산시 경안로38길 52-1(중방동),,35.82903507,128.7392221,2013-01-08,268,1,,,,09:00,18:00,053-801-8204,경상북도 경산시청 차량등록사업소,053-810-5250,2026-05-21
모터라이프,3,경상북도 경산시 경안로 419,,35.84447381,128.7313547,2013-01-24,295,1,,,,09:00,18:00,053-811-2109,경상북도 경산시청 차량등록사업소,053-810-5250,2026-05-21
경상타이어상사,3,경상북도 경산시 와촌면 금송로 341,,35.9397726,128.8334877,2013-08-26,180,1,,,,09:00,18:00,053-853-0590,경상북도 경산시청 차량등록사업소,053-810-5250,2026-05-21
더타이어샵,3,경상북도 경산시 서상길 1(삼남동),,35.81303688,128.7382939,2013-11-14,91,1,,,,09:00,18:00,053-815-9999,경상북도 경산시청 차량등록사업소,053-810-5250,2026-05-21
복이카센타,3,경상북도 경산시 남매로 223(중방동),,35.83081072,128.7404188,2014-07-24,303,1,,,,09:00,18:00,053-816-5679,경상북도 경산시청 차량등록사업소,053-810-5250,2026-05-21
한국지엠경산바로정비,3,경상북도 경산시 압량읍 부적길 90,,35.84702334,128.7630971,2014-11-20,258,1,,,,09:00,18:00,053-816-8572,경상북도 경산시청 차량등록사업소,053-810-5250,2026-05-21
월드타이어,3,경상북도 경산시 진량읍 다문로 114,,35.87619583,128.8232331,2015-06-15,270,1,,,,09:00,18:00,053-852-3733,경상북도 경산시청 차량등록사업소,053-810-5250,2026-05-21
모든오일,3,경상북도 경산시 하양읍 대경로 746,,35.911994,128.8217533,2016-05-04,332,1,,,,09:00,18:00,053-857-1119,경상북도 경산시청 차량등록사업소,053-810-5250,2026-05-21
시장카종합세차장,3,경상북도 경산시 자인면 설총로 887,,35.81551389,128.8260843,2016-07-06,913,1,,,,09:00,18:00,053-814-6864,경상북도 경산시청 차량등록사업소,053-810-5250,2026-05-21
케이지 모빌리티 경산서비스프라자,3,경상북도 경산시 경산로 168(옥산동),,35.82337033,128.7272378,2016-08-12,321,1,,,,09:00,18:00,053-811-5580,경상북도 경산시청 차량등록사업소,053-810-5250,2026-05-21
티스테이션 경산점,3,경상북도 경산시 원효로 121(삼풍동),,35.82288214,128.7508585,2016-08-12,927,1,,,,09:00,18:00,053-801-4802,경상북도 경산시청 차량등록사업소,053-810-5250,2026-05-21
삼정전문정비,3,경상북도 경산시 진량읍 대구대로 622,,35.87174868,128.8531628,2016-08-30,661,1,,,,09:00,18:00,053-794-7297,경상북도 경산시청 차량등록사업소,053-810-5250,2026-05-21
아진모터스,3,경상북도 경산시 압량읍 부적길 97,,35.84776089,128.762816,2016-10-25,479,1,,,,09:00,18:00,053-854-7077,경상북도 경산시청 차량등록사업소,053-810-5250,2026-05-21
굿모닝카센타,3,경상북도 경산시 대학로9길 7-5(정평동),,35.83499415,128.7269138,2017-08-29,108,1,,,,09:00,18:00,053-794-2138,경상북도 경산시청 차량등록사업소,053-810-5250,2026-05-21
신진모터스,3,경상북도 경산시 진량읍 부림로 202,,35.8944233,128.8368792,2018-02-02,2793,1,,,,09:00,18:00,053-854-6624,경상북도 경산시청 차량등록사업소,053-810-5250,2026-05-21
공임나라경산진량점,3,경상북도 경산시 진량읍 공단로 415,,35.86851746,128.817831,2018-05-29,566,1,,,,09:00,18:00,000-000-0000,경상북도 경산시청 차량등록사업소,053-810-5250,2026-05-21
FS모터스,3,경상북도 경산시 원효로 184(사동),,35.81923004,128.7564847,2018-08-08,116,1,,,,09:00,18:00,053-811-5044,경상북도 경산시청 차량등록사업소,053-810-5250,2026-05-21
준모터스,3,경상북도 경산시 압량읍 압독2로1길 13,,35.84351234,128.763205,2018-10-29,264,1,,,,09:00,18:00,053-801-1123,경상북도 경산시청 차량등록사업소,053-810-5250,2026-05-21
르노코리아 서비스코너 경산삼북점,3,경상북도 경산시 장산로 110(삼북동),,35.8179748,128.7372533,2018-12-31,635,1,,,,09:00,18:00,000-000-0000,경상북도 경산시청 차량등록사업소,053-810-5250,2026-05-21
영광모터스,3,경상북도 경산시 장산로 223(계양동),,35.819147,128.749151,2019-01-03,866.6,1,,,,09:00,18:00,000-000-0000,경상북도 경산시청 차량등록사업소,053-810-5250,2026-05-21
더킹타이어,3,경상북도 경산시 남매로 63(삼남동),,35.81683562,128.7419014,2019-07-03,150,1,,,,09:00,18:00,053-811-9995,경상북도 경산시청 차량등록사업소,053-810-5250,2026-05-21
오토오아시스 경산 사동점,3,경상북도 경산시 원효로 198(사동),,35.81866921,128.7578198,2019-07-17,259,1,,,,09:00,18:00,053-811-1560,경상북도 경산시청 차량등록사업소,053-810-5250,2026-05-21
한국오토,3,경상북도 경산시 진량읍 대학로 1412,,35.90468629,128.824674,2019-08-26,372,1,,,,09:00,18:00,053-852-8572,경상북도 경산시청 차량등록사업소,053-810-5250,2026-05-21
주식회사 제이비모터스,3,경상북도 경산시 압량읍 원효로 569,,35.81202467,128.7959836,2019-10-07,487,1,,,,09:00,18:00,053-801-4600,경상북도 경산시청 차량등록사업소,053-810-5250,2026-05-21
JT모터스타이어센터,3,경상북도 경산시 경안로 403(대평동),,35.8428999,128.7318864,2019-10-15,360,1,,,,09:00,18:00,053-794-8845,경상북도 경산시청 차량등록사업소,053-810-5250,2026-05-21
박정현타이어,3,경상북도 경산시 경안로 287(중방동),,35.8328853,128.7346666,2019-10-28,1941,1,,,,09:00,18:00,053-814-0885,경상북도 경산시청 차량등록사업소,053-810-5250,2026-05-21
아진디젤,3,경상북도 경산시 진량읍 공단10로 371,,35.88811659,128.8334987,2019-12-26,249,1,,,,09:00,18:00,053-818-2323,경상북도 경산시청 차량등록사업소,053-810-5250,2026-05-21
성진카센터,3,경상북도 경산시 경청로 1060(백천동),,35.79997077,128.7372209,2020-01-06,450,1,,,,09:00,18:00,000-000-0000,경상북도 경산시청 차량등록사업소,053-810-5250,2026-05-21
공임나라 경산옥산점,3,경상북도 경산시 경산로 162(옥산동),,35.82304651,128.7274103,2020-07-29,360,1,,,,09:00,18:00,000-000-0000,경상북도 경산시청 차량등록사업소,053-810-5250,2026-05-21
모토렌,3,경상북도 경산시 삼성현로37길 7(사정동),,35.81721847,128.7239887,2020-10-14,874,1,,,,09:00,18:00,000-000-0000,경상북도 경산시청 차량등록사업소,053-810-5250,2026-05-21
넥센타이어 경산점,3,경상북도 경산시 원효로 112(계양동),,35.82245266,128.7498197,2020-12-14,619,1,,,,09:00,18:00,053-852-2577,경상북도 경산시청 차량등록사업소,053-810-5250,2026-05-21
모든알브이,3,경상북도 경산시 하양읍 화성로 119,,35.88135179,128.7872028,2021-08-25,1577,1,,,,09:00,18:00,053-201-0123,경상북도 경산시청 차량등록사업소,053-810-5250,2026-05-21
성공시대 자동차정비,3,경상북도 경산시 원효로40길 24(사동),,35.81733286,128.7559014,2021-09-08,683,1,,,,09:00,18:00,053-766-3024,경상북도 경산시청 차량등록사업소,053-810-5250,2026-05-21
세운대형정비,3,경상북도 경산시 진량읍 부기길 7,,35.89628717,128.8230691,2021-09-16,360,1,,,,09:00,18:00,000-000-0000,경상북도 경산시청 차량등록사업소,053-810-5250,2026-05-21
티스테이션 홈플러스 경산점,3,"경상북도 경산시 경안로 288, 2층(중방동)",,35.83282531,128.7356446,2021-10-12,165,1,,,,09:00,18:00,053-814-8280,경상북도 경산시청 차량등록사업소,053-810-5250,2026-05-21
(주)넥타홀딩스 (SHP),3,경상북도 경산시 삼성현로 883(여천동),,35.79823658,128.7939774,2022-10-13,1694,1,,,,09:00,18:00,000-000-0000,경상북도 경산시청 차량등록사업소,053-810-5250,2026-05-21
피제이게러지,3,경상북도 경산시 압량읍 가일길 8,,35.83538931,128.7739753,2022-11-02,883,1,,,,09:00,18:00,000-000-0000,경상북도 경산시청 차량등록사업소,053-810-5250,2026-05-21
오버랜드 웍스,3,경상북도 경산시 진량읍 동자길 33-12,,35.87309982,128.8022722,2022-12-02,292,1,,,,09:00,18:00,000-000-0000,경상북도 경산시청 차량등록사업소,053-810-5250,2026-05-21
한성카에어컨,3,경상북도 경산시 압량읍 대학로 449,,35.84759941,128.7641169,2023-05-31,100,1,,,,09:00,18:00,053-818-4599,경상북도 경산시청 차량등록사업소,053-810-5250,2026-05-21
타이어 온스(TIRE on’s),3,경상북도 경산시 와촌면 대경로 1009,,35.92568696,128.8457328,2023-07-24,416,1,,,,09:00,18:00,053-801-0220,경상북도 경산시청 차량등록사업소,053-810-5250,2026-05-21
메카닉스,3,경상북도 경산시 진량읍 공단2로 10-85,,35.87007673,128.8198474,2024-01-16,480,1,,,,09:00,18:00,000-000-0000,경상북도 경산시청 차량등록사업소,053-810-5250,2026-05-21
주식회사 혜주파,3,경상북도 경산시 압량읍 해오름길 105-8,,35.82513022,128.7861161,2024-02-13,1255,1,,,,09:00,18:00,053-811-4373,경상북도 경산시청 차량등록사업소,053-810-5250,2026-05-21
타이어프로 진량점,3,경상북도 경산시 진량읍 다문로 68,,35.87472635,128.8186425,2024-03-20,474,1,,,,09:00,18:00,053-854-0909,경상북도 경산시청 차량등록사업소,053-810-5250,2026-05-21
타이어프로 하양점,3,경상북도 경산시 하양읍 대경로 676,,35.90848359,128.8154652,2024-05-20,661,1,,,,09:00,18:00,053-851-7337,경상북도 경산시청 차량등록사업소,053-810-5250,2026-05-21
현대원동기정비,4,"경상북도 경산시 강변서로 295, 209동(중방동)",,35.83339308,128.7315495,2009-03-30,831,1,,,,09:00,18:00,053-813-5120,경상북도 경산시청 차량등록사업소,053-810-5251,2026-05-21
Team ENG 보링정비공장,4,경상북도 경산시 하양읍 버티미길 78,,35.89206479,128.8091137,2010-03-10,1159,1,,,,09:00,18:00,053-852-6641,경상북도 경산시청 차량등록사업소,053-810-5252,2026-05-21
덕일보링정비공업사,4,경상북도 경산시 압량읍 가일길8길 1,,35.83736812,128.7759851,2013-12-03,1163,1,,,,09:00,18:00,053-817-3659,경상북도 경산시청 차량등록사업소,053-810-5253,2026-05-21
수엔진전문정비공장,4,경상북도 경산시 와촌면 용천길 74,,35.91803262,128.8465926,2014-08-22,1262,1,,,,09:00,18:00,053-857-6641,경상북도 경산시청 차량등록사업소,053-810-5254,2026-05-21
신명보링,4,경상북도 경산시 압량읍 압독로 236-11,,35.82945431,128.7892011,2015-08-06,866,1,,,,09:00,18:00,053-857-2208,경상북도 경산시청 차량등록사업소,053-810-5255,2026-05-21
영남보링,4,경상북도 경산시 압량읍 내리길25길 59,,35.84573231,128.7773993,2021-01-12,724,1,,,,09:00,18:00,000-000-0000,경상북도 경산시청 차량등록사업소,053-810-5256,2026-05-21
경산디젤,4,경상북도 경산시 진량읍 일연로 664,,35.86759475,128.8050683524,2022-11-22,1230,1,,,,09:00,18:00,000-000-0000,경상북도 경산시청 차량등록사업소,053-810-5257,2026-05-21
명문엔진,4,경상북도 경산시 압량읍 가일길20길 13-4,,35.83829142,128.7818641,2023-09-11,1003,1,,,,09:00,18:00,000-000-0000,경상북도 경산시청 차량등록사업소,053-810-5250,2026-05-21
맥가이버 모터스,3,경상북도 경산시 원효로 116(계양동),,35.82232562,128.7501403,2024-06-24,492,1,,,,09:00,18:00,000-000-0000,경상북도 경산시청 차량등록사업소,053-810-5250,2026-05-21
자인공단카서비스,3,경상북도 경산시 자인면 일연로 139,,35.82392175,128.8178234,2024-12-19,336,1,,,,09:00,18:00,000-000-0000,경상북도 경산시청 차량등록사업소,053-810-5250,2026-05-21
라인모터스,3,경상북도 경산시 진량읍 일연로 690,,35.8700242,128.804555,2024-12-20,888,1,,,,09:00,18:00,000-000-0000,경상북도 경산시청 차량등록사업소,053-810-5250,2026-05-21
금강자동차써비스,3,경상북도 경산시 진량읍 대구대로 119,,35.90074982,128.8369115,2025-02-05,320,1,,,,09:00,18:00,000-000-0000,경상북도 경산시청 차량등록사업소,053-810-5250,2026-05-21
제1기능장카써비스,3,경상북도 경산시 진량읍 대구대로 65,,35.90243434,128.831763,2025-02-05,344,1,,,,09:00,18:00,053-744-2247,경상북도 경산시청 차량등록사업소,053-810-5250,2026-05-21
타이어프로 경산총판,3,경상북도 경산시 경안로 120(삼북동),,35.81827551,128.7385804,2025-05-08,519,1,,,,09:00,18:00,000-000-0000,경상북도 경산시청 차량등록사업소,053-810-5250,2026-05-21
정비 나라,3,경상북도 경산시 자인면 자인공단3로 13,,35.824773,128.823394,2025-11-26,174.72,1,,,,09:00,18:00,000-000-0000,경상북도 경산시청 차량등록사업소,053-810-5250,2026-05-21
