자동차정비업체명,자동차정비업체종류,소재지도로명주소,소재지지번주소,위도,경도,사업등록일자,면적,영업상태,폐업일자,휴업시작일자,휴업종료일자,운영시작시각,운영종료시각,전화번호,관리기관명,관리기관전화번호,데이터기준일자
블루핸즈 은성건설기계정비공업,01,대구광역시 달서구 성서공단로 72-19(대천동),,35.83287941,128.4906786,2000-08-05,1073,01,,,,,,,대구광역시 달서구청,053-667-3017,2026-01-13
크레인특장,01,대구광역시 달서구 달서대로95길 63(호산동),,35.84171066,128.4844787,2002-09-16,1132,01,,,,,,,대구광역시 달서구청,053-667-3017,2026-01-13
성서종합정비,01,대구광역시 달서구 문화회관9길 30(장동),,35.83942272,128.5227429,2003-02-25,2616.54,01,,,,,,,대구광역시 달서구청,053-667-3017,2026-01-13
원진1급검사정비,01,대구광역시 달서구 와룡로9길 8(본동),,35.83683921,128.5362745,2003-11-07,720,01,,,,,,,대구광역시 달서구청,053-667-3017,2026-01-13
성서자동차검사정비,01,대구광역시 달서구 성서공단로54길 8(월암동),,35.83416287,128.511385,2004-05-17,1441.36,01,,,,,,,대구광역시 달서구청,053-667-3017,2026-01-13
남대구서비스자동차검사소,01,대구광역시 달서구 성서공단로61길 12(장동),,35.83719375,128.5171273,2004-12-04,2916,01,,,,,,,대구광역시 달서구청,053-667-3017,2026-01-13
호림자동차검사정비,01,"대구광역시 달서구 성서공단로11길 9, 107동(호림동)",,35.83594647,128.4878528,2005-07-28,1489,01,,,,,,,대구광역시 달서구청,053-667-3017,2026-01-13
성서대천정비공장,01,대구광역시 달서구 성서공단로 47(호림동),,35.83532492,128.4877604,2005-11-08,1190.6,01,,,,,,,대구광역시 달서구청,053-667-3017,2026-01-13
신화자동차종합정비,01,대구광역시 달서구 문화회관9길 79(장동),,35.83846139,128.5199582,2005-12-26,2005,01,,,,,,,대구광역시 달서구청,053-667-3017,2026-01-13
남대구터미널종합검사정비,01,대구광역시 달서구 성서공단로 346(월성동),,35.83634169,128.5203207,2006-03-30,2642,01,,,,,,,대구광역시 달서구청,053-667-3017,2026-01-13
한모터스,01,대구광역시 달서구 문화회관8길 26(장동),,35.84005271,128.5229574,2006-11-21,1537,01,,,,,,,대구광역시 달서구청,053-667-3017,2026-01-13
한일1급정비,01,대구광역시 달서구 성서로67길 54(갈산동),,35.84741786,128.5015732,2006-11-29,2655,01,,,,,,,대구광역시 달서구청,053-667-3017,2026-01-13
남대구서비스기아오토큐㈜,01,대구광역시 달서구 성서공단로54길 8(월암동),,35.83416287,128.511385,2007-07-03,2915.87,01,,,,,,,대구광역시 달서구청,053-667-3017,2026-01-13
구상모터스,01,대구광역시 달서구 성서4차첨단로 182(월암동),,35.8288038,128.5188768,2008-07-04,1258.3,01,,,,,,,대구광역시 달서구청,053-667-3017,2026-01-13
새한자동차공업사,01,대구광역시 달서구 용산로24길 18(감삼동),,35.84773787,128.5318755,2008-07-23,3660,01,,,,,,,대구광역시 달서구청,053-667-3017,2026-01-13
남대구현대서비스,01,대구광역시 달서구 성서공단로 337(장동),,35.83743496,128.5197079,2009-04-22,2658,01,,,,,,,대구광역시 달서구청,053-667-3017,2026-01-13
남대구종합정비,01,대구광역시 달서구 성서4차첨단로 300(대천동),,35.82408428,128.5138878,2009-10-15,1008.19,01,,,,,,,대구광역시 달서구청,053-667-3017,2026-01-13
구일종합정비(주),01,"대구광역시 달서구 성서로 302, (갈산동)",,35.84429008,128.5080295,2010-02-08,1161.31,03,2023-09-01,,,,,,대구광역시 달서구청,053-667-3017,2026-01-13
동아1급자동차정비,01,대구광역시 달서구 문화회관5길 48(장기동),,35.84130235,128.5216262,2010-02-25,1085.4,01,,,,,,,대구광역시 달서구청,053-667-3017,2026-01-13
쉐보레 남대구서비스센터,01,대구광역시 달서구 진천로 110(대천동),,35.81839257,128.5227719,2010-03-02,6042.5,01,,,,,,,대구광역시 달서구청,053-667-3017,2026-01-13
대성모터스1급종합정비,01,"대구광역시 달서구 문화회관9길 10, 5,6,7(장동)",,35.83917589,128.5235383,2010-03-05,1654,01,,,,,,,대구광역시 달서구청,053-667-3017,2026-01-13
차사랑정비,01,대구광역시 달서구 문화회관7길 17(장동),,35.84004201,128.5233447,2016-08-17,1032,01,,,,,,,대구광역시 달서구청,053-667-3017,2026-01-13
뉴글로벌모터스,01,대구광역시 달서구 문화회관5길 54(장기동),,35.84144005,128.5210514,2016-12-23,1822,01,,,,,,,대구광역시 달서구청,053-667-3017,2026-01-13
용산1급자동차정비,01,대구광역시 달서구 새방로 43(용산동),,35.86294972,128.5222112,2018-01-15,2382.4,01,,,,,,,대구광역시 달서구청,053-667-3017,2026-01-13
탈것자동차서비스센터,01,대구광역시 달서구 새방로 76(용산동),,35.86401705,128.5255195,2018-08-23,1401,01,,,,,,,대구광역시 달서구청,053-667-3017,2026-01-13
태극자동차공업사,01,대구광역시 달서구 문화회관6길 84(장기동),,35.83950686,128.5199761,2020-05-06,920,01,,,,,,,대구광역시 달서구청,053-667-3017,2026-01-13
탈것월암정비(주),01,대구광역시 달서구 성서서로19길 48(월암동),,35.83381796,128.4947798,2022-05-16,1784,01,,,,,,,대구광역시 달서구청,053-667-3017,2026-01-13
(주)대경정비,01,대구광역시 달서구 문화회관길 227(장동),,35.84046049,128.5245209,2022-05-19,1189,01,,,,,,,대구광역시 달서구청,053-667-3017,2026-01-13
유성자동차정비,02,대구광역시 달서구 대명천로 229(본리동),,35.84154946,128.5350886,1995-06-01,1569.6,01,,,,,,,대구광역시 달서구청,053-667-3017,2026-01-13
성화정비공장,02,대구광역시 달서구 대명천로47길 13(본리동),,35.84111743,128.5349528,1996-08-07,885.6,01,,,,,,,대구광역시 달서구청,053-667-3017,2026-01-13
우광자동차정비공장,02,대구광역시 달서구 월배로11길 36(대천동),,35.81652507,128.5194717,1996-12-05,911,01,,,,,,,대구광역시 달서구청,053-667-3017,2026-01-13
태공자동차정비공장,02,대구광역시 달서구 구마로11길 77(본리동),,35.84115653,128.5337761,1997-12-08,993,01,,,,,,,대구광역시 달서구청,053-667-3017,2026-01-13
신세계자동차정비,02,대구광역시 달서구 성서공단로11길 7(호림동),,35.83577517,128.4878628,2003-11-03,440.63,01,,,,,,,대구광역시 달서구청,053-667-3017,2026-01-13
성진자동차정비,02,대구광역시 달서구 문화회관10길 60(장동),,35.83807804,128.5210626,2006-11-21,921,01,,,,,,,대구광역시 달서구청,053-667-3017,2026-01-13
광명자동차정비,02,대구광역시 달서구 구마로11길 82(본리동),,35.84122849,128.5342986,2006-11-28,764,01,,,,,,,대구광역시 달서구청,053-667-3017,2026-01-13
드림정비,02,대구광역시 달서구 와룡로18길 40(본리동),,35.8402885,128.5388757,2007-02-05,830,01,,,,,,,대구광역시 달서구청,053-667-3017,2026-01-13
와이엠렉서스 남대구서비스센터,02,대구광역시 달서구 성서4차첨단로 214(월암동),,35.82997171,128.5197588,2008-03-12,1191.22,01,,,,,,,대구광역시 달서구청,053-667-3017,2026-01-13
미건종합정비,02,대구광역시 달서구 문화회관7길 127(장동),,35.83732978,128.519021,2008-06-11,1198,01,,,,,,,대구광역시 달서구청,053-667-3017,2026-01-13
네오모터스,02,대구광역시 달서구 문화회관5길 36(장기동),,35.84175059,128.5221826,2008-09-08,431.85,01,,,,,,,대구광역시 달서구청,053-667-3017,2026-01-13
㈜크로바 모터스,02,대구광역시 달서구 문화회관9길 52(장동),,35.83889596,128.5215882,2008-09-13,968,01,,,,,,,대구광역시 달서구청,053-667-3017,2026-01-13
성우자동차정비,02,대구광역시 달서구 성서공단로 317(장동),,35.83711529,128.5180897,2008-10-16,1708.5,01,,,,,,,대구광역시 달서구청,053-667-3017,2026-01-13
삼호정비,02,대구광역시 달서구 문화회관7길 57(장동),,35.83918481,128.5214905,2009-08-05,1071.02,01,,,,,,,대구광역시 달서구청,053-667-3017,2026-01-13
모아자동차정비,02,대구광역시 달서구 문화회관6길 64(장기동),,35.83992206,128.5209634,2009-10-14,401.13,01,,,,,,,대구광역시 달서구청,053-667-3017,2026-01-13
레드썬즈정비공장,02,대구광역시 달서구 문화회관9길 72(장동),,35.83890926,128.5206031,2010-02-19,464.53,01,,,,,,,대구광역시 달서구청,053-667-3017,2026-01-13
엠팩토리,02,대구광역시 달서구 장기로 382(장기동),,35.84053612,128.5195732,2010-11-05,1621,01,,,,,,,대구광역시 달서구청,053-667-3017,2026-01-13
(주)성서현대정비센터,02,대구광역시 달서구 달서대로109길 58(호산동),,35.84858535,128.4853323,2012-05-08,346.37,01,,,,,,,대구광역시 달서구청,053-667-3017,2026-01-13
뉴대원모터스,02,대구광역시 달서구 장기로65길 2(장기동),,35.84306633,128.5243057,2013-07-01,1029.3,01,,,,,,,대구광역시 달서구청,053-667-3017,2026-01-13
스마트자동차서비스,02,대구광역시 달서구 월곡로99길 7-6(월성동),,35.83301646,128.5222359,2014-11-19,528.4,01,,,,,,,대구광역시 달서구청,053-667-3017,2026-01-13
기란모터스,02,대구광역시 달서구 문화회관9길 81(장동),,35.8381375,128.5198232,2015-08-28,1006,01,,,,,,,대구광역시 달서구청,053-667-3017,2026-01-13
88자동차정비,02,대구광역시 달서구 문화회관6길 48(장기동),,35.84026498,128.5218186,2017-04-10,574.8,01,,,,,,,대구광역시 달서구청,053-667-3017,2026-01-13
남대구제일정비,02,대구광역시 달서구 문화회관10길 56(장동),,35.83811134,128.5212175,2017-09-29,1496,01,,,,,,,대구광역시 달서구청,053-667-3017,2026-01-13
해성1급정비,02,대구광역시 달서구 문화회관10길 70(장동),,35.83799899,128.5205861,2017-11-22,879,01,,,,,,,대구광역시 달서구청,053-667-3017,2026-01-13
무궁화정비,02,대구광역시 달서구 장기로 364-7(장기동),,35.84175897,128.5202565,2018-03-13,966,01,,,,,,,대구광역시 달서구청,053-667-3017,2026-01-13
모든자동차정비,02,대구광역시 달서구 문화회관6길 88(장기동),,35.83929175,128.5196979,2021-01-29,932,01,,,,,,,대구광역시 달서구청,053-667-3017,2026-01-13
성원정비,02,대구광역시 달서구 문화회관6길 46(장기동),,35.84046279,128.5219306,2021-08-30,739,01,,,,,,,대구광역시 달서구청,053-667-3017,2026-01-13
㈜성서ic 정비검사소,02,대구광역시 달서구 달구벌대로 1421(장기동),,35.84981177,128.5228025,2023-05-02,605,01,,,,,,,대구광역시 달서구청,053-667-3017,2026-01-13
와이엠서비스대구,02,대구광역시 달서구 성서4차첨단로 182(월암동),,35.8288038,128.5188768,2022-08-05,1726.8,01,,,,,,,대구광역시 달서구청,053-667-3017,2026-01-13
블루자동차,02,대구광역시 달서구 문화회관6길 72(장동),,35.83974296,128.5206078,2024-01-10,567,01,,,,,,,대구광역시 달서구청,053-667-3017,2026-01-13
구마보링정비,04,대구광역시 달서구 호산동로 6-11,,35.83575097,128.4871653,2004-08-25,501,01,,,,,,,대구광역시 달서구청,053-667-3017,2026-01-13
매일자동차엔진보링,04,대구광역시 달서구 문화회관길 255(장동),,35.83942375,128.5245694,2009-02-24,385,01,,,,,,,대구광역시 달서구청,053-667-3017,2026-01-13
현대자동차 본리점,03,대구광역시 달서구 구마로 73(본리동),,35.83776151,128.5356165,1997-02-28,159,01,,,,,,,대구광역시 달서구청,053-667-3017,2026-01-13
차승사,03,대구광역시 달서구 와룡로13길 19(본리동),,35.83795089,128.5355957,1997-02-28,153.7,01,,,,,,,대구광역시 달서구청,053-667-3017,2026-01-13
카포스 남해부분정비,03,대구광역시 달서구 성서동로 303(장기동),,35.8479354,128.5155477,1997-07-16,331,01,,,,,,,대구광역시 달서구청,053-667-3017,2026-01-13
현진미션,03,대구광역시 달서구 문화회관6길 12(장동),,35.84092301,128.523605,1997-12-08,104,01,,,,,,,대구광역시 달서구청,053-667-3017,2026-01-13
히든카부분정비,03,대구광역시 달서구 파도고개로 152(두류동),,35.85593868,128.567526,1997-12-09,101,01,,,,,,,대구광역시 달서구청,053-667-3017,2026-01-13
구일카전문정비,03,대구광역시 달서구 장기로 76(성당동),,35.84374332,128.5521733,1998-01-05,107,01,,,,,,,대구광역시 달서구청,053-667-3017,2026-01-13
고려자동차써비스,03,대구광역시 달서구 성서공단로22안길 20(월암동),,35.83417139,128.4964976,1998-01-23,156,01,,,,,,,대구광역시 달서구청,053-667-3017,2026-01-13
용산카프라자,03,대구광역시 달서구 평리로 78(용산동),,35.85835077,128.5329431,1998-05-20,70,01,,,,,,,대구광역시 달서구청,053-667-3017,2026-01-13
성주카프라자,03,대구광역시 달서구 와룡로 209(죽전동),,35.85153752,128.5368054,1998-06-13,127.1,01,,,,,,,대구광역시 달서구청,053-667-3017,2026-01-13
동아카써비스센타,03,대구광역시 달서구 송현동길 57(송현동),,35.83044336,128.5474434,1998-08-26,72,01,,,,,,,대구광역시 달서구청,053-667-3017,2026-01-13
카포스한국카서비스,03,대구광역시 달서구 새동네로 89-1(용산동),,35.85596289,128.5225639,1998-12-22,100,01,,,,,,,대구광역시 달서구청,053-667-3017,2026-01-13
대한종합카서비스,03,대구광역시 달서구 학산로 182(송현동),,35.83360352,128.5462365,1999-01-28,133,01,,,,,,,대구광역시 달서구청,053-667-3017,2026-01-13
스피드메이트7호광장점,03,대구광역시 달서구 야외음악당로 211,,35.854354,128.5576228,1999-03-16,172.06,01,,,,,,,대구광역시 달서구청,053-667-3017,2026-01-13
복래손세차,03,대구광역시 달서구 와룡로 253(죽전동),,35.85544897,128.5368762,1999-03-31,88,01,,,,,,,대구광역시 달서구청,053-667-3017,2026-01-13
태양카서비스,03,대구광역시 달서구 구마로 38(본동),,35.83689524,128.5317919,1999-05-08,80,01,,,,,,,대구광역시 달서구청,053-667-3017,2026-01-13
성신카서비스,03,대구광역시 달서구 월배로32길 33(상인동),,35.81526184,128.532112,1999-05-08,111,01,,,,,,,대구광역시 달서구청,053-667-3017,2026-01-13
장관종합전문정비,03,대구광역시 달서구 중흥로 35(송현동),,35.83089816,128.5563343,1999-05-21,208.11,01,,,,,,,대구광역시 달서구청,053-667-3017,2026-01-13
월성카,03,대구광역시 달서구 송현로 142(송현동),,35.82982455,128.5447828,1999-06-26,102.8,01,,,,,,,대구광역시 달서구청,053-667-3017,2026-01-13
성우종합카써비스,03,대구광역시 달서구 월곡로47길 13(상인동),,35.81550841,128.5394615,1999-07-20,184,01,,,,,,,대구광역시 달서구청,053-667-3017,2026-01-13
용마카부분정비,03,대구광역시 달서구 달구벌대로307길 90(죽전동),,35.8542332,128.5346315,1999-09-17,121,01,,,,,,,대구광역시 달서구청,053-667-3017,2026-01-13
대구오토정비,03,대구광역시 달서구 장기로65길 7(장기동),,35.84245049,128.5249657,1999-10-08,94,01,,,,,,,대구광역시 달서구청,053-667-3017,2026-01-13
카포스관광카,03,대구광역시 달서구 선원로 111(이곡동),,35.85931146,128.5046642,1999-10-08,98,01,,,,,,,대구광역시 달서구청,053-667-3017,2026-01-13
경능카크리닉,03,대구광역시 달서구 계대동문로3길 71(신당동),,35.85890497,128.4940614,1999-10-28,114.63,01,,,,,,,대구광역시 달서구청,053-667-3017,2026-01-13
달서카인테리어,03,대구광역시 달서구 와룡로 286(죽전동),,35.85831153,128.5376927,1999-12-06,133,01,,,,,,,대구광역시 달서구청,053-667-3017,2026-01-13
두리카써비스,03,대구광역시 달서구 문화센터로 17,,35.83840699,128.5221053,1999-12-29,83,01,,,,,,,대구광역시 달서구청,053-667-3017,2026-01-13
JIT정비기기,03,대구광역시 달서구 상화로29길 49(진천동),,35.81195737,128.5292962,2000-01-07,84,01,,,,,,,대구광역시 달서구청,053-667-3017,2026-01-13
21세기카프랜드,03,대구광역시 달서구 와룡로 12(본동),,35.83385782,128.5378372,2000-01-17,122,01,,,,,,,대구광역시 달서구청,053-667-3017,2026-01-13
1004자동차백화점,03,대구광역시 달서구 신당로 16(신당동),,35.85350254,128.493917,2000-03-09,79,01,,,,,,,대구광역시 달서구청,053-667-3017,2026-01-13
대경카부분정비,03,대구광역시 달서구 달구벌대로264길 16(이곡동),,35.85017927,128.5114438,2000-06-21,117,01,,,,,,,대구광역시 달서구청,053-667-3017,2026-01-13
달구벌세차정비,03,대구광역시 달서구 학산로 207(송현동),,35.83411333,128.5490736,2000-07-28,185.07,01,,,,,,,대구광역시 달서구청,053-667-3017,2026-01-13
뉴현대모터스,03,대구광역시 달서구 달서대로109안길 56(호산동),,35.84995786,128.4844736,2000-08-19,121.56,01,,,,,,,대구광역시 달서구청,053-667-3017,2026-01-13
감삼카써비스,03,대구광역시 달서구 감삼길 151(감삼동),,35.84971995,128.5460927,2000-10-04,92,01,,,,,,,대구광역시 달서구청,053-667-3017,2026-01-13
동양카프라자,03,대구광역시 달서구 와룡로32길 66(감삼동),,35.84601156,128.5410017,2000-10-10,111.38,01,,,,,,,대구광역시 달서구청,053-667-3017,2026-01-13
카포스일심카전문정비,03,대구광역시 달서구 성서서로 178(갈산동),,35.84089804,128.5001816,2001-01-27,119,01,,,,,,,대구광역시 달서구청,053-667-3017,2026-01-13
애니카랜드두류점,03,대구광역시 달서구 야외음악당로51길 1(두류동),,35.85597128,128.5625218,2001-02-26,99,01,,,,,,,대구광역시 달서구청,053-667-3017,2026-01-13
카포스형제카전문정비,03,대구광역시 달서구 이곡공원로1길 29-20(이곡동),,35.85691596,128.5084424,2001-03-05,84,01,,,,,,,대구광역시 달서구청,053-667-3017,2026-01-13
프로미카월드 대구성당점,03,대구광역시 달서구 야외음악당로 47(성당동),,35.84166788,128.5526903,2001-05-08,108.19,01,,,,,,,대구광역시 달서구청,053-667-3017,2026-01-13
현대카프라자,03,대구광역시 달서구 성서로76길 7(이곡동),,35.85069015,128.5078822,2001-06-07,108,03,2025-05-16,,,,,,대구광역시 달서구청,053-667-3017,2026-01-13
해동카서비스,03,대구광역시 달서구 호산동로36남길 24(호산동),,35.84995794,128.4866768,2001-06-30,121,01,,,,,,,대구광역시 달서구청,053-667-3017,2026-01-13
카카오토,03,대구광역시 달서구 송현로 131(송현동),,35.82926906,128.5440485,2001-08-22,98.61,01,,,,,,,대구광역시 달서구청,053-667-3017,2026-01-13
준 모터스,03,대구광역시 달서구 당산로24길 30(성당동),,35.84657163,128.5466799,2001-08-27,114.39,01,,,,,,,대구광역시 달서구청,053-667-3017,2026-01-13
케이지모빌리티 달서서비스프라자,03,대구광역시 달서구 앞산순환로 283(송현동),,35.82731836,128.5586003,2001-08-27,145,01,,,,,,,대구광역시 달서구청,053-667-3017,2026-01-13
카포스동성카전문정비,03,대구광역시 달서구 상화북로 29(진천동),,35.81103628,128.5296935,2001-09-07,110,01,,,,,,,대구광역시 달서구청,053-667-3017,2026-01-13
동남광택크리닝세차본점,03,대구광역시 달서구 문화회관길 247(장동),,35.83976644,128.5245273,2001-11-22,142,01,,,,,,,대구광역시 달서구청,053-667-3017,2026-01-13
호돌이카랜드,03,대구광역시 달서구 월배로40길 6(상인동),,35.81772892,128.534718,2001-12-27,103.12,01,,,,,,,대구광역시 달서구청,053-667-3017,2026-01-13
대한정비,03,대구광역시 달서구 성서공단로11길 6(호림동),,35.83543083,128.4883145,2002-01-11,188,01,,,,,,,대구광역시 달서구청,053-667-3017,2026-01-13
현대부분정비,03,대구광역시 달서구 와룡로10길 69(본동),,35.83666439,128.5409219,2002-01-15,80,01,,,,,,,대구광역시 달서구청,053-667-3017,2026-01-13
금천카정비,03,대구광역시 달서구 월배로73길 13(송현동),,35.82766629,128.5477033,2002-04-20,97,01,,,,,,,대구광역시 달서구청,053-667-3017,2026-01-13
한국타이어 공단대리점,03,대구광역시 달서구 성서공단로15길 9(호림동),,35.83591905,128.490155,2002-05-13,149.1,01,,,,,,,대구광역시 달서구청,053-667-3017,2026-01-13
해성1급부분정비,03,대구광역시 달서구 월곡로26길 5(상인동),,35.80904808,128.548895,2002-05-22,77,01,,,,,,,대구광역시 달서구청,053-667-3017,2026-01-13
안동카전문정비,03,대구광역시 달서구 진천로16길 11(진천동),,35.81554116,128.523947,2002-05-23,80,01,,,,,,,대구광역시 달서구청,053-667-3017,2026-01-13
월드카부분정비,03,대구광역시 달서구 성지로16길 40(용산동),,35.85676457,128.5226799,2002-06-26,92.34,01,,,,,,,대구광역시 달서구청,053-667-3017,2026-01-13
안전카클리닉,03,대구광역시 달서구 새동네로 95(용산동),,35.85637682,128.5227216,2002-06-28,115,01,,,,,,,대구광역시 달서구청,053-667-3017,2026-01-13
이태호자동차병원,03,대구광역시 달서구 대명천로 38-6(성당동),,35.83887146,128.5551393,2002-07-24,75.4,01,,,,,,,대구광역시 달서구청,053-667-3017,2026-01-13
연화오토,03,대구광역시 달서구 호산동로 6-8(호림동),,35.83542821,128.4867427,2002-07-25,153,01,,,,,,,대구광역시 달서구청,053-667-3017,2026-01-13
88부분정비,03,대구광역시 달서구 장기로 53(성당동),,35.8427682,128.5544912,2002-08-03,135,01,,,,,,,대구광역시 달서구청,053-667-3017,2026-01-13
카포스진천카부분정비,03,"대구광역시 달서구 상화로9길 111, (상하로9길 111)(진천동)",,35.81305104,128.5203674,2002-08-06,88,01,,,,,,,대구광역시 달서구청,053-667-3017,2026-01-13
에센모터스,03,대구광역시 달서구 학산로 216(송현동),,35.83365002,128.5498673,2002-08-08,123,01,,,,,,,대구광역시 달서구청,053-667-3017,2026-01-13
영건카써비스,03,대구광역시 달서구 상화북로 27(진천동),,35.81088901,128.5293828,2002-08-21,102,01,,,,,,,대구광역시 달서구청,053-667-3017,2026-01-13
현대카토피아,03,대구광역시 달서구 대명천로8길 59(성당동),,35.84130187,128.5562298,2002-08-29,132,01,,,,,,,대구광역시 달서구청,053-667-3017,2026-01-13
대호카프라자,03,대구광역시 달서구 진천로 5(진천동),,35.80944599,128.5264962,2002-10-04,93,01,,,,,,,대구광역시 달서구청,053-667-3017,2026-01-13
화천카클리닉,03,대구광역시 달서구 선원로 29(신당동),,35.85948441,128.4956151,2002-10-11,77,01,,,,,,,대구광역시 달서구청,053-667-3017,2026-01-13
T스테이션 성서점,03,대구광역시 달서구 호산동로 10(호림동),,35.83591761,128.4860816,2002-11-04,486,01,,,,,,,대구광역시 달서구청,053-667-3017,2026-01-13
구마카경정비,03,대구광역시 달서구 대명천로 32(성당동),,35.83906621,128.5559044,2002-12-06,97.64,01,,,,,,,대구광역시 달서구청,053-667-3017,2026-01-13
제로카프라자,03,대구광역시 달서구 선원로 28(신당동),,35.85902585,128.4953465,2002-12-06,149.9,01,,,,,,,대구광역시 달서구청,053-667-3017,2026-01-13
유림카클리닉,03,대구광역시 달서구 선원로 284(용산동),,35.85855439,128.5235553,2003-04-03,116,01,,,,,,,대구광역시 달서구청,053-667-3017,2026-01-13
화성카1번지,03,대구광역시 달서구 구마로11길 75(본리동),,35.84088847,128.5337447,2003-04-09,145,01,,,,,,,대구광역시 달서구청,053-667-3017,2026-01-13
부광부분정비,03,대구광역시 달서구 용산로 57-1(장기동),,35.8425979,128.5303799,2003-04-23,71,01,,,,,,,대구광역시 달서구청,053-667-3017,2026-01-13
일석자동차,03,대구광역시 달서구 구마로12길 24(본동),,35.83618337,128.5337795,2003-05-07,94.4,01,,,,,,,대구광역시 달서구청,053-667-3017,2026-01-13
세운카센타,03,대구광역시 달서구 선원로 91-1(이곡동),,35.85938335,128.5025678,2003-06-24,71,01,,,,,,,대구광역시 달서구청,053-667-3017,2026-01-13
형제카부분정비손세차,03,대구광역시 달서구 와룡로 272(죽전동),,35.8571125,128.537751,2003-06-24,185,01,,,,,,,대구광역시 달서구청,053-667-3017,2026-01-13
스피드메이트 공단제일점,03,대구광역시 달서구 달서대로 455(호림동),,35.84002362,128.4914976,2003-07-18,81.68,01,,,,,,,대구광역시 달서구청,053-667-3017,2026-01-13
카맨샵죽전점,03,대구광역시 달서구 와룡로41길 35-6(죽전동),,35.85108637,128.5348982,2003-08-02,197,01,,,,,,,대구광역시 달서구청,053-667-3017,2026-01-13
대발이카센타,03,대구광역시 달서구 달서대로109안길 22(호산동),,35.84996061,128.4882378,2003-09-16,93,01,,,,,,,대구광역시 달서구청,053-667-3017,2026-01-13
기아카클리닉상인점,03,대구광역시 달서구 월곡로45길 6(상인동),,35.81490832,128.5406194,2003-09-24,194,01,,,,,,,대구광역시 달서구청,053-667-3017,2026-01-13
알투하우스,03,대구광역시 달서구 상인로 39-1(상인동),,35.81116529,128.5491033,2003-10-02,76.16,01,,,,,,,대구광역시 달서구청,053-667-3017,2026-01-13
우성카경정비,03,대구광역시 달서구 성서서로73길 16(신당동),,35.8574157,128.4989127,2003-11-19,264.42,01,,,,,,,대구광역시 달서구청,053-667-3017,2026-01-13
케이지모빌리티 성서서비스프라자,03,대구광역시 달서구 성서공단로11길 8(호림동),,35.83575525,128.4883276,2003-11-21,198,01,,,,,,,대구광역시 달서구청,053-667-3017,2026-01-13
한국지엠성서바로서비스,03,대구광역시 달서구 성서공단로 33(호림동),,35.83531369,128.486089,2003-12-06,182,01,,,,,,,대구광역시 달서구청,053-667-3017,2026-01-13
현대종합카부분정비,03,대구광역시 달서구 성당로 145(성당동),,35.84774532,128.5675892,2004-01-16,112,01,,,,,,,대구광역시 달서구청,053-667-3017,2026-01-13
드림자동차정비전문점365,03,대구광역시 달서구 성서공단로11길 44-5(호림동),,35.83915139,128.4887912,2004-01-20,98,01,,,,,,,대구광역시 달서구청,053-667-3017,2026-01-13
은성휠얼라이먼트,03,대구광역시 달서구 성서공단로 57(호림동),,35.83529355,128.4888228,2004-04-10,150,01,,,,,,,대구광역시 달서구청,053-667-3017,2026-01-13
럭키카경정비,03,대구광역시 달서구 명천로 12(대곡동),,35.8082893,128.5126239,2004-04-10,79,01,,,,,,,대구광역시 달서구청,053-667-3017,2026-01-13
25시카센타,03,대구광역시 달서구 성서서로 186(갈산동),,35.84163739,128.5001198,2004-04-16,166,01,,,,,,,대구광역시 달서구청,053-667-3017,2026-01-13
광명카클리닉,03,대구광역시 달서구 용산서로 46(용산동),,35.8573466,128.5256178,2004-04-20,105,03,2025-09-18,,,,,,대구광역시 달서구청,053-667-3017,2026-01-13
성주카센타,03,대구광역시 달서구 조암로20길 2(월암동),,35.82298327,128.5204767,2004-05-01,81.35,01,,,,,,,대구광역시 달서구청,053-667-3017,2026-01-13
삼우카정비,03,대구광역시 달서구 월곡로100길 54(월성동),,35.83418009,128.524092,2004-05-04,341.1,01,,,,,,,대구광역시 달서구청,053-667-3017,2026-01-13
로드맨카부분정비,03,대구광역시 달서구 월배로85길 30(송현동),,35.83331003,128.5512818,2004-05-18,104,01,,,,,,,대구광역시 달서구청,053-667-3017,2026-01-13
월배오토카프라자,03,대구광역시 달서구 당산로 147(감삼동),,35.85020221,128.5470702,2004-05-25,87.6,01,,,,,,,대구광역시 달서구청,053-667-3017,2026-01-13
부광카클리닉,03,대구광역시 달서구 선원로 26(신당동),,35.85902662,128.4951583,2004-07-19,134,01,,,,,,,대구광역시 달서구청,053-667-3017,2026-01-13
중앙카서비스,03,대구광역시 달서구 감삼남4길 27(감삼동),,35.84750066,128.5425681,2004-08-12,95,01,,,,,,,대구광역시 달서구청,053-667-3017,2026-01-13
제이앤제이모터스,03,대구광역시 달서구 달서대로85길 21(호림동),,35.83704917,128.4893096,2004-09-17,103.5,01,,,,,,,대구광역시 달서구청,053-667-3017,2026-01-13
천일오토부분정비,03,대구광역시 달서구 비슬로 2682(대곡동),,35.80767366,128.5090349,2004-10-25,152,01,,,,,,,대구광역시 달서구청,053-667-3017,2026-01-13
나이스부분정비,03,대구광역시 달서구 성서공단로11길 44-11(호림동),,35.83898297,128.489345,2004-12-02,357,01,,,,,,,대구광역시 달서구청,053-667-3017,2026-01-13
레몬카써비스,03,대구광역시 달서구 호산동로36남길 26(호산동),,35.84996637,128.4868207,2004-12-15,112,01,,,,,,,대구광역시 달서구청,053-667-3017,2026-01-13
해피카오토써비스,03,대구광역시 달서구 상화로 26-7(대곡동),,35.80894594,128.5171317,2004-12-18,106,01,,,,,,,대구광역시 달서구청,053-667-3017,2026-01-13
대경카센타,03,대구광역시 달서구 상화북로 58(진천동),,35.81175409,128.5324647,2004-12-18,373,01,,,,,,,대구광역시 달서구청,053-667-3017,2026-01-13
오토오아시스상인점,03,"대구광역시 달서구 상화북로 196, 105동 103호(상인동, 제림상가)",,35.81262039,128.5482392,2004-12-21,74,01,,,,,,,대구광역시 달서구청,053-667-3017,2026-01-13
조성국카부분정비,03,대구광역시 달서구 야외음악당로 8(성당동),,35.8379019,128.5531843,2005-01-18,170,01,,,,,,,대구광역시 달서구청,053-667-3017,2026-01-13
조이카클리닉,03,대구광역시 달서구 구마로 76(본동),,35.83704844,128.5358442,2005-02-05,87.6,01,,,,,,,대구광역시 달서구청,053-667-3017,2026-01-13
스피드메이트 이마트월배점,03,대구광역시 달서구 진천로 92(대천동),,35.81718285,128.523659,2005-03-31,177.19,01,,,,,,,대구광역시 달서구청,053-667-3017,2026-01-13
꼬마자동차부분정비,03,대구광역시 달서구 명천로 32(대곡동),,35.806561,128.5120927,2005-03-31,80,01,,,,,,,대구광역시 달서구청,053-667-3017,2026-01-13
스피드메이트이곡점,03,대구광역시 달서구 달구벌대로 1176(신당동),,35.85117313,128.4958621,2005-04-18,168,01,,,,,,,대구광역시 달서구청,053-667-3017,2026-01-13
광림카클리닉,03,대구광역시 달서구 상화로 195(상인동),,35.81028165,128.5352212,2005-04-26,178,01,,,,,,,대구광역시 달서구청,053-667-3017,2026-01-13
명종모터스,03,대구광역시 달서구 상화로 155(진천동),,35.8100493,128.530716,2005-05-21,181,01,,,,,,,대구광역시 달서구청,053-667-3017,2026-01-13
대한모터스,03,대구광역시 달서구 앞산순환로 181(송현동),,35.8206972,128.5512386,2005-05-21,100.19,01,,,,,,,대구광역시 달서구청,053-667-3017,2026-01-13
대웅카서비스,03,대구광역시 달서구 평리로 104(죽전동),,35.85838325,128.5357666,2005-05-25,135,01,,,,,,,대구광역시 달서구청,053-667-3017,2026-01-13
한타광영대리점카센타,03,대구광역시 달서구 문화회관5길 39(장기동),,35.84110122,128.5222779,2005-06-27,280,03,2024-12-27,,,,,,대구광역시 달서구청,053-667-3017,2026-01-13
뉴현대부분정비,03,대구광역시 달서구 달구벌대로301길 34-3(용산동),,35.85135061,128.5322318,2005-06-28,115,01,,,,,,,대구광역시 달서구청,053-667-3017,2026-01-13
오토오아시스 대천점,03,대구광역시 달서구 진천로 87(대천동),,35.81622342,128.5225129,2005-07-06,119,01,,,,,,,대구광역시 달서구청,053-667-3017,2026-01-13
성일카부분정비,03,대구광역시 달서구 용산서로 78-1(용산동),,35.85435423,128.525609,2005-08-02,110.2,01,,,,,,,대구광역시 달서구청,053-667-3017,2026-01-13
경원카플러스,03,대구광역시 달서구 성서로72길 65(갈산동),,35.84950443,128.5111738,2005-08-22,93,01,,,,,,,대구광역시 달서구청,053-667-3017,2026-01-13
하진카클리닉,03,대구광역시 달서구 상화로7길 100(진천동),,35.80912471,128.5237056,2005-08-25,99.8,01,,,,,,,대구광역시 달서구청,053-667-3017,2026-01-13
타이어프로 성서점,03,대구광역시 달서구 선원로 280(용산동),,35.85856447,128.5233118,2005-11-11,89.4,01,,,,,,,대구광역시 달서구청,053-667-3017,2026-01-13
광장카정비,03,대구광역시 달서구 선원로 185-1(이곡동),,35.85923113,128.5129637,2005-12-13,78,01,,,,,,,대구광역시 달서구청,053-667-3017,2026-01-13
화진카센터,03,대구광역시 달서구 달서대로109안길 26(호산동),,35.84996336,128.4875625,2006-01-06,100.52,01,,,,,,,대구광역시 달서구청,053-667-3017,2026-01-13
세원모터스,03,대구광역시 달서구 대명천로 230(장기동),,35.84212619,128.5351146,2006-01-16,149.2,01,,,,,,,대구광역시 달서구청,053-667-3017,2026-01-13
대성카부분정비,03,대구광역시 달서구 장기로 202(감삼동),,35.84380637,128.5383141,2006-01-23,95,01,,,,,,,대구광역시 달서구청,053-667-3017,2026-01-13
프로미카월드 대구성서점,03,대구광역시 달서구 달구벌대로 1170(신당동),,35.85111261,128.4952418,2006-01-26,161.5,01,,,,,,,대구광역시 달서구청,053-667-3017,2026-01-13
로얄오토미션,03,대구광역시 달서구 문화회관5길 63(장기동),,35.84034865,128.5212325,2006-02-10,117.88,01,,,,,,,대구광역시 달서구청,053-667-3017,2026-01-13
대명카서비스센터,03,대구광역시 달서구 달구벌대로304길 93(장기동),,35.84558942,128.5326139,2006-02-10,164.49,01,,,,,,,대구광역시 달서구청,053-667-3017,2026-01-13
중원자동차정비,03,대구광역시 달서구 성서로72길 39(이곡동),,35.84951943,128.5097679,2006-02-17,91,01,,,,,,,대구광역시 달서구청,053-667-3017,2026-01-13
최백균카랜드,03,대구광역시 달서구 성서4차첨단로 292(월암동),,35.82451368,128.5146432,2006-02-20,98.61,01,,,,,,,대구광역시 달서구청,053-667-3017,2026-01-13
스카이카서비스,03,대구광역시 달서구 성서공단로 63(호림동),,35.8353086,128.4895535,2006-03-06,150.37,01,,,,,,,대구광역시 달서구청,053-667-3017,2026-01-13
청구카서비스,03,대구광역시 달서구 월배로5길 5(유천동),,35.81233577,128.5169435,2006-03-31,178,01,,,,,,,대구광역시 달서구청,053-667-3017,2026-01-13
프로미카월드 대구성서공단점,03,대구광역시 달서구 성서4차첨단로 111(대천동),,35.82499066,128.5127094,2006-05-08,199.15,01,,,,,,,대구광역시 달서구청,053-667-3017,2026-01-13
에코카랜드,03,대구광역시 달서구 파도고개로 248(두류동),,35.85932067,128.5651918,2006-05-08,90.96,01,,,,,,,대구광역시 달서구청,053-667-3017,2026-01-13
신본리카센타,03,대구광역시 달서구 장기로 51(성당동),,35.84254979,128.5549436,2006-06-08,124.5,01,,,,,,,대구광역시 달서구청,053-667-3017,2026-01-13
국제카부분정비,03,대구광역시 달서구 새동네로 103(용산동),,35.85700676,128.5229472,2006-06-09,78.46,01,,,,,,,대구광역시 달서구청,053-667-3017,2026-01-13
공임천국범양카TBO 하이카프라자,03,대구광역시 달서구 상화로 143(진천동),,35.80995608,128.5293765,2006-06-14,182.07,01,,,,,,,대구광역시 달서구청,053-667-3017,2026-01-13
안심카클리닉,03,대구광역시 달서구 달서대로91길 21(호림동),,35.83930298,128.4891907,2006-06-14,101.85,01,,,,,,,대구광역시 달서구청,053-667-3017,2026-01-13
한솔카서비스,03,대구광역시 달서구 구마로14북길 52(본동),,35.8362435,128.5324184,2006-06-14,199.47,01,,,,,,,대구광역시 달서구청,053-667-3017,2026-01-13
골든카프라자,03,대구광역시 달서구 구마로46길 49(송현동),,35.83473555,128.5529298,2006-07-14,189,01,,,,,,,대구광역시 달서구청,053-667-3017,2026-01-13
진성카클리닉,03,대구광역시 달서구 상화로 65-20(진천동),,35.80881804,128.5216897,2006-07-19,71.6,01,,,,,,,대구광역시 달서구청,053-667-3017,2026-01-13
용정카부분정비,03,대구광역시 달서구 죽전길 75(죽전동),,35.85512805,128.5400958,2006-07-19,72,01,,,,,,,대구광역시 달서구청,053-667-3017,2026-01-13
스마일자동차정비,03,대구광역시 달서구 월암로 88(월암동),,35.82467711,128.5143675,2006-08-29,112.25,01,,,,,,,대구광역시 달서구청,053-667-3017,2026-01-13
대진셀프세차장,03,대구광역시 달서구 성당로 143(성당동),,35.84772887,128.567257,2006-08-29,78,01,,,,,,,대구광역시 달서구청,053-667-3017,2026-01-13
하나로카랜드,03,대구광역시 달서구 장기로 261(장기동),,35.8433134,128.5316355,2006-08-30,76,01,,,,,,,대구광역시 달서구청,053-667-3017,2026-01-13
송현중부점 현대자동차,03,대구광역시 달서구 송현로 14(송현동),,35.82117396,128.5502237,2006-09-28,701.9,01,,,,,,,대구광역시 달서구청,053-667-3017,2026-01-13
진천점현대자동차,03,대구광역시 달서구 상화로 167(진천동),,35.81010543,128.5322877,2006-09-28,265.54,01,,,,,,,대구광역시 달서구청,053-667-3017,2026-01-13
도원카써비스,03,대구광역시 달서구 월곡로 109(도원동),,35.80700009,128.549329,2006-10-13,83,01,,,,,,,대구광역시 달서구청,053-667-3017,2026-01-13
카매니져,03,대구광역시 달서구 성서4차첨단로 169(월암동),,35.82889329,128.5169404,2006-10-30,71,01,,,,,,,대구광역시 달서구청,053-667-3017,2026-01-13
H모터스,03,대구광역시 달서구 성서동로 309-1(장기동),,35.84843103,128.515573,2006-11-01,103.2,01,,,,,,,대구광역시 달서구청,053-667-3017,2026-01-13
유성카1급서비스,03,대구광역시 달서구 상화북로 77(상인동),,35.81177113,128.5347111,2006-11-01,174.19,01,,,,,,,대구광역시 달서구청,053-667-3017,2026-01-13
동교카부분정비,03,대구광역시 달서구 성서4차첨단로 122-6(월암동),,35.82508431,128.5139939,2006-11-01,170.84,01,,,,,,,대구광역시 달서구청,053-667-3017,2026-01-13
남북1급카서비스,03,대구광역시 달서구 상화북로 40(진천동),,35.81117584,128.5307457,2006-11-17,134.2,01,,,,,,,대구광역시 달서구청,053-667-3017,2026-01-13
조은카클리닉,03,대구광역시 달서구 서당로 66(신당동),,35.85767096,128.4960467,2006-11-29,128.79,01,,,,,,,대구광역시 달서구청,053-667-3017,2026-01-13
본리점 기아오토큐,03,대구광역시 달서구 용산로 14-1(본리동),,35.83869212,128.5310622,2006-12-04,174,01,,,,,,,대구광역시 달서구청,053-667-3017,2026-01-13
블루핸즈 월암점,03,대구광역시 달서구 월암로 56(월암동),,35.82505817,128.5137834,2006-12-08,225.86,01,,,,,,,대구광역시 달서구청,053-667-3017,2026-01-13
카포스정성카전문정비,03,대구광역시 달서구 새동네로 77(용산동),,35.85487396,128.5221803,2006-12-21,86,01,,,,,,,대구광역시 달서구청,053-667-3017,2026-01-13
유천자동차정비,03,대구광역시 달서구 달서대로 26(유천동),,35.81233994,128.5138783,2007-01-19,171.9,01,,,,,,,대구광역시 달서구청,053-667-3017,2026-01-13
영호카센타,03,대구광역시 달서구 와룡로45안길 30(용산동),,35.85196325,128.5322913,2007-02-13,114.44,01,,,,,,,대구광역시 달서구청,053-667-3017,2026-01-13
뉴현대카정비센터,03,대구광역시 달서구 상화로15길 17(진천동),,35.80874323,128.5223089,2007-03-05,94.42,01,,,,,,,대구광역시 달서구청,053-667-3017,2026-01-13
RT모터스,03,대구광역시 달서구 상화북로 18(진천동),,35.81011257,128.5286362,2007-03-10,92.4,01,,,,,,,대구광역시 달서구청,053-667-3017,2026-01-13
송정카프라자,03,대구광역시 달서구 월배로74길 35(송현동),,35.82687717,128.5507059,2007-03-20,80.76,01,,,,,,,대구광역시 달서구청,053-667-3017,2026-01-13
삼부부분정비,03,대구광역시 달서구 새동네로 61(용산동),,35.85348889,128.5214958,2007-03-23,76,01,,,,,,,대구광역시 달서구청,053-667-3017,2026-01-13
조은카센타,03,"대구광역시 달서구 장기로 83, 103동(성당동)",,35.84314266,128.5514717,2007-04-23,83.1,01,,,,,,,대구광역시 달서구청,053-667-3017,2026-01-13
베스트정비,03,대구광역시 달서구 중흥로 57(송현동),,35.82942993,128.5580728,2007-05-02,97,01,,,,,,,대구광역시 달서구청,053-667-3017,2026-01-13
문산카센터 대구점,03,대구광역시 달서구 성서로35길 3(월암동),,35.83227264,128.5065359,2007-05-31,29.64,01,,,,,,,대구광역시 달서구청,053-667-3017,2026-01-13
현대블루정비,03,대구광역시 달서구 와룡로48길 5(죽전동),,35.85372262,128.5379495,2007-06-07,95.88,01,,,,,,,대구광역시 달서구청,053-667-3017,2026-01-13
세븐마스타,03,대구광역시 달서구 성서공단로11길 64-7(호산동),,35.84111525,128.4890468,2007-06-18,130.36,01,,,,,,,대구광역시 달서구청,053-667-3017,2026-01-13
카포스자동차병원,03,대구광역시 달서구 성서동로 316(장기동),,35.84886194,128.5159744,2007-06-18,82.8,01,,,,,,,대구광역시 달서구청,053-667-3017,2026-01-13
하늘카부분정비,03,대구광역시 달서구 조암로 89-12(월성동),,35.82211527,128.5211018,2007-06-18,120.96,01,,,,,,,대구광역시 달서구청,053-667-3017,2026-01-13
무주지포트 대구달서구점,03,대구광역시 달서구 달서대로 27(유천동),,35.81200047,128.5131679,2007-06-21,98.4,01,,,,,,,대구광역시 달서구청,053-667-3017,2026-01-13
그린카센타,03,대구광역시 달서구 달서대로95길 50(호산동),,35.84230767,128.486176,2007-07-05,126,01,,,,,,,대구광역시 달서구청,053-667-3017,2026-01-13
대하타이어 신당점,03,대구광역시 달서구 달구벌대로 1192(신당동),,35.85129133,128.4977893,2007-09-07,215.25,01,,,,,,,대구광역시 달서구청,053-667-3017,2026-01-13
신당중부점현대자동차,03,대구광역시 달서구 달구벌대로 1206(신당동),,35.85136627,128.4992732,2007-09-18,436,01,,,,,,,대구광역시 달서구청,053-667-3017,2026-01-13
오토맥스,03,대구광역시 달서구 대명천로 26(성당동),,35.83910036,128.5563142,2007-09-18,72,01,,,,,,,대구광역시 달서구청,053-667-3017,2026-01-13
대길카전문정비,03,대구광역시 달서구 달서대로 30(유천동),,35.81264833,128.5134266,2007-10-15,135.25,01,,,,,,,대구광역시 달서구청,053-667-3017,2026-01-13
차프로모터스,03,대구광역시 달서구 와룡로 237(죽전동),,35.85400684,128.5368775,2007-10-22,96.06,01,,,,,,,대구광역시 달서구청,053-667-3017,2026-01-13
월드카부분정비,03,대구광역시 달서구 당산로 136(성당동),,35.84882372,128.5469458,2007-11-01,101.88,01,,,,,,,대구광역시 달서구청,053-667-3017,2026-01-13
뉴대구모터스,03,대구광역시 달서구 학산로50길 7(송현동),,35.83339224,128.5530842,2000-11-21,93.5,01,,,,,,,대구광역시 달서구청,053-667-3017,2026-01-13
장안카정비,03,대구광역시 달서구 상화북로 30(진천동),,35.81077475,128.529725,2007-11-29,132,01,,,,,,,대구광역시 달서구청,053-667-3017,2026-01-13
르노코리아 서비스코너 상인점,03,대구광역시 달서구 월곡로45길 5(상인동),,35.814718,128.5408505,2007-12-07,222.18,01,,,,,,,대구광역시 달서구청,053-667-3017,2026-01-13
영남카센타,03,대구광역시 달서구 조암남로6길 34-4(월성동),,35.82287899,128.5278357,2007-12-21,88.5,01,,,,,,,대구광역시 달서구청,053-667-3017,2026-01-13
창평카써비스,03,대구광역시 달서구 상인서로 8-3(상인동),,35.81216633,128.5470077,2007-12-26,95.6,03,2023-11-03,,,,,,대구광역시 달서구청,053-667-3017,2026-01-13
영성카부분정비,03,대구광역시 달서구 감삼북길 88(감삼동),,35.85213704,128.5437733,2007-12-26,104,01,,,,,,,대구광역시 달서구청,053-667-3017,2026-01-13
한길모터스,03,대구광역시 달서구 대명천로 30(성당동),,35.8390025,128.5560368,2008-01-08,104.79,01,,,,,,,대구광역시 달서구청,053-667-3017,2026-01-13
범양카(본동점),03,대구광역시 달서구 와룡로 25(본동),,35.83478266,128.5366148,2008-01-14,127,01,,,,,,,대구광역시 달서구청,053-667-3017,2026-01-13
두리카프라자,03,대구광역시 달서구 호산동로 160(호산동),,35.84939976,128.4860534,2008-04-08,219,01,,,,,,,대구광역시 달서구청,053-667-3017,2026-01-13
동경카부분정비,03,대구광역시 달서구 월배로68길 43(송현동),,35.82445056,128.549184,2008-04-18,77,01,,,,,,,대구광역시 달서구청,053-667-3017,2026-01-13
카매니져,03,대구광역시 달서구 월배로40길 133(상인동),,35.8139384,128.5398382,2008-05-15,198.81,01,,,,,,,대구광역시 달서구청,053-667-3017,2026-01-13
JR모터스,03,대구광역시 달서구 조암로 89(월성동),,35.8224864,128.5207391,2008-06-03,135.27,01,,,,,,,대구광역시 달서구청,053-667-3017,2026-01-13
현카클리닉,03,대구광역시 달서구 선원로 53(신당동),,35.85941964,128.4981945,2008-06-13,78.96,01,,,,,,,대구광역시 달서구청,053-667-3017,2026-01-13
월드카부분정비,03,대구광역시 달서구 용산로12길 6(장기동),,35.84238747,128.5310869,2008-06-27,87.96,01,,,,,,,대구광역시 달서구청,053-667-3017,2026-01-13
대경정비센타,03,대구광역시 달서구 송현로 147(송현동),,35.83052928,128.5444113,2008-06-30,163.1,01,,,,,,,대구광역시 달서구청,053-667-3017,2026-01-13
카포스 우방카,03,대구광역시 달서구 성서공단로 307(장동),,35.83660223,128.5163486,2008-07-17,74,01,,,,,,,대구광역시 달서구청,053-667-3017,2026-01-13
구마카,03,대구광역시 달서구 죽전길 62-6(죽전동),,35.85428869,128.5403448,2008-07-23,97.4,01,,,,,,,대구광역시 달서구청,053-667-3017,2026-01-13
명성모터스,03,대구광역시 달서구 진천로23길 21(대천동),,35.81735468,128.521458,2008-08-18,85.42,01,,,,,,,대구광역시 달서구청,053-667-3017,2026-01-13
금강카정비센타,03,대구광역시 달서구 성서공단로11길 5(호림동),,35.83544191,128.4878054,2008-08-22,90,01,,,,,,,대구광역시 달서구청,053-667-3017,2026-01-13
스피드메이트 수목원점,03,대구광역시 달서구 상화로 99(진천동),,35.80839989,128.5245639,2008-08-25,119.14,01,,,,,,,대구광역시 달서구청,053-667-3017,2026-01-13
한국타이어월배대리점,03,대구광역시 달서구 조암로 80(월성동),,35.82334751,128.5216965,2008-08-25,294,01,,,,,,,대구광역시 달서구청,053-667-3017,2026-01-13
미소카서비스,03,대구광역시 달서구 월곡로27길 19(상인동),,35.80912299,128.5463118,2008-10-06,81.62,01,,,,,,,대구광역시 달서구청,053-667-3017,2026-01-13
대성카서비스,03,대구광역시 달서구 감삼남길 39(감삼동),,35.84786666,128.5393601,2008-10-08,97.6,01,,,,,,,대구광역시 달서구청,053-667-3017,2026-01-13
영지카센타,03,대구광역시 달서구 달구벌대로301길 42(용산동),,35.85170251,128.5321456,2008-11-05,92.56,01,,,,,,,대구광역시 달서구청,053-667-3017,2026-01-13
청구1급카써비스,03,대구광역시 달서구 진천로 14(진천동),,35.81017629,128.5264457,2008-11-20,155.33,01,,,,,,,대구광역시 달서구청,053-667-3017,2026-01-13
대곡종합카센타,03,대구광역시 달서구 미리샘길 7(도원동),,35.80716271,128.5433108,2008-11-25,118.63,01,,,,,,,대구광역시 달서구청,053-667-3017,2026-01-13
오토피아,03,대구광역시 달서구 학산로7안길 83-9(본동),,35.83632076,128.5292203,2008-12-17,83,01,,,,,,,대구광역시 달서구청,053-667-3017,2026-01-13
KTSA누리카서비스,03,대구광역시 달서구 상원로 180-18(월성동),,35.82351814,128.528017,2008-12-30,462,01,,,,,,,대구광역시 달서구청,053-667-3017,2026-01-13
청구1급카서비스다사점,03,대구광역시 달서구 달구벌대로199길 3(파호동),,35.85352331,128.4764354,2009-02-26,137.05,01,,,,,,,대구광역시 달서구청,053-667-3017,2026-01-13
가야1급부분정비센터,03,대구광역시 달서구 월배로 409(송현동),,35.83107404,128.5514323,2009-03-24,102,01,,,,,,,대구광역시 달서구청,053-667-3017,2026-01-13
오토오아시스 대구대곡점,03,대구광역시 달서구 상화로 302(도원동),,35.80787758,128.5466574,2009-04-09,85.45,01,,,,,,,대구광역시 달서구청,053-667-3017,2026-01-13
오토오아시스 성서점,03,대구광역시 달서구 달구벌대로 1270(이곡동),,35.85146427,128.505994,2009-04-09,172.8,01,,,,,,,대구광역시 달서구청,053-667-3017,2026-01-13
오토오아시스대림공단점,03,대구광역시 달서구 달서대로 403(호림동),,35.83522105,128.4911247,2009-04-09,84.5,01,,,,,,,대구광역시 달서구청,053-667-3017,2026-01-13
미스터카모터스,03,"대구광역시 달서구 성서공단로 45, 206동(호림동)",,35.83532582,128.4875391,2009-05-15,129.6,01,,,,,,,대구광역시 달서구청,053-667-3017,2026-01-13
도움모터스,03,대구광역시 달서구 호산동로 152(호산동),,35.84886983,128.4860612,2009-05-22,162,01,,,,,,,대구광역시 달서구청,053-667-3017,2026-01-13
MB PRO MOTORS,03,대구광역시 달서구 와룡로 7(본동),,35.83333665,128.5374794,2009-07-17,112,01,,,,,,,대구광역시 달서구청,053-667-3017,2026-01-13
죽전자동차정비,03,대구광역시 달서구 와룡로 247(죽전동),,35.85489902,128.5369057,2009-08-25,154.2,01,,,,,,,대구광역시 달서구청,053-667-3017,2026-01-13
모든타이어,03,대구광역시 달서구 성서동로65길 23(이곡동),,35.85005785,128.5145429,2009-08-31,116,01,,,,,,,대구광역시 달서구청,053-667-3017,2026-01-13
오토오아시스 홈플러스성서점,03,대구광역시 달서구 달구벌대로 1467(용산동),,35.84945213,128.5274033,2009-09-09,150.4,01,,,,,,,대구광역시 달서구청,053-667-3017,2026-01-13
해동카크리닉,03,대구광역시 달서구 감삼남길 66(감삼동),,35.84814007,128.5406904,2009-10-01,70,01,,,,,,,대구광역시 달서구청,053-667-3017,2026-01-13
한국부분정비,03,대구광역시 달서구 대명천로12길 11(성당동),,35.83885205,128.5534898,2009-11-13,113,01,,,,,,,대구광역시 달서구청,053-667-3017,2026-01-13
한국타이어상진대리점,03,대구광역시 달서구 달서대로 62(유천동),,35.81426481,128.5105931,2009-12-01,134.55,01,,,,,,,대구광역시 달서구청,053-667-3017,2026-01-13
신진카부분정비,03,대구광역시 달서구 월배로28길 97(상인동),,35.81303828,128.5335246,2009-12-08,109.16,01,,,,,,,대구광역시 달서구청,053-667-3017,2026-01-13
한독오토미션,03,대구광역시 달서구 달구벌대로 1374(장기동),,35.85015227,128.5177319,2009-12-18,148,01,,,,,,,대구광역시 달서구청,053-667-3017,2026-01-13
레디카서비스,03,대구광역시 달서구 송현로 129(송현동),,35.82914323,128.5439701,2009-12-24,86,01,,,,,,,대구광역시 달서구청,053-667-3017,2026-01-13
카포스 성룡카전문정비,03,대구광역시 달서구 송현로 82(송현동),,35.8247345,128.5442388,2010-01-05,375.3,01,,,,,,,대구광역시 달서구청,053-667-3017,2026-01-13
공임나라 성서공단점,03,대구광역시 달서구 달서대로109안길 49(호산동),,35.84961232,128.4852244,2010-02-23,259.66,01,,,,,,,대구광역시 달서구청,053-667-3017,2026-01-13
애니카랜드상인점,03,대구광역시 달서구 월곡로 148(상인동),,35.81011055,128.5471706,2010-02-24,82,01,,,,,,,대구광역시 달서구청,053-667-3017,2026-01-13
신당점기아오토큐,03,대구광역시 달서구 달구벌대로 1204(신당동),,35.85143898,128.499094,2010-04-14,245.42,01,,,,,,,대구광역시 달서구청,053-667-3017,2026-01-13
태일카센타,03,대구광역시 달서구 성서공단로 343(장동),,35.8375678,128.5202512,2010-04-20,129.6,01,,,,,,,대구광역시 달서구청,053-667-3017,2026-01-13
고도카클리닉,03,대구광역시 달서구 파도고개로 14(두류동),,35.85164964,128.5729423,2010-07-13,93.02,01,,,,,,,대구광역시 달서구청,053-667-3017,2026-01-13
행복한자동차,03,대구광역시 달서구 송현로 143(송현동),,35.83031296,128.5444098,2010-10-12,117.8,01,,,,,,,대구광역시 달서구청,053-667-3017,2026-01-13
광명모터스,03,대구광역시 달서구 성서공단로22안길 10-1(월암동),,35.83406662,128.4956779,2010-10-19,125.15,01,,,,,,,대구광역시 달서구청,053-667-3017,2026-01-13
성서종합카센타,03,대구광역시 달서구 달구벌대로 999(호산동),,35.85343217,128.4766895,2010-11-15,80.25,01,,,,,,,대구광역시 달서구청,053-667-3017,2026-01-13
공임나라 대구두류점,03,대구광역시 달서구 야외음악당로 165(두류동),,35.85142354,128.5539317,2010-12-06,166.4,01,,,,,,,대구광역시 달서구청,053-667-3017,2026-01-13
달서카모터스,03,대구광역시 달서구 월곡로51길 88(상인동),,35.81454311,128.5356372,2010-12-07,76.29,01,,,,,,,대구광역시 달서구청,053-667-3017,2026-01-13
용성카클리닉,03,대구광역시 달서구 달서대로95길 5-14(호산동),,35.84067538,128.4908153,2010-12-15,146.15,01,,,,,,,대구광역시 달서구청,053-667-3017,2026-01-13
스피드메이트  해피오토송현점,03,대구광역시 달서구 구마로 219(성당동),,35.83746335,128.5516759,2010-12-15,110.25,01,,,,,,,대구광역시 달서구청,053-667-3017,2026-01-13
국제카서비스,03,대구광역시 달서구 달구벌대로301길 154(용산동),,35.85664376,128.5317026,2010-12-21,86.5,01,,,,,,,대구광역시 달서구청,053-667-3017,2026-01-13
진모터스,03,대구광역시 달서구 성서서로36길 3(갈산동),,35.84070338,128.5003353,2010-12-31,134.68,01,,,,,,,대구광역시 달서구청,053-667-3017,2026-01-13
네바퀴타이어,03,대구광역시 달서구 대명천로 48(성당동),,35.83858714,128.5542517,2011-02-23,112.25,01,,,,,,,대구광역시 달서구청,053-667-3017,2026-01-13
세븐모터스,03,대구광역시 달서구 평리로 136(죽전동),,35.85852058,128.5393106,2011-04-01,184,01,,,,,,,대구광역시 달서구청,053-667-3017,2026-01-13
타이어365플러스 성서공단점,03,대구광역시 달서구 달서대로85길 31(호림동),,35.83704426,128.4882971,2011-08-19,161.2,01,,,,,,,대구광역시 달서구청,053-667-3017,2026-01-13
합천카전문정비,03,대구광역시 달서구 상화로9길 26(진천동),,35.80934911,128.5197789,2011-08-23,82.65,01,,,,,,,대구광역시 달서구청,053-667-3017,2026-01-13
영주카부분정비,03,대구광역시 달서구 성서4차첨단로 108-13(대천동),,35.82416659,128.5136116,2011-10-31,146.4,01,,,,,,,대구광역시 달서구청,053-667-3017,2026-01-13
카맨샵 라인모터스 본동점,03,대구광역시 달서구 학산로7길 88(본동),,35.83597959,128.5309556,2011-11-01,97.9,01,,,,,,,대구광역시 달서구청,053-667-3017,2026-01-13
타이어메카 달서점,03,대구광역시 달서구 조암로 71(월성동),,35.82319068,128.5225255,2012-02-23,106.89,01,,,,,,,대구광역시 달서구청,053-667-3017,2026-01-13
명성카써비스,03,대구광역시 달서구 월배로 153(진천동),,35.81658378,128.5307596,2012-03-08,100.8,01,,,,,,,대구광역시 달서구청,053-667-3017,2026-01-13
경북모터스,03,대구광역시 달서구 성서공단로 362-6(월성동),,35.83609627,128.5228649,2012-05-17,109.75,01,,,,,,,대구광역시 달서구청,053-667-3017,2026-01-13
ACRO Motors,03,대구광역시 달서구 송현로 22(송현동),,35.82152958,128.5493298,2012-05-29,86.06,01,,,,,,,대구광역시 달서구청,053-667-3017,2026-01-13
신대구카정비센터,03,대구광역시 달서구 월곡로99길 29,,35.83188727,128.5207453,2012-07-13,148.83,01,,,,,,,대구광역시 달서구청,053-667-3017,2026-01-13
제일카마스타,03,대구광역시 달서구 달서대로 80(유천동),,35.81523655,128.508873,2012-09-12,102.4,01,,,,,,,대구광역시 달서구청,053-667-3017,2026-01-13
용아모터스,03,대구광역시 달서구 당산로 116(성당동),,35.84746811,128.5457672,2012-09-18,96.8,01,,,,,,,대구광역시 달서구청,053-667-3017,2026-01-13
르노코리아 서비스코너 신당점,03,대구광역시 달서구 달구벌대로 1178(신당동),,35.85114527,128.4960612,2012-12-21,443,01,,,,,,,대구광역시 달서구청,053-667-3017,2026-01-13
카카카센터,03,대구광역시 달서구 평리로 68(용산동),,35.85853551,128.5319367,2013-01-16,202.8,01,,,,,,,대구광역시 달서구청,053-667-3017,2026-01-13
르노코리아 서비스코너 대구죽전점,03,대구광역시 달서구 와룡로 244(죽전동),,35.85459787,128.537734,2013-02-05,406.6,01,,,,,,,대구광역시 달서구청,053-667-3017,2026-01-13
현진카서비스,03,대구광역시 달서구 파도고개로 41(성당동),,35.85253862,128.571753,2013-02-14,118.35,01,,,,,,,대구광역시 달서구청,053-667-3017,2026-01-13
타이어프로 유천교점,03,대구광역시 달서구 달서대로 78-1,,35.81508281,128.5089938,2013-04-05,111.6,01,,,,,,,대구광역시 달서구청,053-667-3017,2026-01-13
현대자동차 블루핸즈 용산점,03,대구광역시 달서구 새방로 28(용산동),,35.86113849,128.5221108,2013-04-09,605.4,01,,,,,,,대구광역시 달서구청,053-667-3017,2026-01-13
남대구 붐 모터스,03,대구광역시 달서구 월곡로99길 19(월성동),,35.83258711,128.5214804,2013-05-10,145.14,01,,,,,,,대구광역시 달서구청,053-667-3017,2026-01-13
성원모터스,03,대구광역시 달서구 대명천로 85(성당동),,35.83901944,128.5504137,2013-06-24,95.04,01,,,,,,,대구광역시 달서구청,053-667-3017,2026-01-13
대화모터스,03,대구광역시 달서구 월곡로99길 15(월성동),,35.83286522,128.5217811,2013-07-03,138.6,01,,,,,,,대구광역시 달서구청,053-667-3017,2026-01-13
에스와이에스 모터스,03,대구광역시 달서구 와룡로 235(죽전동),,35.85375447,128.5369184,2013-09-03,336.4,01,,,,,,,대구광역시 달서구청,053-667-3017,2026-01-13
우리카센터,03,대구광역시 달서구 월곡로100길 6(월성동),,35.83441791,128.5232966,2014-01-16,71.7,01,,,,,,,대구광역시 달서구청,053-667-3017,2026-01-13
신원모터스,03,대구광역시 달서구 문화회관11길 82(장기동),,35.84316232,128.5250147,2014-03-07,581,01,,,,,,,대구광역시 달서구청,053-667-3017,2026-01-13
대구종합타이어,03,대구광역시 달서구 성서공단로 331(장동),,35.83705896,128.5191188,2014-03-17,301.4,01,,,,,,,대구광역시 달서구청,053-667-3017,2026-01-13
유니모터스,03,대구광역시 달서구 달서대로 23(유천동),,35.81160361,128.5132317,2014-07-22,249.12,01,,,,,,,대구광역시 달서구청,053-667-3017,2026-01-13
모토리스트,03,"대구광역시 달서구 달서대로 88-1, 108동(유천동)",,35.81570753,128.5083338,2014-07-22,574,01,,,,,,,대구광역시 달서구청,053-667-3017,2026-01-13
마스타이레카클리닉,03,대구광역시 달서구 야외음악당로2길 59(성당동),,35.83788786,128.5495203,2014-12-16,83.24,01,,,,,,,대구광역시 달서구청,053-667-3017,2026-01-13
스피드메이트 장기점,03,대구광역시 달서구 용산로 8(본리동),,35.83804392,128.5308919,2014-12-16,207.82,01,,,,,,,대구광역시 달서구청,053-667-3017,2026-01-13
동양상사,03,대구광역시 달서구 용산로 6(본리동),,35.83777304,128.5310007,2015-01-20,548.8,01,,,,,,,대구광역시 달서구청,053-667-3017,2026-01-13
발통천국,03,대구광역시 달서구 와룡로 288(죽전동),,35.8584285,128.5377378,2015-03-03,220.9,01,,,,,,,대구광역시 달서구청,053-667-3017,2026-01-13
머슴타이어,03,대구광역시 달서구 월배로 368(송현동),,35.82758638,128.5493606,2015-04-29,474,03,2025-05-23,,,,,,대구광역시 달서구청,053-667-3017,2026-01-13
대륜카서비스,03,대구광역시 달서구 상원로3길 19-8(상인동),,35.81082357,128.5349704,2015-07-14,71.07,01,,,,,,,대구광역시 달서구청,053-667-3017,2026-01-13
신성모터스,03,"대구광역시 달서구 당산로 98, 1층(성당동)",,35.84613825,128.5447233,2015-10-26,174.08,01,,,,,,,대구광역시 달서구청,053-667-3017,2026-01-13
준모터스,03,대구광역시 달서구 월곡로94길 60(본동),,35.83632369,128.5285559,2015-11-05,226.98,01,,,,,,,대구광역시 달서구청,053-667-3017,2026-01-13
쟁이모터스,03,대구광역시 달서구 평리로 96(죽전동),,35.85853151,128.5348597,2016-01-04,225.9,01,,,,,,,대구광역시 달서구청,053-667-3017,2026-01-13
진카정비,03,대구광역시 달서구 월곡로99길 17-5(월성동),,35.83267493,128.5220123,2016-01-11,127.76,01,,,,,,,대구광역시 달서구청,053-667-3017,2026-01-13
애니카랜드 성서점,03,대구광역시 달서구 선원로 41(신당동),,35.8594521,128.4968882,2016-01-15,87.36,01,,,,,,,대구광역시 달서구청,053-667-3017,2026-01-13
둘리카전문정비,03,대구광역시 달서구 야외음악당로15길 1(성당동),,35.84412069,128.5524306,2016-02-16,172,01,,,,,,,대구광역시 달서구청,053-667-3017,2026-01-13
(주)타이어달인,03,대구광역시 달서구 성서4차첨단로 118(월암동),,35.8250606478,128.513781881,2016-05-31,327.58,01,,,,,,,대구광역시 달서구청,053-667-3017,2026-01-13
로엠모터스,03,대구광역시 달서구 용산로12길 25(장기동),,35.8426965,128.5323289,2016-10-25,247.21,01,,,,,,,대구광역시 달서구청,053-667-3017,2026-01-13
통큰타이어,03,대구광역시 달서구 달서대로 42(유천동),,35.81321994,128.512545,2016-11-23,573,01,,,,,,,대구광역시 달서구청,053-667-3017,2026-01-13
한솔 Car Care,03,"대구광역시 달서구 성서공단로 69, 104동(호림동)",,35.8352093,128.4901062,2017-01-12,121.5,01,,,,,,,대구광역시 달서구청,053-667-3017,2026-01-13
Y모터스,03,대구광역시 달서구 월배로83길 130(송현동),,35.83216774,128.5448431,2017-06-08,273.7,01,,,,,,,대구광역시 달서구청,053-667-3017,2026-01-13
케이티에스 남대구점,03,대구광역시 달서구 달서대로 101(대천동),,35.81576285,128.5059106,2017-07-27,294,01,,,,,,,대구광역시 달서구청,053-667-3017,2026-01-13
데일리모터스,03,대구광역시 달서구 성서동로 305(장기동),,35.84806178,128.5155042,2017-08-18,301,01,,,,,,,대구광역시 달서구청,053-667-3017,2026-01-13
㈜성무모터스,03,대구광역시 달서구 월곡로 489(월성동),,35.83331259,128.5225367,2017-08-31,258.06,01,,,,,,,대구광역시 달서구청,053-667-3017,2026-01-13
튜닉스,03,대구광역시 달서구 파도고개로 102(두류동),,35.85481031,128.5697876,2017-09-21,362.9,01,,,,,,,대구광역시 달서구청,053-667-3017,2026-01-13
성안모터스,03,대구광역시 달서구 야외음악당로 287(두류동),,35.85700335,128.5653857,2017-10-27,98.88,01,,,,,,,대구광역시 달서구청,053-667-3017,2026-01-13
크로바카센타,03,대구광역시 달서구 성서공단로 357(장동),,35.83736249,128.521866,2017-11-01,72.9,01,,,,,,,대구광역시 달서구청,053-667-3017,2026-01-13
성현모터스,03,대구광역시 달서구 용산로14길 7(장기동),,35.8431714,128.5311364,2017-11-17,72.34,01,,,,,,,대구광역시 달서구청,053-667-3017,2026-01-13
구마종합타이어,03,대구광역시 달서구 문화회관9길 8(장동),,35.8391111,128.5239253,2017-11-17,134.82,01,,,,,,,대구광역시 달서구청,053-667-3017,2026-01-13
타이어뱅크 달서점,03,대구광역시 달서구 달서대로 8(유천동),,35.81141452,128.5152887,2017-11-17,141.73,01,,,,,,,대구광역시 달서구청,053-667-3017,2026-01-13
제이디모터스럭스서비스,03,대구광역시 달서구 장기로65길 4(장기동),,35.84285845,128.524426,2017-12-29,185.85,01,,,,,,,대구광역시 달서구청,053-667-3017,2026-01-13
해동카서비스 대천점,03,대구광역시 달서구 진천로23길 46(대천동),,35.81620724,128.5204386,2018-03-15,121.2,01,,,,,,,대구광역시 달서구청,053-667-3017,2026-01-13
스피드메이트 두류점,03,대구광역시 달서구 달구벌대로378길 14-12(두류동),,35.86126163,128.5702436,2018-04-03,199.75,01,,,,,,,대구광역시 달서구청,053-667-3017,2026-01-13
코오롱아우토(주),03,대구광역시 달서구 와룡로 170(감삼동),,35.84780231,128.5376326,2018-04-27,495.49,01,,,,,,,대구광역시 달서구청,053-667-3017,2026-01-13
티스테이션남대구IC점,03,대구광역시 달서구 구마로 31(본리동),,35.83759278,128.5309995,2018-07-18,279.15,01,,,,,,,대구광역시 달서구청,053-667-3017,2026-01-13
오지랖차수리,03,대구광역시 달서구 장기로 87(성당동),,35.84320794,128.5509962,2018-08-10,95.04,01,,,,,,,대구광역시 달서구청,053-667-3017,2026-01-13
스마트카,03,대구광역시 달서구 조암로 102(월암동),,35.8224924,128.5193557,2018-10-15,71.51,01,,,,,,,대구광역시 달서구청,053-667-3017,2026-01-13
맥스지게차,03,대구광역시 달서구 성서동로 311-1(장기동),,35.84859936,128.5156184,2018-10-17,88.2,01,,,,,,,대구광역시 달서구청,053-667-3017,2026-01-13
더벙커클럽,03,대구광역시 달서구 호산동로 6-3(호림동),,35.83576335,128.4863352,2018-11-20,501.5,01,,,,,,,대구광역시 달서구청,053-667-3017,2026-01-13
보쉬카서비스 일신모터스,03,대구광역시 달서구 달서대로 555(신당동),,35.84875844,128.4912748,2019-01-15,237.21,01,,,,,,,대구광역시 달서구청,053-667-3017,2026-01-13
FIRME,03,대구광역시 달서구 월배로5길 8-13(유천동),,35.81379961,128.5178051,2019-02-22,132.6,01,,,,,,,대구광역시 달서구청,053-667-3017,2026-01-13
와이엠토요타 주식회사(YM TOYOTA),03,대구광역시 달서구 구마로 46(본동),,35.83698154,128.5326558,2019-04-23,261.01,01,,,,,,,대구광역시 달서구청,053-667-3017,2026-01-13
티스테이션 달서점,03,대구광역시 달서구 와룡로 287(죽전동),,35.85849462,128.5370628,2019-05-29,183.64,01,,,,,,,대구광역시 달서구청,053-667-3017,2026-01-13
219모터스,03,대구광역시 달서구 와룡로 219(죽전동),,35.85242956,128.5368668,2019-06-19,96.8,01,,,,,,,대구광역시 달서구청,053-667-3017,2026-01-13
토탈카센타,03,대구광역시 달서구 조암남로14길 43-6(월성동),,35.82286424,128.5250356,2019-10-11,93.8,01,,,,,,,대구광역시 달서구청,053-667-3017,2026-01-13
티스테이션 성서IC점,03,대구광역시 달서구 달구벌대로 1382(장기동),,35.85029883,128.5185079,2019-11-15,170,01,,,,,,,대구광역시 달서구청,053-667-3017,2026-01-13
레드존,03,대구광역시 달서구 파도고개로 92(두류동),,35.85457439,128.570118,2019-12-03,154.02,01,,,,,,,대구광역시 달서구청,053-667-3017,2026-01-13
진홍오토,03,대구광역시 달서구 성서서로36길 5-4(갈산동),,35.8408868,128.5007129,2019-12-31,126.61,01,,,,,,,대구광역시 달서구청,053-667-3017,2026-01-13
더유니크,03,대구광역시 달서구 월곡로99길 13(월성동),,35.83296359,128.522048,2020-03-16,152.45,01,,,,,,,대구광역시 달서구청,053-667-3017,2026-01-13
CAR플러스,03,대구광역시 달서구 이곡서로7길 40(이곡동),,35.85246155,128.5024687,2020-04-21,99.95,01,,,,,,,대구광역시 달서구청,053-667-3017,2026-01-13
DM모터스,03,대구광역시 달서구 파도고개로 237(두류동),,35.8590046,128.564668,2020-06-11,186.21,01,,,,,,,대구광역시 달서구청,053-667-3017,2026-01-13
영남카정비,03,대구광역시 달서구 성서공단로11길 6-7(호림동),,35.83578828,128.4890691,2020-07-22,224.96,01,,,,,,,대구광역시 달서구청,053-667-3017,2026-01-13
RC모터스,03,대구광역시 달서구 호산동로 151(호산동),,35.8487006,128.485562,2020-12-01,147,01,,,,,,,대구광역시 달서구청,053-667-3017,2026-01-13
공임나라 대구송현점,03,대구광역시 달서구 앞산순환로 237(송현동),,35.82494047,128.5543669,2021-01-01,28,01,,,,,,,대구광역시 달서구청,053-667-3017,2026-01-13
삼성헤드,03,대구광역시 달서구 학산로7길 93-15(본동),,35.83642647,128.5297742,2021-01-22,145.54,01,,,,,,,대구광역시 달서구청,053-667-3017,2026-01-13
초이스모터스,03,대구광역시 달서구 성서공단로11길 81(호산동),,35.84247204,128.4878707,2021-07-19,123.75,01,,,,,,,대구광역시 달서구청,053-667-3017,2026-01-13
현대카정비센터,03,대구광역시 달서구 성당로 129(성당동),,35.84683306,128.5660629,2021-07-28,168,01,,,,,,,대구광역시 달서구청,053-667-3017,2026-01-13
HG모터스,03,대구광역시 달서구 달구벌대로264길 24(이곡동),,35.84969516,128.5113413,2021-09-16,203.5,01,,,,,,,대구광역시 달서구청,053-667-3017,2026-01-13
태영모터스 볼보 서대구서비스센터,03,대구광역시 달서구 와룡로 105(본리동),,35.84211986,128.5364855,2022-03-10,663.5,01,,,,,,,대구광역시 달서구청,053-667-3017,2026-01-13
한라카냉동특장,03,대구광역시 달서구 성서공단로22안길 15(월암동),,35.83446109,128.4961895,2022-04-28,1002,01,,,,,,,대구광역시 달서구청,053-667-3017,2026-01-13
구상전문정비,03,대구광역시 달서구 성서4차첨단로 184(월암동),,35.82952552,128.5187265,2022-07-15,4244.2,01,,,,,,,대구광역시 달서구청,053-667-3017,2026-01-13
아모르모터스,03,대구광역시 달서구 달서대로95길 27(호산동),,35.8417842,128.4885639,2022-09-22,694.3,01,,,,,,,대구광역시 달서구청,053-667-3017,2026-01-13
무성카서비스,03,대구광역시 달서구 월배로5길 7(유천동),,35.81242081,128.5166459,2023-06-16,72.87,01,,,,,,,대구광역시 달서구청,053-667-3017,2026-01-13
유피시리즈,03,대구광역시 달서구 문화회관1길 21(장기동),,35.84884593,128.5193633,2023-07-26,294.3,01,,,,,,,대구광역시 달서구청,053-667-3017,2026-01-13
제이퍼포먼스,03,대구광역시 달서구 월곡로 515(월성동),,35.83568257,128.5222448,2024-02-16,93.13,01,,,,,,,대구광역시 달서구청,053-667-3017,2026-01-13
로얄모터스,03,대구광역시 달서구 대명천로 202(본리동),,35.84158684,128.5382092,2024-07-05,296.8,01,,,,,,,대구광역시 달서구청,053-667-3017,2026-01-13
삼보카서비스,03,대구광역시 달서구 상화북로 60(진천동),,35.811707,128.5326487312,2024-12-17,321,01,,,,,,,대구광역시 달서구청,053-667-3017,2026-01-13
LJ모터스,03,대구광역시 달서구 와룡로 269-1(죽전동),,35.856871,128.537077,2025-03-07,384.6,01,,,,,,,대구광역시 달서구청,053-667-3017,2026-01-13
더타모터스,03,대구광역시 달서구 학산로7안길 79(본동),,35.8364096604,128.529372,2025-08-28,151.92,01,,,,,,,대구광역시 달서구청,053-667-3017,2026-01-13
발통천국 본리점,03,대구광역시 달서구 와룡로 51(본동),,35.837122,128.536352868,2025-08-29,171,01,,,,,,,대구광역시 달서구청,053-667-3017,2026-01-13
타이어플랫폼 주식회사,03,대구광역시 달서구 달구벌대로 1320(이곡동),,35.850642,128.5117486358,2025-09-16,113.35,01,,,,,,,대구광역시 달서구청,053-667-3017,2026-01-13
오앤씨모터스,03,대구광역시 달서구 상화북로 86(상인동),,35.811421,128.5355565934,2025-11-24,73.36,01,,,,,,,대구광역시 달서구청,053-667-3017,2026-01-13
