자동차정비업체명,자동차정비업체종류,소재지도로명주소,소재지지번주소,위도,경도,사업등록일자,면적,영업상태,폐업일자,휴업시작일자,휴업종료일자,운영시작시각,운영종료시각,전화번호,관리기관명,관리기관전화번호,데이터기준일자
시지현대서비스㈜,1,대구광역시 수성구 욱수천로 90-17(신매동),,35.834613,128.712599,1990-05-21,3942.33,1,,,,,,053-811-2711,대구광역시 수성구청,053-666-3013,2026-04-30
(주)수성정비서비스,1,대구광역시 수성구 유니버시아드로68길 13(욱수동),,35.827896,128.707208,2002-12-14,2746,1,,,,,,053-793-8572,대구광역시 수성구청,053-666-3013,2026-04-30
수성서비스 기아오토큐 주식회사,1,대구광역시 수성구 신천동로 31(상동),,35.828065,128.608334,2011-08-24,3985,1,,,,,,053-768-0119,대구광역시 수성구청,053-666-3013,2026-04-30
(주)지산자동차검사정비,1,대구광역시 수성구 청호로 91 (지산동),,35.826131,128.644073,2017-01-16,1322,1,,,,,,053-784-5566,대구광역시 수성구청,053-666-3013,2026-04-30
푸조대구서비스센터,1,대구광역시 수성구 유니버시아드로 350 (욱수동),,35.828291,128.708193,2018-04-06,1955,1,,,,,,053-791-8592,대구광역시 수성구청,053-666-3013,2026-04-30
엠모터스 수성자동차정비검사소,2,대구광역시 수성구 용학로 7(상동),,35.825848,128.610862,2012-09-28,1161.26,1,,,,,,,대구광역시 수성구청,053-666-3013,2026-04-30
(주)성심두산검사소,2,대구광역시 수성구 지범로 39(두산동),,35.827177,128.625635,2021-01-25,1201,1,,,,,,,대구광역시 수성구청,053-666-3013,2026-04-30
(주)제1수성자동차검사소,2,대구광역시 수성구 청호로 89(지산동),,35.825965,128.644351,2022-11-24,755,1,,,,,,,대구광역시 수성구청,053-666-3013,2026-04-30
(주)수성모터스,2,대구광역시 수성구 신천동로 93(상동),,35.833328,128.606871,2024-03-05,1732,1,,,,,,053-765-9900,대구광역시 수성구청,053-666-3013,2026-04-30
미쉐린타이어대구총판,3,대구광역시 수성구 들안로 192(황금동),,35.847130,128.617130,1997-12-29,502,1,,,,,,053-764-6777,대구광역시 수성구청,053-666-3013,2026-04-30
르노코리아 서비스코너 만촌점,3,대구광역시 수성구 화랑로 162(만촌동),,35.875343,128.643707,1998-03-12,138.6,1,,,,,,053-743-0403,대구광역시 수성구청,053-666-3013,2026-04-30
고바우종합카서비스,3,대구광역시 수성구 파동로 89(파동),,35.811734,128.617407,1998-06-15,400,1,,,,,,053-767-7500,대구광역시 수성구청,053-666-3013,2026-04-30
미광카서비스,3,대구광역시 수성구 국채보상로 984(범어동),,35.866266,128.637988,1998-07-23,118.44,1,,,,,,053-741-9117,대구광역시 수성구청,053-666-3013,2026-04-30
JH모터스,3,대구광역시 수성구 희망로 139(중동),,35.847157,128.614068,1998-10-02,141.38,1,,,,,,053-766-7397,대구광역시 수성구청,053-666-3013,2026-04-30
스타모터스,3,대구광역시 수성구 들안로 130(황금동),,35.841460,128.617315,1998-10-02,162.39,1,,,,,,053-764-4677,대구광역시 수성구청,053-666-3013,2026-04-30
명성부분정비,3,대구광역시 수성구 용학로46길 25(지산동),,35.819317,128.634073,1998-10-19,181.92,1,,,,,,053-784-4059,대구광역시 수성구청,053-666-3013,2026-04-30
제일미션,3,대구광역시 수성구 파동로 183(파동),,35.819194,128.612461,1998-10-27,150.37,1,,,,,,053-761-0034,대구광역시 수성구청,053-666-3013,2026-04-30
광전카센타,3,대구광역시 수성구 만촌로 36(만촌동),,35.862178,128.644669,1998-10-30,114.9,1,,,,,,053-743-5079,대구광역시 수성구청,053-666-3013,2026-04-30
들안길 상동점 기아오토큐,3,대구광역시 수성구 들안로 95(상동),,35.838422,128.616191,1998-11-19,92.35,1,,,,,,053-761-6556,대구광역시 수성구청,053-666-3013,2026-04-30
오토파크,3,대구광역시 수성구 명덕로 446(수성동3가),,35.853952,128.618968,1998-12-04,133.5,1,,,,,,053-765-6064,대구광역시 수성구청,053-666-3013,2026-04-30
케이콰트로 모터스,3,대구광역시 수성구 수성로 27(상동),,35.827946,128.610068,1998-12-04,149,1,,,,,,,대구광역시 수성구청,053-666-3013,2026-04-30
황금카서비스센타,3,대구광역시 수성구 청수로36길 5(지산동),,35.838598,128.627861,1998-12-23,142.67,1,,,,,,053-761-7622,대구광역시 수성구청,053-666-3013,2026-04-30
동해자동차부분정비,3,대구광역시 수성구 청솔로 59(수성동3가),,35.851990,128.620535,1998-12-29,145.11,1,,,,,,053-767-7531,대구광역시 수성구청,053-666-3013,2026-04-30
대동카써비스,3,대구광역시 수성구 들안로 244(수성동3가),,35.851744,128.617164,1999-01-19,92.76,1,,,,,,053-761-8131,대구광역시 수성구청,053-666-3013,2026-04-30
선일카센타,3,대구광역시 수성구 지범로41길 56(범물동),,35.822647,128.644776,1999-01-21,92.36,1,,,,,,053-781-3828,대구광역시 수성구청,053-666-3013,2026-04-30
화랑카인테리어,3,대구광역시 수성구 국채보상로 942(범어동),,35.867093,128.633840,1999-01-22,126,1,,,,,,053-751-8234,대구광역시 수성구청,053-666-3013,2026-04-30
대승카인테리어,3,대구광역시 수성구 청수로 113(황금동),,35.840579,128.620645,1999-03-12,166,1,,,,,,053-767-8881,대구광역시 수성구청,053-666-3013,2026-04-30
흥부종합카서비스,3,대구광역시 수성구 수성로 253(중동),,35.848146,128.612546,1999-03-17,124.3,1,,,,,,053-764-3345,대구광역시 수성구청,053-666-3013,2026-04-30
현대그린카클리닉,3,"대구광역시 수성구 무열로 155, 205동(만촌동)",,35.872173,128.647556,1999-03-20,190,1,,,,,,053-755-8802,대구광역시 수성구청,053-666-3013,2026-04-30
삼보모터스,3,대구광역시 수성구 용학로31길 31(지산동),,35.824560,128.626704,1999-05-14,170.76,1,,,,,,053-782-4564,대구광역시 수성구청,053-666-3013,2026-04-30
대구밧데리 대통령,3,대구광역시 수성구 지범로 43-2(지산동),,35.826453,128.626554,1999-05-17,78.04,1,,,,,,053-781-7228,대구광역시 수성구청,053-666-3013,2026-04-30
현대카서비스,3,대구광역시 수성구 수성로38길 14(중동),,35.842429,128.613320,1999-05-21,85.24,1,,,,,,053-761-7707,대구광역시 수성구청,053-666-3013,2026-04-30
박윤자동차시스템,3,대구광역시 수성구 시지로 35(시지동),,35.840105,128.693409,1999-05-31,158.19,1,,,,,,,대구광역시 수성구청,053-666-3013,2026-04-30
바른카서비스,3,대구광역시 수성구 지산로14길 118(지산동),,35.825743,128.639925,1999-06-18,91.29,1,,,,,,053-782-6997,대구광역시 수성구청,053-666-3013,2026-04-30
노변점현대자동차,3,대구광역시 수성구 고산로 69(노변동),,35.836934,128.703733,1999-08-23,164.45,1,,,,,,053-793-8204,대구광역시 수성구청,053-666-3013,2026-04-30
르노코리아자동차서비스코너 수성점,3,대구광역시 수성구 들안로 162(황금동),,35.844327,128.617135,1999-08-27,199.4,1,,,,,,053-764-7117,대구광역시 수성구청,053-666-3013,2026-04-30
황종영카클리닉,3,대구광역시 수성구 무열로 133(만촌동),,35.870253,128.648378,1999-10-13,132.06,1,,,,,,053-745-7790,대구광역시 수성구청,053-666-3013,2026-04-30
대백카서비스,3,대구광역시 수성구 들안로9길 47(상동),,35.832543,128.615829,1999-11-11,115.42,1,,,,,,053-764-7599,대구광역시 수성구청,053-666-3013,2026-04-30
김정열오토샵,3,대구광역시 수성구 성동로 58(사월동),,35.839665,128.723640,1999-11-17,124.2,1,,,,,,053-814-2904,대구광역시 수성구청,053-666-3013,2026-04-30
삼성오토카,3,대구광역시 수성구 들안로 216(황금동),,35.849136,128.617308,1999-11-17,116.84,1,,,,,,053-768-6062,대구광역시 수성구청,053-666-3013,2026-04-30
성원오토서비스,3,대구광역시 수성구 화랑로32길 106(만촌동),,35.871285,128.645676,1999-11-19,107.75,1,,,,,,053-754-5333,대구광역시 수성구청,053-666-3013,2026-04-30
무열로카센터,3,대구광역시 수성구 충의로 53-1(만촌동),,35.865848,128.644939,1999-11-29,127,1,,,,,,053-755-5065,대구광역시 수성구청,053-666-3013,2026-04-30
현대모터스,3,대구광역시 수성구 달구벌대로625길 10-12(매호동),,35.843304,128.700914,1999-11-29,175,1,,,,,,053-793-2278,대구광역시 수성구청,053-666-3013,2026-04-30
희망카서비스,3,대구광역시 수성구 들안로 145(중동),,35.842855,128.616384,1999-11-30,191.75,1,,,,,,053-768-3737,대구광역시 수성구청,053-666-3013,2026-04-30
자동차시대종합서비스,3,대구광역시 수성구 청호로 453(범어동),,35.856726,128.641845,1999-12-08,129.2,1,,,,,,053-742-4548,대구광역시 수성구청,053-666-3013,2026-04-30
보쉬카서비스 모터프라자독일,3,대구광역시 수성구 범안로3길 71(지산동),,35.819652,128.637072,1999-12-20,83,1,,,,,,,대구광역시 수성구청,053-666-3013,2026-04-30
오토프라자,3,대구광역시 수성구 신천동로84길 48(수성동4가),,35.860902,128.612476,1999-12-27,121.27,1,,,,,,053-751-9113,대구광역시 수성구청,053-666-3013,2026-04-30
공임나라 대구 지산점,3,대구광역시 수성구 지범로 53-2(지산동),,35.826120,128.628352,2000-01-17,216,1,,,,,,053-783-2913,대구광역시 수성구청,053-666-3013,2026-04-30
더 마스터 모터스,3,"대구광역시 수성구 들안로13길 8, 106동(상동)",,35.836208,128.616222,2000-02-02,111,1,,,,,,053-762-4865,대구광역시 수성구청,053-666-3013,2026-04-30
세일카센타,3,대구광역시 수성구 신천동로 114(상동),,35.835344,128.607003,2000-03-09,86.3,1,,,,,,053-765-2419,대구광역시 수성구청,053-666-3013,2026-04-30
(주)대한무역,3,대구광역시 수성구 들안로 161(중동),,35.844296,128.616226,2000-04-10,192,1,,,,,,053-765-2591,대구광역시 수성구청,053-666-3013,2026-04-30
김헌철카클리닉,3,대구광역시 수성구 동대구로55길 8-2(범어동),,35.855144,128.624423,2000-04-25,73.3,1,,,,,,053-744-4895,대구광역시 수성구청,053-666-3013,2026-04-30
모터프라자독일,3,대구광역시 수성구 달구벌대로 2664(만촌동),,35.854985,128.652543,2000-05-17,96.62,1,,,,,,053-743-9172,대구광역시 수성구청,053-666-3013,2026-04-30
제일자동차부분정비,3,대구광역시 수성구 파동로2길 4(파동),,35.806622,128.622880,2000-05-30,145.84,1,,,,,,053-767-2033,대구광역시 수성구청,053-666-3013,2026-04-30
Hi-Pro모터스,3,대구광역시 수성구 동원로 30(만촌동),,35.861671,128.640066,2000-06-24,130.5,1,,,,,,053-744-4624,대구광역시 수성구청,053-666-3013,2026-04-30
한빛자동차정비센터,3,대구광역시 수성구 국채보상로 967(만촌동),,35.867238,128.636531,2000-07-21,75.35,1,,,,,,053-741-6797,대구광역시 수성구청,053-666-3013,2026-04-30
만촌점 기아오토큐,3,대구광역시 수성구 무열로 79(만촌동),,35.865458,128.649346,2000-10-05,114.49,1,,,,,,053-746-5777,대구광역시 수성구청,053-666-3013,2026-04-30
뉴현대카클리닉,3,대구광역시 수성구 파동로 98-1(파동),,35.812688,128.617424,2000-11-24,101.5,1,,,,,,053-761-7282,대구광역시 수성구청,053-666-3013,2026-04-30
김태진 자동차정비 CARTOO,3,"대구광역시 수성구 노변공원로 57, 108동(노변동)",,35.836978,128.698342,2000-12-18,74,1,,,,,,,대구광역시 수성구청,053-666-3013,2026-04-30
르노코리아자동차서비스코너 지산점,3,대구광역시 수성구 무학로 181(지산동),,35.830731,128.628435,2000-12-28,104.16,1,,,,,,053-761-6223,대구광역시 수성구청,053-666-3013,2026-04-30
현대카마스타,3,대구광역시 수성구 지산로14길 73(지산동),,35.826342,128.637628,2001-05-04,82.08,1,,,,,,053-783-3839,대구광역시 수성구청,053-666-3013,2026-04-30
성우모터스,3,대구광역시 수성구 신천동로 95(상동),,35.833579,128.606836,2001-07-12,99.8,1,,,,,,053-768-5919,대구광역시 수성구청,053-666-3013,2026-04-30
스피드메이드노변점,3,대구광역시 수성구 달구벌대로 3142(시지동),,35.841584,128.700436,2001-08-07,74.13,1,,,,,,053-791-5111,대구광역시 수성구청,053-666-3013,2026-04-30
현대자동차수성중부점,3,대구광역시 수성구 달구벌대로 2356(수성동3가),,35.859026,128.620236,2001-08-07,189,1,,,,,,053-755-8200,대구광역시 수성구청,053-666-3013,2026-04-30
대현자동차정비,3,대구광역시 수성구 무열로 77(만촌동),,35.865334,128.649338,2001-08-28,126.12,1,,,,,,053-746-0951,대구광역시 수성구청,053-666-3013,2026-04-30
형제 카 클리닉,3,대구광역시 수성구 지범로 248-2(범물동),,35.817579,128.644418,2001-10-12,93.8,1,,,,,,053-784-5366,대구광역시 수성구청,053-666-3013,2026-04-30
경성카부분정비,3,대구광역시 수성구 공경로 36(만촌동),,35.871206,128.644647,2001-10-31,82.2,1,,,,,,053-741-7087,대구광역시 수성구청,053-666-3013,2026-04-30
케이지모빌리티 수성서비스프라자,3,대구광역시 수성구 무열로 63(만촌동),,35.864222,128.648990,2001-11-24,175.45,1,,,,,,053-745-5582,대구광역시 수성구청,053-666-3013,2026-04-30
서광카클리닉,3,대구광역시 수성구 희망로 99(중동),,35.847461,128.609473,2001-12-14,108.68,1,,,,,,053-765-1910,대구광역시 수성구청,053-666-3013,2026-04-30
아우토반오토,3,대구광역시 수성구 화랑로 170(만촌동),,35.875670,128.644281,2001-12-21,73.5,1,,,,,,053-753-1244,대구광역시 수성구청,053-666-3013,2026-04-30
미래카서비스,3,대구광역시 수성구 달구벌대로645길 6(신매동),,35.839678,128.709805,2001-12-21,185,1,,,,,,053-791-3322,대구광역시 수성구청,053-666-3013,2026-04-30
한국지엠 지산바로서비스,3,대구광역시 수성구 용학로 160(지산동),,35.822772,128.626315,2002-01-25,128,1,,,,,,053-784-7002,대구광역시 수성구청,053-666-3013,2026-04-30
황금전문정비,3,대구광역시 수성구 범어천로 50(범어동),,35.851338,128.623848,2002-03-06,75.2,1,,,,,,053-767-6644,대구광역시 수성구청,053-666-3013,2026-04-30
한국지엠 만촌바로서비스,3,대구광역시 수성구 국채보상로 1053(만촌동),,35.867650,128.645050,2002-03-11,114,1,,,,,,053-753-8256,대구광역시 수성구청,053-666-3013,2026-04-30
신화카서비스,3,대구광역시 수성구 용학로50길 9(지산동),,35.819839,128.636417,2002-04-04,89.2,1,,,,,,053-784-9881,대구광역시 수성구청,053-666-3013,2026-04-30
무학카프라자,3,대구광역시 수성구 지산로14길 39(지산동),,35.826771,128.635989,2002-04-18,146.52,1,,,,,,053-782-9268,대구광역시 수성구청,053-666-3013,2026-04-30
마스타 전문정비,3,대구광역시 수성구 용학로 165(지산동),,35.823062,128.627018,2002-04-26,87.6,1,,,,,,053-765-1178,대구광역시 수성구청,053-666-3013,2026-04-30
월드카크리닉,3,대구광역시 수성구 동대구로6길 6(지산동),,35.832131,128.624048,2002-06-21,148.59,1,,,,,,053-766-4004,대구광역시 수성구청,053-666-3013,2026-04-30
대진카센타,3,대구광역시 수성구 수성로25길 58-3(상동),,35.838028,128.608469,2002-07-05,81,1,,,,,,053-762-1450,대구광역시 수성구청,053-666-3013,2026-04-30
OK 세차 정비 서비스,3,대구광역시 수성구 국채보상로 948(범어동),,35.867131,128.634291,2002-07-29,77.76,1,,,,,,,대구광역시 수성구청,053-666-3013,2026-04-30
한일모터스,3,대구광역시 수성구 상화로 72(상동),,35.834754,128.614932,2002-07-30,83.24,1,,,,,,053-763-6555,대구광역시 수성구청,053-666-3013,2026-04-30
스피드메이트 이마트만촌점,3,대구광역시 수성구 동원로 136(만촌동),,35.871206,128.637147,2002-08-10,187.5,1,,,,,,053-741-1795,대구광역시 수성구청,053-666-3013,2026-04-30
아브라카다브라,3,대구광역시 수성구 파동로 144(파동),,35.816003,128.614599,2002-09-03,73.87,1,,,,,,053-763-5778,대구광역시 수성구청,053-666-3013,2026-04-30
성주카서비스,3,대구광역시 수성구 국채보상로 1085(만촌동),,35.869447,128.647608,2002-09-11,88.81,1,,,,,,053-754-7459,대구광역시 수성구청,053-666-3013,2026-04-30
영일카정비,3,대구광역시 수성구 지범로 273(범물동),,35.816207,128.646719,2002-09-13,91.54,1,,,,,,053-782-8620,대구광역시 수성구청,053-666-3013,2026-04-30
현대카부분정비,3,대구광역시 수성구 고산로 156(매호동),,35.844431,128.706623,2002-10-04,73.23,1,,,,,,053-791-4187,대구광역시 수성구청,053-666-3013,2026-04-30
청구모터스,3,대구광역시 수성구 만촌로 50(만촌동),,35.863421,128.644498,2002-10-08,138,1,,,,,,053-751-4486,대구광역시 수성구청,053-666-3013,2026-04-30
현대자동차상동점,3,대구광역시 수성구 수성로 17(상동),,35.827042,128.609914,2002-11-20,181.58,1,,,,,,053-761-8572,대구광역시 수성구청,053-666-3013,2026-04-30
대광카센타부분정비,3,대구광역시 수성구 국채보상로 1067(만촌동),,35.868434,128.646065,2002-12-20,106.84,1,,,,,,053-751-8323,대구광역시 수성구청,053-666-3013,2026-04-30
현대카경정비,3,대구광역시 수성구 들안로 351(수성동4가),,35.861425,128.617564,2003-01-17,74.95,1,,,,,,053-756-8988,대구광역시 수성구청,053-666-3013,2026-04-30
신현대카클리닉,3,대구광역시 수성구 세진로 41(만촌동),,35.862884,128.639890,2003-01-21,109.86,1,,,,,,053-751-9757,대구광역시 수성구청,053-666-3013,2026-04-30
오성자동차카클리닉,3,대구광역시 수성구 만촌로24길 27(만촌동),,35.870378,128.642387,2003-03-25,98,1,,,,,,053-741-3157,대구광역시 수성구청,053-666-3013,2026-04-30
청도카마스타,3,대구광역시 수성구 파동로12길 3(파동),,35.809685,128.619859,2003-04-25,89.5,1,,,,,,053-816-8330,대구광역시 수성구청,053-666-3013,2026-04-30
현대자동차중동중부점,3,대구광역시 수성구 들안로 227(중동),,35.850399,128.616305,2003-06-26,460.18,1,,,,,,053-764-6101,대구광역시 수성구청,053-666-3013,2026-04-30
르노코리아자동차서비스코너 시지점,3,대구광역시 수성구 유니버시아드로68길 6(욱수동),,35.828595,128.707106,2003-12-01,111.88,1,,,,,,053-791-3377,대구광역시 수성구청,053-666-3013,2026-04-30
현대카랜드,3,대구광역시 수성구 무학로 169(지산동),,35.830615,128.627196,2003-12-16,129.16,1,,,,,,053-761-3773,대구광역시 수성구청,053-666-3013,2026-04-30
가야자동차정비,3,대구광역시 수성구 국채보상로 1031(만촌동),,35.866478,128.643043,2003-12-20,140.76,1,,,,,,053-743-0627,대구광역시 수성구청,053-666-3013,2026-04-30
호반자동차마을,3,대구광역시 수성구 용학로31길 35(지산동),,35.824642,128.626938,2004-02-02,223,1,,,,,,,대구광역시 수성구청,053-666-3013,2026-04-30
무궁화카서비스,3,대구광역시 수성구 수성로58길 52(수성동2가),,35.851466,128.616235,2004-02-09,73.5,1,,,,,,053-763-9476,대구광역시 수성구청,053-666-3013,2026-04-30
케이지모빌리티 시지서비스프라자,3,대구광역시 수성구 달구벌대로 2885(연호동),,35.845776,128.674105,2004-02-25,837,1,,,,,,053-792-5582,대구광역시 수성구청,053-666-3013,2026-04-30
K모터스,3,대구광역시 수성구 범안로 21-1(범물동),,35.817616,128.639264,2004-03-16,213.4,1,,,,,,053-784-9048,대구광역시 수성구청,053-666-3013,2026-04-30
대호카클리닉,3,대구광역시 수성구 노변로 106(노변동),,35.840647,128.701346,2004-05-19,96.06,1,,,,,,053-794-7994,대구광역시 수성구청,053-666-3013,2026-04-30
대자연카부분정비,3,대구광역시 수성구 파동로8길 2(파동),,35.808858,128.620519,2004-06-03,76.38,1,,,,,,053-768-5207,대구광역시 수성구청,053-666-3013,2026-04-30
기아자동차 AUTO Q 중동점,3,대구광역시 수성구 수성로 254(중동),,35.848052,128.613448,2004-06-08,247.56,1,,,,,,053-766-8584,대구광역시 수성구청,053-666-3013,2026-04-30
모든모터스,3,대구광역시 수성구 들안로 135-1(중동),,35.842113,128.616361,2004-07-14,155.2,1,,,,,,,대구광역시 수성구청,053-666-3013,2026-04-30
오토카클리닉,3,대구광역시 수성구 욱수천로 39(욱수동),,35.832004,128.710517,2004-07-16,112,1,,,,,,053-793-1266,대구광역시 수성구청,053-666-3013,2026-04-30
무궁화부분정비공업사,3,대구광역시 수성구 수성로57길 21(수성동1가),,35.851401,128.611968,2004-09-21,74,1,,,,,,053-762-6679,대구광역시 수성구청,053-666-3013,2026-04-30
자동차라인,3,대구광역시 수성구 만촌로 81(만촌동),,35.865761,128.642955,2004-09-24,111.86,1,,,,,,053-754-5588,대구광역시 수성구청,053-666-3013,2026-04-30
쌍마 자동차 정비,3,대구광역시 수성구 천을로 56(시지동),,35.844767,128.696626,2004-10-12,218,1,,,,,,,대구광역시 수성구청,053-666-3013,2026-04-30
대구모터스,3,대구광역시 수성구 명덕로 454(수성동3가),,35.853746,128.619723,2004-12-07,76.1,1,,,,,,053-761-7657,대구광역시 수성구청,053-666-3013,2026-04-30
와이엠렉서스 주식회사 (YM LEXUS),3,대구광역시 수성구 동대구로 48(지산동),,35.834493,128.624240,2005-04-02,430.35,1,,,,,,053-767-1564,대구광역시 수성구청,053-666-3013,2026-04-30
모터솔루션(시지점),3,대구광역시 수성구 욱수천로 70(신매동),,35.834624,128.711705,2005-04-08,94.8,1,,,,,,053-791-9922,대구광역시 수성구청,053-666-3013,2026-04-30
기아자동차카클리닉노변점,3,대구광역시 수성구 고산로 71(노변동),,35.837148,128.703740,2005-06-21,190.35,1,,,,,,,대구광역시 수성구청,053-666-3013,2026-04-30
지산현대정비센타,3,대구광역시 수성구 무학로37길 41(지산동),,35.832195,128.629277,2005-07-22,99.4,1,,,,,,053-766-7947,대구광역시 수성구청,053-666-3013,2026-04-30
샬롬카프라자,3,대구광역시 수성구 파동로 34(파동),,35.807832,128.621397,2005-07-27,166.08,1,,,,,,053-767-6136,대구광역시 수성구청,053-666-3013,2026-04-30
타이어테크 상동교점,3,"대구광역시 수성구 신천동로 101, 110동(상동)",,35.834169,128.606797,2005-08-29,182.55,1,,,,,,053-765-5123,대구광역시 수성구청,053-666-3013,2026-04-30
피트인,3,대구광역시 수성구 화랑로 154(만촌동),,35.874926,128.642990,2005-09-23,144,1,,,,,,053-759-7882,대구광역시 수성구청,053-666-3013,2026-04-30
금호타이어 수성대리점,3,대구광역시 수성구 희망로 140(중동),,35.846633,128.614112,2005-10-21,209,1,,,,,,053-765-9246,대구광역시 수성구청,053-666-3013,2026-04-30
두산점현대자동차,3,대구광역시 수성구 지범로 41-4(두산동),,35.826955,128.626316,2005-11-09,199.61,1,,,,,,053-761-0010,대구광역시 수성구청,053-666-3013,2026-04-30
카매니저,3,"대구광역시 수성구 신천동로 87, B동(상동)",,35.832871,128.607058,2006-01-06,120.04,1,,,,,,053-768-2823,대구광역시 수성구청,053-666-3013,2026-04-30
오토월드정비센타,3,대구광역시 수성구 동원로 87(만촌동),,35.866874,128.638475,2006-01-26,199.9,1,,,,,,053-742-9228,대구광역시 수성구청,053-666-3013,2026-04-30
영강카써비스,3,대구광역시 수성구 수성로25길 17(상동),,35.837290,128.610727,2006-02-10,76.33,1,,,,,,,대구광역시 수성구청,053-666-3013,2026-04-30
시지점현대자동차,3,대구광역시 수성구 달구벌대로 3018(시지동),,35.841524,128.687497,2006-03-09,197.1,1,,,,,,053-791-2868,대구광역시 수성구청,053-666-3013,2026-04-30
일출카경정비,3,대구광역시 수성구 범어천로 20(황금동),,35.848895,128.623557,2006-04-04,78.19,1,,,,,,,대구광역시 수성구청,053-666-3013,2026-04-30
카젠(황금점),3,대구광역시 수성구 희망로 214-1(황금동),,35.846006,128.622207,2006-04-26,73.31,1,,,,,,,대구광역시 수성구청,053-666-3013,2026-04-30
무열카클리닉,3,대구광역시 수성구 국채보상로 1094(만촌동),,35.869502,128.648460,2006-05-30,231.9,1,,,,,,,대구광역시 수성구청,053-666-3013,2026-04-30
한국타이어 티스테이션 만촌점,3,대구광역시 수성구 무열로 11(만촌동),,35.860196,128.646558,2006-07-02,204.9,1,,,,,,053-752-8192,대구광역시 수성구청,053-666-3013,2026-04-30
K모터스,3,대구광역시 수성구 공경로 47(만촌동),,35.871917,128.643638,2006-07-21,140,1,,,,,,053-754-0888,대구광역시 수성구청,053-666-3013,2026-04-30
지산1급 카토피아,3,대구광역시 수성구 지범로 65-9(지산동),,35.827108,128.628094,2006-09-01,120.48,1,,,,,,,대구광역시 수성구청,053-666-3013,2026-04-30
케이지모빌리티 황금서비스프라자,3,대구광역시 수성구 희망로 144(중동),,35.846561,128.614423,2006-09-19,197.54,1,,,,,,053-764-5582,대구광역시 수성구청,053-666-3013,2026-04-30
기능장의집,3,대구광역시 수성구 지범로 45(지산동),,35.826436,128.626722,2006-11-29,107.32,1,,,,,,053-781-8944,대구광역시 수성구청,053-666-3013,2026-04-30
와이엠토요타 주식회사,3,대구광역시 수성구 동대구로8길 9-16(지산동),,35.834526,128.624604,2007-03-12,257.1,1,,,,,,053-720-7680,대구광역시 수성구청,053-666-3013,2026-04-30
상동KS모터스,3,대구광역시 수성구 상화로 50(상동),,35.834673,128.612600,2007-06-04,149.1,1,,,,,,,대구광역시 수성구청,053-666-3013,2026-04-30
한국지엠수성바로서비스,3,대구광역시 수성구 들안로 165(중동),,35.844684,128.616428,2007-06-28,116.22,1,,,,,,053-768-0544,대구광역시 수성구청,053-666-3013,2026-04-30
스피드메이트 범어점,3,대구광역시 수성구 국채보상로 858(범어동),,35.866854,128.624378,2007-07-27,113.42,1,,,,,,053-754-2272,대구광역시 수성구청,053-666-3013,2026-04-30
케이씨씨모터스(주) 대구지점,3,대구광역시 수성구 청수로 49,,35.841014,128.613667,2008-03-07,198.54,1,,,,,,053-784-9000,대구광역시 수성구청,053-666-3013,2026-04-30
ZEN 모터스,3,대구광역시 수성구 희망로 180(황금동),,35.846216,128.618484,2008-04-02,150.8,1,,,,,,053-766-4597,대구광역시 수성구청,053-666-3013,2026-04-30
현대자동차만촌점블루핸즈,3,대구광역시 수성구 달구벌대로 2543(만촌동),,35.859278,128.640901,2009-04-16,288.28,1,,,,,,,대구광역시 수성구청,053-666-3013,2026-04-30
티스테이션 효목네거리점,3,대구광역시 수성구 화랑로 156(만촌동),,35.875049,128.643082,2009-06-12,491.82,1,,,,,,053-753-9960,대구광역시 수성구청,053-666-3013,2026-04-30
준모터스,3,대구광역시 수성구 신천동로 77(상동),,35.831844,128.607213,2009-07-21,140.4,1,,,,,,053-767-5569,대구광역시 수성구청,053-666-3013,2026-04-30
상동자동차병원,3,,대구광역시 수성구 상동 675-14,35.829809,128.608085,2009-11-13,307,1,,,,,,,대구광역시 수성구청,053-666-3013,2026-04-30
진흥카서비스,3,대구광역시 수성구 신천동로 484(수성동4가),,35.866548,128.614779,2009-11-27,74.94,1,,,,,,053-745-1238,대구광역시 수성구청,053-666-3013,2026-04-30
리얼카케어,3,"대구광역시 수성구 수성로 84-1, 10동(상동)",,35.832981,128.611598,2009-12-18,122.16,1,,,,,,,대구광역시 수성구청,053-666-3013,2026-04-30
지엔비오토모빌 주식회사,3,대구광역시 수성구 동대구로 35(두산동),,35.833397,128.622929,2010-02-18,386,1,,,,,,,대구광역시 수성구청,053-666-3013,2026-04-30
한창카클리닉,3,대구광역시 수성구 효행로2길 15(만촌동),,35.877449,128.649256,2010-03-18,144,1,,,,,,053-791-1772,대구광역시 수성구청,053-666-3013,2026-04-30
스피드메이트 지산점,3,대구광역시 수성구 지범로 71(지산동),,35.826637,128.629348,2010-04-20,563,1,,,,,,053-784-9555,대구광역시 수성구청,053-666-3013,2026-04-30
중동카클리닉,3,"대구광역시 수성구 들안로 225, 103동(중동)",,35.850096,128.616394,2010-06-28,96,1,,,,,,053-765-6782,대구광역시 수성구청,053-666-3013,2026-04-30
애니카랜드 황금점,3,대구광역시 수성구 희망로 155-1(중동),,35.847166,128.615935,2010-07-06,113.4,1,,,,,,053-761-0773,대구광역시 수성구청,053-666-3013,2026-04-30
청기와카센타,3,대구광역시 수성구 화랑로 222(만촌동),,35.877851,128.649425,2010-08-02,82,1,,,,,,,대구광역시 수성구청,053-666-3013,2026-04-30
두남자동차서비스센터,3,대구광역시 수성구 무열로 149(만촌동),,35.871601,128.647834,2010-11-10,99.19,1,,,,,,053-753-8920,대구광역시 수성구청,053-666-3013,2026-04-30
자동차이야기,3,대구광역시 수성구 범어로 144(범어동),,35.862310,128.635909,2010-11-16,246.3,1,,,,,,,대구광역시 수성구청,053-666-3013,2026-04-30
태원카,3,"대구광역시 수성구 들안로16길 77, B동(두산동)",,35.839534,128.618141,2011-01-06,114,1,,,,,,053-764-7165,대구광역시 수성구청,053-666-3013,2026-04-30
스피드메이트 상동점,3,"대구광역시 수성구 수성로 116, 103동(상동)",,35.835735,128.612038,2011-06-07,193,1,,,,,,,대구광역시 수성구청,053-666-3013,2026-04-30
소닉카부분정비,3,대구광역시 수성구 국채보상로 958(범어동),,35.867204,128.635444,2011-06-07,144.24,1,,,,,,,대구광역시 수성구청,053-666-3013,2026-04-30
대경카마스타,3,대구광역시 수성구 동원로 30-1(만촌동),,35.861856,128.640080,2011-06-07,326,1,,,,,,053-742-8090,대구광역시 수성구청,053-666-3013,2026-04-30
타이어프로 시지점,3,대구광역시 수성구 달구벌대로 3029(시지동),,35.842493,128.688349,2011-06-07,154.49,1,,,,,,053-794-7822,대구광역시 수성구청,053-666-3013,2026-04-30
블루핸즈만촌동부점,3,대구광역시 수성구 국채보상로 989(만촌동),,35.866599,128.638588,2011-06-07,290.43,1,,,,,,053-951-9401,대구광역시 수성구청,053-666-3013,2026-04-30
홍이카모터스,3,대구광역시 수성구 수성로 99(상동),,35.834275,128.611301,2011-07-22,78.39,1,,,,,,,대구광역시 수성구청,053-666-3013,2026-04-30
오토심슨,3,대구광역시 수성구 달구벌대로 2693(만촌동),,35.854259,128.656079,2011-08-10,98.29,1,,,,,,053-741-1412,대구광역시 수성구청,053-666-3013,2026-04-30
피드앤오일,3,대구광역시 수성구 천을로 37(시지동),,35.845051,128.694704,2011-09-09,179,1,,,,,,,대구광역시 수성구청,053-666-3013,2026-04-30
동아자동차정비,3,대구광역시 수성구 국채보상로 1027(만촌동),,35.866339,128.642561,2011-12-14,495.9,1,,,,,,053-756-6774,대구광역시 수성구청,053-666-3013,2026-04-30
천마카센타,3,대구광역시 수성구 천을로23길 30-5(매호동),,35.845863,128.706309,2011-12-29,254,1,,,,,,053-791-1431,대구광역시 수성구청,053-666-3013,2026-04-30
주식회사 뉴명차,3,대구광역시 수성구 희망로 177(황금동),,35.846868,128.618364,2012-09-11,604.7,1,,,,,,,대구광역시 수성구청,053-666-3013,2026-04-30
유모터스,3,대구광역시 수성구 신천동로 91(상동),,35.833171,128.607028,2012-10-23,279,1,,,,,,,대구광역시 수성구청,053-666-3013,2026-04-30
수호 자동차,3,대구광역시 수성구 천을로 8(시지동),,35.843831,128.692318,2013-04-23,112.4,1,,,,,,,대구광역시 수성구청,053-666-3013,2026-04-30
진성모터스,3,대구광역시 수성구 교학로 58-1(만촌동),,35.849916,128.651771,2013-08-29,160.3,1,,,,,,,대구광역시 수성구청,053-666-3013,2026-04-30
주현모터스,3,대구광역시 수성구 용학로46길 21(지산동),,35.819603,128.634187,2013-09-16,90.4,1,,,,,,,대구광역시 수성구청,053-666-3013,2026-04-30
에스지모터스,3,대구광역시 수성구 들안로 213(중동),,35.848979,128.616440,2013-09-23,263.38,1,,,,,,,대구광역시 수성구청,053-666-3013,2026-04-30
현대카클리닉,3,대구광역시 수성구 국채보상로 1055(만촌동),,35.867765,128.645175,2014-04-29,249.2,1,,,,,,053-744-5657,대구광역시 수성구청,053-666-3013,2026-04-30
제일카프라자,3,"대구광역시 수성구 국채보상로 931, 101동(만촌동)",,35.867371,128.632412,2014-08-12,162,1,,,,,,,대구광역시 수성구청,053-666-3013,2026-04-30
중앙모터스 주식회사 대구황금점,3,대구광역시 수성구 동대구로 150(황금동),,35.843680,128.625030,2014-11-21,456.53,1,,,,,,053-551-3333,대구광역시 수성구청,053-666-3013,2026-04-30
하이테크,3,대구광역시 수성구 동원로 43-2(범어동),,35.863016,128.639176,2015-01-16,74.4,1,,,,,,053-741-4091,대구광역시 수성구청,053-666-3013,2026-04-30
에스모터스(S MOTORS),3,대구광역시 수성구 신천동로 88(상동),,35.832879,128.607464,2015-03-24,100.13,1,,,,,,053-766-3200,대구광역시 수성구청,053-666-3013,2026-04-30
수야모터스,3,대구광역시 수성구 파동로 30(파동),,35.807507,128.621622,2015-07-27,158,1,,,,,,053-767-6565,대구광역시 수성구청,053-666-3013,2026-04-30
코오롱모빌리티그룹(주) 수성패스트레인서비스센터,3,대구광역시 수성구 청수로 50(상동),,35.840218,128.613550,2015-10-26,1633,1,,,,,,053-768-7301,대구광역시 수성구청,053-666-3013,2026-04-30
스피드메이트 황금점,3,대구광역시 수성구 청수로 158(지산동),,35.839145,128.625219,2015-11-03,417.9,1,,,,,,053-766-9202,대구광역시 수성구청,053-666-3013,2026-04-30
주식회사 스텔라오토모빌,3,대구광역시 수성구 동대구로57길 3(범어동),,35.855937,128.624833,2015-11-04,441,1,,,,,,053-755-2013,대구광역시 수성구청,053-666-3013,2026-04-30
리더모터스,3,대구광역시 수성구 수성로 2(상동),,35.825595,128.610350,2015-11-09,361.9,1,,,,,,053-763-5530,대구광역시 수성구청,053-666-3013,2026-04-30
(주)비앤비모터스,3,대구광역시 수성구 수성로 136(상동),,35.837411,128.612268,2015-11-16,286.52,1,,,,,,053-761-5052,대구광역시 수성구청,053-666-3013,2026-04-30
정문타이어,3,대구광역시 수성구 무열로 125(만촌동),,35.869404,128.648601,2016-01-14,129.2,1,,,,,,053-755-1250,대구광역시 수성구청,053-666-3013,2026-04-30
청솔카모터스,3,대구광역시 수성구 청솔로 67(수성동3가),,35.852646,128.620412,2016-04-01,163.24,1,,,,,,053-763-1717,대구광역시 수성구청,053-666-3013,2026-04-30
동원카써비스,3,대구광역시 수성구 범어천로 166(범어동),,35.861629,128.622715,2016-08-31,81,1,,,,,,053-753-8819,대구광역시 수성구청,053-666-3013,2026-04-30
타이어프로 담티점,3,대구광역시 수성구 달구벌대로 2726(만촌동),,35.852610,128.658939,2016-11-01,222,1,,,,,,,대구광역시 수성구청,053-666-3013,2026-04-30
크레이지모터스,3,대구광역시 수성구 수성로 157-1(중동),,35.839643,128.611701,2017-02-02,830,1,,,,,,053-762-0843,대구광역시 수성구청,053-666-3013,2026-04-30
한영오토모빌㈜,3,대구광역시 수성구 들안로67길 11(수성동4가),,35.860160,128.616793,2017-05-17,600.9,1,,,,,,053-350-8932,대구광역시 수성구청,053-666-3013,2026-04-30
라이프파트너,3,대구광역시 수성구 청호로 447(범어동),,35.856437,128.641302,2017-06-30,98.24,1,,,,,,053-767-8924,대구광역시 수성구청,053-666-3013,2026-04-30
한국지엠시지바로서비스,3,대구광역시 수성구 노변공원로 103(노변동),,35.833754,128.699307,2017-07-24,426,1,,,,,,,대구광역시 수성구청,053-666-3013,2026-04-30
YJ카닥터,3,대구광역시 수성구 용학로44길 57(지산동),,35.819748,128.635183,2017-10-11,97.165,1,,,,,,,대구광역시 수성구청,053-666-3013,2026-04-30
지엔비오토모빌 주식회사,3,대구광역시 수성구 동대구로 35-1(두산동),,35.833414,128.622573,2017-11-01,352.1,1,,,,,,053-767-1900,대구광역시 수성구청,053-666-3013,2026-04-30
수성카경정비,3,대구광역시 수성구 수성로54길 50(중동),,35.850163,128.616012,2017-11-17,99.46,1,,,,,,053-745-1977,대구광역시 수성구청,053-666-3013,2026-04-30
한영모터스(주),3,대구광역시 수성구 수성로 247(중동),,35.847658,128.612553,2018-02-02,651.14,1,,,,,,053-350-8932,대구광역시 수성구청,053-666-3013,2026-04-30
T’ Station(월드컵점),3,대구광역시 수성구 유니버시아드로 342(욱수동),,35.828759,128.707492,2018-05-30,128,1,,,,,,053-792-3500,대구광역시 수성구청,053-666-3013,2026-04-30
타이어스태프,3,대구광역시 수성구 지범로 53(지산동),,35.826183,128.628088,2018-10-22,181.77,1,,,,,,053-562-6885,대구광역시 수성구청,053-666-3013,2026-04-30
123모터스,3,대구광역시 수성구 들안로 156(황금동),,35.843787,128.617171,2018-10-22,132,1,,,,,,053-745-5771,대구광역시 수성구청,053-666-3013,2026-04-30
뉴 티스테이션 수성점,3,대구광역시 수성구 들안로 166(황금동),,35.844689,128.617192,2018-12-10,1146.8,1,,,,,,053-764-8272,대구광역시 수성구청,053-666-3013,2026-04-30
알피엠모터스,3,대구광역시 수성구 용학로 155(지산동),,35.823459,128.626247,2019-06-20,468.6,1,,,,,,053-784-9196,대구광역시 수성구청,053-666-3013,2026-04-30
비비게러지,3,대구광역시 수성구 달구벌대로651길 14-1(신매동),,35.838640,128.713807,2020-04-22,105.35,1,,,,,,,대구광역시 수성구청,053-666-3013,2026-04-30
JS모터스,3,대구광역시 수성구 희망로 147(중동),,35.847030,128.614993,2020-05-12,262.4,1,,,,,,,대구광역시 수성구청,053-666-3013,2026-04-30
대구수입자동차정비 오토마이모티브,3,대구광역시 수성구 수성구 월드컵로5길 75(삼덕동),,35.830530,128.679697,2020-05-18,329.76,1,,,,,,,대구광역시 수성구청,053-666-3013,2026-04-30
톰스개러지,3,"대구광역시 수성구 화랑로 208, 2층(만촌동)",,35.877431,128.648057,2020-07-31,197.89,1,,,,,,,대구광역시 수성구청,053-666-3013,2026-04-30
오토오아시스 화남점,3,대구광역시 수성구 달구벌대로 3063(시지동),,35.843352,128.691988,2021-05-17,102,1,,,,,,053-791-7495,대구광역시 수성구청,053-666-3013,2026-04-30
황소카서비스,3,대구광역시 수성구 화랑로 128(만촌동),,35.873589,128.640720,2021-06-04,92.04,1,,,,,,,대구광역시 수성구청,053-666-3013,2026-04-30
유성모터스,3,대구광역시 수성구 고산로 61(노변동),,35.836343,128.703855,2021-08-19,315,1,,,,,,,대구광역시 수성구청,053-666-3013,2026-04-30
디와이모터스,3,대구광역시 수성구 들안로 232(황금동),,35.850564,128.617129,2021-12-28,238.6,1,,,,,,053-768-0111,대구광역시 수성구청,053-666-3013,2026-04-30
오토오아시스 홈플러스 대구수성점,3,대구광역시 수성구 동대구로 95(두산동),,35.837913,128.622684,2022-04-29,102.9,1,,,,,,053-767-8265,대구광역시 수성구청,053-666-3013,2026-04-30
테슬라코리아 유한회사 대구 지산점,3,대구광역시 수성구 동대구로 50(지산동),,35.834753,128.624380,2022-05-24,814.9,1,,,,,,,대구광역시 수성구청,053-666-3013,2026-04-30
중앙모터스(주)수성서비스센터,3,대구광역시 수성구 희망로 211(황금동),,35.846766,128.621905,2022-12-12,1287.9,1,,,,,,,대구광역시 수성구청,053-666-3013,2026-04-30
현대하나카서비스,3,대구광역시 수성구 청수로 174(지산동),,35.838819,128.627178,2023-03-08,176.42,1,,,,,,,대구광역시 수성구청,053-666-3013,2026-04-30
탑모터스,3,대구광역시 수성구 상화로 74(상동),,35.834766,128.615121,2023-06-01,141.75,1,,,,,,053-766-4286,대구광역시 수성구청,053-666-3013,2026-04-30
티스테이션 시지점,3,대구광역시 수성구 달구벌대로 3168(노변동),,35.840820,128.703295,2023-06-16,306.35,1,,,,,,053-811-2244,대구광역시 수성구청,053-666-3013,2026-04-30
지엔비모빌리티㈜,3,대구광역시 수성구 동대구로 129(황금동),,35.842016,128.623700,2024-12-30,72.48,1,,,,,,053-763-8009,대구광역시 수성구청,053-666-3013,2026-04-30
공임나라 시지점,3,대구광역시 수성구 달구벌대로604길 3(시지동),,35.841426,128.687616,2025-06-18,158.47,1,,,,,,,대구광역시 수성구청,053-666-3013,2026-04-30
YM렉서스 퀵샵,3,대구광역시 수성구 동대구로8길 9-14(지산동),,35.834399,128.624646,2025-09-08,77.39,1,,,,,,,대구광역시 수성구청,053-666-3013,2026-04-30
연호카 정비공업사,3,대구광역시 수성구 달구벌대로 2877-39(연호동),,35.845854,128.675446,2026-01-08,258.28,1,,,,,,,대구광역시 수성구청,053-666-3013,2026-04-30
카이스트모터스,3,대구광역시 수성구 희망로 201(황금동),,35.847048,128.620931,2026-03-03,179.22,1,,,,,,,대구광역시 수성구청,053-666-3013,2026-04-30
