자동차정비업체명,자동차정비업체종류,소재지도로명주소,소재지지번주소,위도,경도,사업등록일자,면적,영업상태,폐업일자,휴업시작일자,휴업종료일자,운영시작시각,운영종료시각,전화번호,관리기관명,관리기관전화번호,데이터기준일자
김포교통(주),01,서울특별시 강서구 금낭화로 170(방화동),,37.580668910,126.814758200,1983-01-11,11058,01,,,,09:00,18:00,02-2662-1458,서울특별시 강서구청,02-2600-4115,2026-01-01
1급Car.Tec자동차공업,01,서울특별시 강서구 금낭화로 170(방화동),,37.580668910,126.814758200,1992-03-26,1578,01,,,,09:00,18:00,02-2601-2121,서울특별시 강서구청,02-2600-4115,2026-01-01
한국지엠강서서비스(주),01,서울특별시 강서구 남부순환로 223-19(외발산동),,37.546226560,126.823032700,1994-06-28,2025,01,,,,09:00,18:00,02-2661-8255,서울특별시 강서구청,02-2600-4115,2026-01-01
동진자동차공업사,03,서울특별시 강서구 국회대로7길 137(화곡동),,37.529117810,126.853255100,1997-05-13,117,01,,,,09:00,18:00,02-2608-3356,서울특별시 강서구청,02-2600-4115,2026-01-01
한양오토피아,03,서울특별시 강서구 국회대로7길 152(화곡동),,37.529334490,126.852450700,1997-10-04,100,01,,,,09:00,18:00,02-2603-9613,서울특별시 강서구청,02-2600-4115,2026-01-01
화곡자동차정비센타,03,서울특별시 강서구 강서로 138(화곡동),,37.539443290,126.842294100,1997-10-16,122,01,,,,09:00,18:00,02-2693-2204,서울특별시 강서구청,02-2600-4115,2026-01-01
광진자동차공업사,03,"서울특별시 강서구 국회대로 249, 1층(화곡동)",,37.530046420,126.862494400,1997-12-20,117,01,,,,09:00,18:00,02-2645-2274,서울특별시 강서구청,02-2600-4115,2026-01-01
방화현대모터스,03,서울특별시 강서구 금낭화로 19(방화동),,37.567041950,126.811472000,1997-12-26,168,01,,,,09:00,18:00,02-2664-6644,서울특별시 강서구청,02-2600-4115,2026-01-01
화곡카센타,03,서울특별시 강서구 월정로 150(화곡동),,37.532379130,126.837145200,1998-01-20,130,01,,,,09:00,18:00,02-2602-8834,서울특별시 강서구청,02-2600-4115,2026-01-01
공임나라 등촌점,03,서울특별시 강서구 등촌로47길 6(등촌동),,37.546862980,126.862368200,1998-01-20,194.75,01,,,,09:00,18:00,,서울특별시 강서구청,02-2600-4115,2026-01-01
목동현대자동차공업사,03,서울특별시 강서구 강서로5나길 139(화곡동),,37.528091260,126.840436400,1998-01-20,69,01,,,,09:00,18:00,02-2605-9920,서울특별시 강서구청,02-2600-4115,2026-01-01
금강자동차공업사,03,서울특별시 강서구 월정로 184(화곡동),,37.535098860,126.835435300,1998-02-05,72,01,,,,09:00,18:00,02-2690-5033,서울특별시 강서구청,02-2600-4115,2026-01-01
이창카센타,03,서울특별시 강서구 양천로26길 57(방화동),,37.572205210,126.820121490,1998-04-03,169,01,,,,09:00,18:00,02-3662-5671,서울특별시 강서구청,02-2600-4115,2026-01-01
충북자동차공업사,03,서울특별시 강서구 곰달래로50길 33(화곡동),,37.530107750,126.858422800,1998-05-08,81,01,,,,09:00,18:00,02-654-0971,서울특별시 강서구청,02-2600-4115,2026-01-01
새한카독크,03,서울특별시 강서구 강서로29길 77(화곡동),,37.538171230,126.837947700,1998-05-25,391.8,01,,,,09:00,18:00,02-2695-1964,서울특별시 강서구청,02-2600-4115,2026-01-01
한솔자동차공업사,03,서울특별시 강서구 양천로26길 75(방화동),,37.572478320,126.820754900,1998-06-02,98,01,,,,09:00,18:00,02-2605-6971,서울특별시 강서구청,02-2600-4115,2026-01-01
한국지엠강서바로서비스,03,서울특별시 강서구 까치산로 63(화곡동),,37.544569550,126.846344000,1998-09-22,144,01,,,,09:00,18:00,02-2663-0400,서울특별시 강서구청,02-2600-4115,2026-01-01
(주)대한자동차서비스,03,서울특별시 강서구 강서로 327(내발산동),,37.555036730,126.836821300,1998-10-30,74.25,01,,,,09:00,18:00,02-2664-7500,서울특별시 강서구청,02-2600-4115,2026-01-01
명진카서비스,03,서울특별시 강서구 초원로 42(방화동),,37.567657800,126.810133100,1998-11-04,50,01,,,,09:00,18:00,02-2661-1441,서울특별시 강서구청,02-2600-4115,2026-01-01
하이츠자동차공업사,03,서울특별시 강서구 강서로17다길 31(화곡동),,37.533977190,126.841952000,1998-11-18,96,01,,,,09:00,18:00,02-2603-0220,서울특별시 강서구청,02-2600-4115,2026-01-01
등촌카슈퍼,03,서울특별시 강서구 등촌로 191(등촌동),,37.546971730,126.862597100,1998-12-01,83.67,01,,,,09:00,18:00,02-2654-9797,서울특별시 강서구청,02-2600-4115,2026-01-01
곰달래중앙점현대자동차,03,서울특별시 강서구 곰달래로 209(화곡동),,37.531638930,126.856202200,1998-12-03,83.57,01,,,,09:00,18:00,02-2608-9932,서울특별시 강서구청,02-2600-4115,2026-01-01
우성수리,03,"서울특별시 강서구 양천로1길 68, 1층(방화동)",,37.574123740,126.807549000,1998-12-21,81,01,,,,09:00,18:00,02-2666-0486,서울특별시 강서구청,02-2600-4115,2026-01-01
염창점현대자동차,03,서울특별시 강서구 양천로 721(염창동),,37.549595870,126.876099000,1998-12-24,93.75,01,,,,09:00,18:00,02-3663-7788,서울특별시 강서구청,02-2600-4115,2026-01-01
정민카경정비,03,서울특별시 강서구 양천로26길 26(방화동),,37.572645080,126.818539280,1998-12-28,75.9,01,,,,09:00,18:00,02-2664-1152,서울특별시 강서구청,02-2600-4115,2026-01-01
등촌자동차공업사,03,서울특별시 강서구 강서로54길 29(등촌동),,37.559127140,126.840297600,1998-12-29,79,01,,,,09:00,18:00,02-3663-3969,서울특별시 강서구청,02-2600-4115,2026-01-01
국민카센타,03,서울특별시 강서구 곰달래로49길 72(화곡동),,37.534599540,126.856589700,1999-01-27,781.15,01,,,,09:00,18:00,02-2644-1640,서울특별시 강서구청,02-2600-4115,2026-01-01
더 타이어샵 방화점,03,서울특별시 강서구 금낭화로 31(방화동),,37.568198480,126.811538700,1999-01-27,110,01,,,,09:00,18:00,02-2663-7961,서울특별시 강서구청,02-2600-4115,2026-01-01
명문종합카센타,03,서울특별시 강서구 월정로 186-1(화곡동),,37.535372270,126.835269800,1999-02-08,77.98,01,,,,09:00,18:00,02-2659-1298,서울특별시 강서구청,02-2600-4115,2026-01-01
현대자동차정비센타,03,서울특별시 강서구 우현로 7(화곡동),,37.546691560,126.844404200,1999-02-08,91.91,01,,,,09:00,18:00,02-2603-7004,서울특별시 강서구청,02-2600-4115,2026-01-01
개화현대자동차공업사,03,서울특별시 강서구 개화동로19길 7(개화동),,37.575251910,126.802927800,1999-02-19,75.92,01,,,,09:00,18:00,02-2666-8118,서울특별시 강서구청,02-2600-4115,2026-01-01
스피드메이트 강서해바라기점,03,서울특별시 강서구 화곡로 273(화곡동),,37.549279150,126.846964900,1999-08-13,108.95,01,,,,09:00,18:00,02-2604-0788,서울특별시 강서구청,02-2600-4115,2026-01-01
대산자동차공업사,03,서울특별시 강서구 가로공원로 237(화곡동),,37.538667880,126.841948300,1999-08-28,150.48,01,,,,09:00,18:00,02-6449-7084,서울특별시 강서구청,02-2600-4115,2026-01-01
마스타 자동차 공업사,03,서울특별시 강서구 강서로17길 45(화곡동),,37.532436920,126.843297300,1999-12-17,277,01,,,,09:00,18:00,02-2694-3388,서울특별시 강서구청,02-2600-4115,2026-01-01
충남토탈자동차,03,서울특별시 강서구 등촌로 193-2(등촌동),,37.547133610,126.862650700,2000-02-23,72,01,,,,09:00,18:00,02-2652-7211,서울특별시 강서구청,02-2600-4115,2026-01-01
방화점현대자동차,03,서울특별시 강서구 양천로 59(방화동),,37.573757430,126.810410300,2000-02-25,76,01,,,,09:00,18:00,02-2662-8355,서울특별시 강서구청,02-2600-4115,2026-01-01
방화점기아오토큐,03,서울특별시 강서구 방화대로 354(방화동),,37.572457570,126.817154300,2000-06-23,97,01,,,,09:00,18:00,02-2661-4595,서울특별시 강서구청,02-2600-4115,2026-01-01
양동자동차공업사,03,서울특별시 강서구 양천로 658(염창동),,37.552307980,126.869915900,2000-06-23,125,01,,,,09:00,18:00,02-3664-6530,서울특별시 강서구청,02-2600-4115,2026-01-01
등촌모터스,02,"서울특별시 강서구 양천로66길 31, 3층(등촌동)",,37.553580540,126.865014200,2000-07-07,605,01,,,,09:00,18:00,02-3661-6578,서울특별시 강서구청,02-2600-4115,2026-01-01
뉴대광자동차공업사,03,서울특별시 강서구 방화대로 348(방화동),,37.571848610,126.817001360,2001-03-30,106.32,01,,,,09:00,18:00,02-2664-6400,서울특별시 강서구청,02-2600-4115,2026-01-01
(주)레드캡투어,03,서울특별시 강서구 양천로47길 72(가양동),,37.573577350,126.837432200,2001-04-25,100,01,,,,09:00,18:00,02-3771-2479,서울특별시 강서구청,02-2600-4115,2026-01-01
하나로자동차공업사,03,서울특별시 강서구 국회대로 119(화곡동),,37.528157330,126.848038800,2001-06-11,54.72,01,,,,09:00,18:00,02-2699-3151,서울특별시 강서구청,02-2600-4115,2026-01-01
시민자동차써비스,02,서울특별시 강서구 강서로 511-4(마곡동),,37.571394700,126.841143200,2001-12-31,538,01,,,,09:00,18:00,02-3664-4970,서울특별시 강서구청,02-2600-4115,2026-01-01
성도자동차종합써비스,03,서울특별시 강서구 가로공원로 209-1(화곡동),,37.537719710,126.839244000,2002-01-14,95,01,,,,09:00,18:00,02-2607-4417,서울특별시 강서구청,02-2600-4115,2026-01-01
대원카써비스,03,서울특별시 강서구 까치산로 150(화곡동),,37.550596180,126.852371900,2002-05-20,104.13,01,,,,09:00,18:00,02-2695-4633,서울특별시 강서구청,02-2600-4115,2026-01-01
한진자동차공업사,03,서울특별시 강서구 공항대로38길 21(내발산동),,37.557456540,126.838924100,2002-12-26,225.6,01,,,,09:00,18:00,02-3664-4567,서울특별시 강서구청,02-2600-4115,2026-01-01
형제카공업사,03,서울특별시 강서구 곰달래로 87(화곡동),,37.530455810,126.842625800,2003-02-05,92.49,01,,,,09:00,18:00,02-2606-2070,서울특별시 강서구청,02-2600-4115,2026-01-01
마곡자동차써비스,02,서울특별시 강서구 양천로47길 80-10(마곡동),,37.574003360,126.837775200,2003-02-11,724,01,,,,09:00,18:00,02-3664-3200,서울특별시 강서구청,02-2600-4115,2026-01-01
(주)바바리안모터스,03,"서울특별시 강서구 공항대로 59, 3층(공항동)",,37.561360730,126.813976500,2003-05-22,179.6,01,,,,09:00,18:00,02-2661-7401,서울특별시 강서구청,02-2600-4115,2026-01-01
우림카센타,03,서울특별시 강서구 양천로26길 79(방화동),,37.572479150,126.820961600,2003-06-13,145.86,01,,,,09:00,18:00,02-2663-6733,서울특별시 강서구청,02-2600-4115,2026-01-01
벽산자동차공업사,02,서울특별시 강서구 양천로47길 60-44(마곡동),,37.574073500,126.838003100,2003-07-30,845,01,,,,09:00,18:00,02-3665-5570,서울특별시 강서구청,02-2600-4115,2026-01-01
성진자동차공업사,03,서울특별시 강서구 화곡로 384(등촌동),,37.557570080,126.853827300,2003-11-10,64.05,01,,,,09:00,18:00,02-3663-4739,서울특별시 강서구청,02-2600-4115,2026-01-01
혜성모터스,02,서울특별시 강서구 화곡로66길 14(등촌동),,37.557796310,126.854470040,2004-02-24,691,01,,,,09:00,18:00,02-2668-4013,서울특별시 강서구청,02-2600-4115,2026-01-01
리페어필드(Repair Field),03,서울특별시 강서구 화곡로20길 41(화곡동),,37.538591660,126.836847200,2004-08-16,62,01,,,,09:00,18:00,02-2602-0234,서울특별시 강서구청,02-2600-4115,2026-01-01
한국지엠방화바로서비스,03,서울특별시 강서구 초원로14길 22(방화동),,37.567311880,126.813795100,2004-08-30,108,01,,,,09:00,18:00,02-2664-9953,서울특별시 강서구청,02-2600-4115,2026-01-01
지오스마일상사(주),01,서울특별시 강서구 양천로 368(가양동),,37.567116830,126.843156000,2004-12-24,538,01,,,,09:00,18:00,02-2668-5449,서울특별시 강서구청,02-2600-4115,2026-01-01
털보자동차정비,02,서울특별시 강서구 양천로49길 56-2(가양동),,37.571589260,126.840771300,2004-12-27,985,01,,,,09:00,18:00,02-3661-1895,서울특별시 강서구청,02-2600-4115,2026-01-01
케이지모빌리티 방화서비스프라자,03,서울특별시 강서구 양천로 40(방화동),,37.572683840,126.808366400,2005-02-18,132.76,01,,,,09:00,18:00,02-2662-8705,서울특별시 강서구청,02-2600-4115,2026-01-01
형제모터스,03,"서울특별시 강서구 남부순환로 35, 1층(공항동)",,37.558639740,126.808461300,2005-02-23,254.6,01,,,,09:00,18:00,02-2665-7356,서울특별시 강서구청,02-2600-4115,2026-01-01
애니카랜드 화곡 남부점,03,서울특별시 강서구 국회대로7길 20(화곡동),,37.530306480,126.859836000,2005-06-07,121,01,,,,09:00,18:00,02-2643-4767,서울특별시 강서구청,02-2600-4115,2026-01-01
그랑프라,03,서울특별시 강서구 화곡로66길 185(등촌동),,37.554190200,126.862938900,2005-06-20,349.33,01,,,,09:00,18:00,02-3663-0100,서울특별시 강서구청,02-2600-4115,2026-01-01
(주)미래자동차종합공업사,01,서울특별시 강서구 양천로49길 7(가양동),,37.569097890,126.840679900,2005-07-13,946,01,,,,09:00,18:00,02-3661-4141,서울특별시 강서구청,02-2600-4115,2026-01-01
월드자동차공업사,03,서울특별시 강서구 등촌로51길 31(등촌동),,37.549041690,126.861520300,2005-08-09,102.46,01,,,,09:00,18:00,02-2648-4300,서울특별시 강서구청,02-2600-4115,2026-01-01
오토오아시스 홈플러스 강서점,03,"서울특별시 강서구 화곡로 398, 5층(등촌동, 홈플러스강서점)",,37.558469960,126.854819000,2005-11-04,16499,01,,,,09:00,18:00,02-2659-0969,서울특별시 강서구청,02-2600-4115,2026-01-01
강서오토자동차공업사,03,서울특별시 강서구 가로공원로 211-1(화곡동),,37.537784270,126.839479200,2005-12-09,128.08,01,,,,09:00,18:00,02-2690-7181,서울특별시 강서구청,02-2600-4115,2026-01-01
동원카센타,03,서울특별시 강서구 방화대로7길 66(공항동),,37.556058380,126.812501100,2006-01-16,70.2,01,,,,09:00,18:00,02-2666-4201,서울특별시 강서구청,02-2600-4115,2026-01-01
내발산점 기아오토큐,03,서울특별시 강서구 강서로 312(내발산동),,37.553469530,126.837083200,2006-04-25,156,01,,,,09:00,18:00,02-3663-9337,서울특별시 강서구청,02-2600-4115,2026-01-01
대지카공업사,03,서울특별시 강서구 국회대로7길 178(화곡동),,37.529125830,126.850951300,2006-07-11,65.25,01,,,,09:00,18:00,02-2605-9392,서울특별시 강서구청,02-2600-4115,2026-01-01
등촌점기아오토큐,03,"서울특별시 강서구 양천로 614(등촌동, 외2(2호,3호))",,37.554792070,126.865844700,2006-11-30,182,01,,,,09:00,18:00,02-3662-1374,서울특별시 강서구청,02-2600-4115,2026-01-01
화곡서부점기아오토큐,03,서울특별시 강서구 강서로17길 150(화곡동),,37.531848760,126.837638500,2006-11-30,77,01,,,,09:00,18:00,02-2608-1700,서울특별시 강서구청,02-2600-4115,2026-01-01
화곡점기아오토큐,03,서울특별시 강서구 국회대로7길 149(화곡동),,37.529013390,126.852528900,2006-11-30,154,01,,,,09:00,18:00,02-2695-5700,서울특별시 강서구청,02-2600-4115,2026-01-01
공항점기아오토큐,03,서울특별시 강서구 송정로 24(공항동),,37.557324860,126.812017600,2006-11-30,112.75,01,,,,09:00,18:00,02-2666-1259,서울특별시 강서구청,02-2600-4115,2026-01-01
현대자동차공업사,03,서울특별시 강서구 강서로50길 10(내발산동),,37.555165310,126.837812800,2006-12-06,1,01,,,,09:00,18:00,02-3664-8767,서울특별시 강서구청,02-2600-4115,2026-01-01
금성자동차정비,02,서울특별시 강서구 공항대로45길 49(등촌동),,37.557510080,126.855738500,2006-12-21,1,01,,,,09:00,18:00,02-2668-4013,서울특별시 강서구청,02-2600-4115,2026-01-01
제이모터스,02,"서울특별시 강서구 공항대로59다길 273, 3,4층(염창동)",,37.548253190,126.877037100,2007-01-30,689,01,,,,09:00,18:00,02-3665-1516,서울특별시 강서구청,02-2600-4115,2026-01-01
가양점 기아오토큐,03,서울특별시 강서구 허준로 78(가양동),,37.567954030,126.849716400,2007-02-20,147,01,,,,09:00,18:00,02-3661-8408,서울특별시 강서구청,02-2600-4115,2026-01-01
애니카랜드공항점,03,서울특별시 강서구 방화동로 95(방화동),,37.569016160,126.812631200,2007-02-22,656,01,,,,09:00,18:00,02-2662-1642,서울특별시 강서구청,02-2600-4115,2026-01-01
기아자동차(주)강서서비스센터,01,서울특별시 강서구 양천로 542(등촌동),,37.558518480,126.859019200,2007-04-05,4958.6,01,,,,09:00,18:00,02-2627-0007,서울특별시 강서구청,02-2600-4115,2026-01-01
성도자동차공업사,03,서울특별시 강서구 강서로5나길 6(화곡동),,37.528778550,126.847886300,2007-04-05,95.79,01,,,,09:00,18:00,02-2695-0102,서울특별시 강서구청,02-2600-4115,2026-01-01
마이스터모터스(주),02,서울특별시 강서구 양천로77길 7(염창동),,37.549789120,126.876517400,2007-05-15,721.9,01,,,,09:00,18:00,02-3663-0900,서울특별시 강서구청,02-2600-4115,2026-01-01
스타모터스,03,서울특별시 강서구 양천로26길 53(방화동),,37.572274120,126.819608300,2007-07-20,281,01,,,,09:00,18:00,02-2661-8204,서울특별시 강서구청,02-2600-4115,2026-01-01
스피드메이트 가양점,03,서울특별시 강서구 강서로 498(가양동),,37.569736550,126.841978500,2007-08-28,93,01,,,,09:00,18:00,02-3663-4110,서울특별시 강서구청,02-2600-4115,2026-01-01
희망자동차공업사,03,서울특별시 강서구 양천로26길 33-5(방화동),,37.572791960,126.819222930,2007-11-08,221,01,,,,09:00,18:00,02-6414-6809,서울특별시 강서구청,02-2600-4115,2026-01-01
(주)아마존모터스,01,"서울특별시 강서구 남부순환로 224-40, 1,2층(외발산동)",,37.545574990,126.819076000,2007-12-20,1525,01,,,,09:00,18:00,02-2661-8283,서울특별시 강서구청,02-2600-4115,2026-01-01
외발산카클리닉,03,"서울특별시 강서구 방화대로 30, 1층(외발산동)",,37.543007560,126.817064500,2008-01-03,72,01,,,,09:00,18:00,02-2662-8294,서울특별시 강서구청,02-2600-4115,2026-01-01
(주)오케이자동차정비센타,02,서울특별시 강서구 화곡로64길 89(등촌동),,37.555654660,126.857888400,2008-02-15,596,01,,,,09:00,18:00,02-3664-9966,서울특별시 강서구청,02-2600-4115,2026-01-01
현대자동차공업사,02,서울특별시 강서구 양천로47길 82(마곡동),,37.574136340,126.837443500,2008-02-19,556,01,,,,09:00,18:00,02-3663-2888,서울특별시 강서구청,02-2600-4115,2026-01-01
화성자동차공업사,01,서울특별시 강서구 화곡로66길 83(등촌동),,37.556832600,126.857794300,2008-02-21,1674,01,,,,09:00,18:00,02-3665-7092,서울특별시 강서구청,02-2600-4115,2026-01-01
등촌현대서비스 주식회사,01,서울특별시 강서구 공항대로59길 65(등촌동),,37.554592380,126.862993300,2008-02-22,1997,01,,,,09:00,18:00,02-3662-1416,서울특별시 강서구청,02-2600-4115,2026-01-01
오신산업(주),01,서울특별시 강서구 양천로 462(등촌동),,37.562165740,126.852122400,2008-02-28,2434,01,,,,09:00,18:00,02-3661-3435,서울특별시 강서구청,02-2600-4115,2026-01-01
선인자동차(주) 강서서비스센터,01,서울특별시 강서구 화곡로 384(등촌동),,37.557570080,126.853827300,2008-03-05,2010,01,,,,09:00,18:00,02-3661-0011,서울특별시 강서구청,02-2600-4115,2026-01-01
강서공업사,02,서울특별시 강서구 양천로60길 44(등촌동),,37.557016880,126.858044300,2008-03-07,1102.4,01,,,,09:00,18:00,02-3663-8888,서울특별시 강서구청,02-2600-4115,2026-01-01
신진자동차써비스,02,서울특별시 강서구 공항대로59다길 23(등촌동),,37.553385010,126.864916800,2008-03-10,1334,01,,,,09:00,18:00,02-2668-0700,서울특별시 강서구청,02-2600-4115,2026-01-01
(주)강서현대정비센타,02,"서울특별시 강서구 화곡로66길 83, 3층(등촌동)",,37.556832600,126.857794300,2008-03-28,843,01,,,,09:00,18:00,02-3662-1982,서울특별시 강서구청,02-2600-4115,2026-01-01
두형제자동차공업사,03,서울특별시 강서구 양천로24길 57(방화동),,37.570791950,126.815560100,2008-04-07,76,01,,,,09:00,18:00,02-2644-6481,서울특별시 강서구청,02-2600-4115,2026-01-01
오토프라자,03,서울특별시 강서구 까치산로 122(화곡동),,37.548620030,126.850519500,2008-04-21,112,01,,,,09:00,18:00,02-2695-6960,서울특별시 강서구청,02-2600-4115,2026-01-01
제이에이모터스,02,서울특별시 강서구 공항대로59길 61(등촌동),,37.554464390,126.863262600,2008-05-08,822,01,,,,09:00,18:00,02-3664-3002,서울특별시 강서구청,02-2600-4115,2026-01-01
성진자동차서비스,03,서울특별시 강서구 양천로 434(등촌동),,37.563807660,126.848947400,2008-07-28,130,01,,,,09:00,18:00,02-3661-4102,서울특별시 강서구청,02-2600-4115,2026-01-01
케이씨씨오토(주),01,서울특별시 강서구 공항대로 653-23(염창동),,37.548424100,126.877550400,2008-08-04,883.1,01,,,,09:00,18:00,02-6355-0012,서울특별시 강서구청,02-2600-4115,2026-01-01
하나자동차공업사,02,서울특별시 강서구 공항대로59다길 227(염창동),,37.548515600,126.874761700,2008-08-07,614,01,,,,09:00,18:00,02-3663-8501,서울특별시 강서구청,02-2600-4115,2026-01-01
카웨이모터스,02,서울특별시 강서구 양천로47길 64(마곡동),,37.573298020,126.837348600,2008-09-10,1088,01,,,,09:00,18:00,02-3662-0951,서울특별시 강서구청,02-2600-4115,2026-01-01
광득자동차공업사,03,서울특별시 강서구 방화대로33길 66(방화동),,37.568258960,126.812965800,2008-09-17,231,01,,,,09:00,18:00,02-2664-3385,서울특별시 강서구청,02-2600-4115,2026-01-01
안전카자동차공업사,03,서울특별시 강서구 남부순환로19길 43(외발산동),,37.546777500,126.823925100,2008-09-29,72,01,,,,09:00,18:00,02-2663-1187,서울특별시 강서구청,02-2600-4115,2026-01-01
본동자동차공업사,03,서울특별시 강서구 화곡로61길 18(등촌동),,37.557200160,126.851320400,2008-10-01,1,01,,,,09:00,18:00,02-3663-9665,서울특별시 강서구청,02-2600-4115,2026-01-01
티스테이션 마곡점,03,서울특별시 강서구 화곡로63길 101(등촌동),,37.558581450,126.847417600,2008-10-13,195,01,,,,09:00,18:00,02-2666-3233,서울특별시 강서구청,02-2600-4115,2026-01-01
스캐너카정비센타,03,서울특별시 강서구 양천로26길 73(방화동),,37.572405810,126.820588900,2008-10-20,181,01,,,,09:00,18:00,02-2661-5110,서울특별시 강서구청,02-2600-4115,2026-01-01
박물관카서비스,03,서울특별시 강서구 양천로53길 97(가양동),,37.567499230,126.850301700,2008-10-23,126,01,,,,09:00,18:00,02-3665-3119,서울특별시 강서구청,02-2600-4115,2026-01-01
화곡북부점기아오토큐,03,서울특별시 강서구 까치산로 167(화곡동),,37.552306680,126.852776600,2008-10-30,120,01,,,,09:00,18:00,02-2695-1651,서울특별시 강서구청,02-2600-4115,2026-01-01
승진자동차써비스,03,"서울특별시 강서구 양천로 583, 지하1층(염창동)",,37.557116190,126.864347400,2008-11-04,1,01,,,,09:00,18:00,02-2093-1245,서울특별시 강서구청,02-2600-4115,2026-01-01
(주)동부현대자동차,02,서울특별시 강서구 양천로65길 41-31(염창동),,37.556645570,126.867254700,2008-11-06,834,01,,,,09:00,18:00,02-3661-6088,서울특별시 강서구청,02-2600-4115,2026-01-01
성오VIP자동차공업사,03,서울특별시 강서구 공항대로8길 7(공항동),,37.560685250,126.812318400,2008-11-06,61,01,,,,09:00,18:00,02-2607-1035,서울특별시 강서구청,02-2600-4115,2026-01-01
광명카센타,03,서울특별시 강서구 강서로 454(등촌동),,37.565886870,126.840976300,2008-11-10,792.7,01,,,,09:00,18:00,02-3661-5595,서울특별시 강서구청,02-2600-4115,2026-01-01
현대카오디오카센타,03,서울특별시 강서구 양천로 623(염창동),,37.554482910,126.867258700,2008-11-10,78,01,,,,09:00,18:00,02-3665-5005,서울특별시 강서구청,02-2600-4115,2026-01-01
베스트자동차정비전문점,03,서울특별시 강서구 화곡로26가길 62(화곡동),,37.540053040,126.836626600,2008-11-10,69.6,01,,,,09:00,18:00,02-2603-9733,서울특별시 강서구청,02-2600-4115,2026-01-01
신강서자동차공업사,03,서울특별시 강서구 우장산로 116(화곡동),,37.552990570,126.848949900,2008-11-10,66.6,01,,,,09:00,18:00,02-2690-0776,서울특별시 강서구청,02-2600-4115,2026-01-01
금호타이어강서사,03,"서울특별시 강서구 공항대로45길 102, 1층(등촌동)",,37.558913020,126.858039100,2008-11-10,108,01,,,,09:00,18:00,02-3661-9202,서울특별시 강서구청,02-2600-4115,2026-01-01
등촌점현대자동차,03,서울특별시 강서구 화곡로63길 115(등촌동),,37.558654970,126.846723900,2008-11-10,280,01,,,,09:00,18:00,02-3663-5915,서울특별시 강서구청,02-2600-4115,2026-01-01
조은카센타,03,서울특별시 강서구 화곡로43길 32(화곡동),,37.547356000,126.845535000,2022-02-28,61.08,01,,,,09:00,18:00,02-3661-0064,서울특별시 강서구청,02-2600-4115,2026-01-01
관문카센타,03,서울특별시 강서구 공항대로 314(내발산동),,37.557842430,126.842395200,2008-11-10,73.45,01,,,,09:00,18:00,02-2659-3968,서울특별시 강서구청,02-2600-4115,2026-01-01
Oil Master(오일마스터),03,"서울특별시 강서구 양천로26길 103, 101호(방화동, 청구상가)",,37.572953200,126.821420240,2008-11-10,76,01,,,,09:00,18:00,02-3662-3933,서울특별시 강서구청,02-2600-4115,2026-01-01
형제카센타,03,"서울특별시 강서구 까치산로 46, 1층(화곡동, 외 1필지)",,37.543205280,126.844983000,2008-11-21,150,01,,,,09:00,18:00,02-2698-1945,서울특별시 강서구청,02-2600-4115,2026-01-01
화곡남부점현대자동차,03,"서울특별시 강서구 까치산로 165, 1층(화곡동)",,37.552121530,126.852706800,2008-11-21,104.94,01,,,,09:00,18:00,02-2604-8227,서울특별시 강서구청,02-2600-4115,2026-01-01
강서스마일자동차공업사,03,서울특별시 강서구 화곡로 187(화곡동),,37.542655330,126.842005500,2008-11-21,81,01,,,,09:00,18:00,02-2605-7949,서울특별시 강서구청,02-2600-4115,2026-01-01
한양총판,03,서울특별시 강서구 공항대로75길 53(염창동),,37.548855140,126.875563700,2008-11-27,330.6,01,,,,09:00,18:00,02-3663-9800,서울특별시 강서구청,02-2600-4115,2026-01-01
대은자동차공업사,03,서울특별시 강서구 강서로74길 20(가양동),,37.567277040,126.842069000,2008-12-09,79.08,01,,,,09:00,18:00,02-2658-6265,서울특별시 강서구청,02-2600-4115,2026-01-01
훼미리자동차공업사,03,서울특별시 강서구 공항대로59길 27(등촌동),,37.552838340,126.863562400,2008-12-15,71,01,,,,09:00,18:00,02-3661-9562,서울특별시 강서구청,02-2600-4115,2026-01-01
아시아나에어포트(주),01,서울특별시 강서구 하늘길 111(공항동),,37.560524500,126.804595900,2008-12-22,4800,01,,,,09:00,18:00,02-2669-8551,서울특별시 강서구청,02-2600-4115,2026-01-01
션모터홀딩스(주),03,서울특별시 강서구 양천로30길 27(마곡동),,37.572124900,126.822867000,2008-12-23,192,01,,,,09:00,18:00,02-2063-1555,서울특별시 강서구청,02-2600-4115,2026-01-01
신방화자동차공업사,03,서울특별시 강서구 양천로26길 43(방화동),,37.572475960,126.819324300,2008-12-29,1,01,,,,09:00,18:00,02-2662-7070,서울특별시 강서구청,02-2600-4115,2026-01-01
현대카센타,03,서울특별시 강서구 공항대로8길 13(공항동),,37.560432280,126.812340300,2008-12-29,71,01,,,,09:00,18:00,02-2662-4985,서울특별시 강서구청,02-2600-4115,2026-01-01
대하디젤자동차공업사,03,서울특별시 강서구 강서로74길 3(가양동),,37.567894900,126.841562490,2008-12-29,68,01,,,,09:00,18:00,02-3661-1190,서울특별시 강서구청,02-2600-4115,2026-01-01
보잉카서비스,03,서울특별시 강서구 금낭화로 68-1(방화동),,37.571402210,126.811803700,2008-12-29,305,01,,,,09:00,18:00,02-2662-2450,서울특별시 강서구청,02-2600-4115,2026-01-01
친절자동차정비공업사,03,서울특별시 강서구 방화대로6가길 8(공항동),,37.554611530,126.816847000,2008-12-29,142,01,,,,09:00,18:00,02-2661-0623,서울특별시 강서구청,02-2600-4115,2026-01-01
한마음자동차공업사,03,서울특별시 강서구 양천로67길 3(염창동),,37.554517520,126.867350600,2009-01-07,111,01,,,,09:00,18:00,02-3663-5338,서울특별시 강서구청,02-2600-4115,2026-01-01
티스테이션 염창점,03,서울특별시 강서구 공항대로75길 41(염창동),,37.548599080,126.874973900,2009-01-13,1,01,,,,09:00,18:00,02-3664-5338,서울특별시 강서구청,02-2600-4115,2026-01-01
솔로몬자동차공업사,02,서울특별시 강서구 공항대로59길 57(등촌동),,37.554218630,126.863216500,2009-02-06,589,01,,,,09:00,18:00,02-2659-2007,서울특별시 강서구청,02-2600-4115,2026-01-01
영원카독크,02,서울특별시 강서구 강서로 511-11(가양동),,37.571163740,126.841115500,2009-03-05,304,01,,,,09:00,18:00,02-2658-5461,서울특별시 강서구청,02-2600-4115,2026-01-01
뉴훼미리자동차,03,서울특별시 강서구 화곡로66길 161(등촌동),,37.554810850,126.861742600,2009-03-11,137,01,,,,09:00,18:00,02-3662-7520,서울특별시 강서구청,02-2600-4115,2026-01-01
서울자동차공업사,02,서울특별시 강서구 양천로 313-1(마곡동),,37.570335020,126.838670900,2009-04-14,860,01,,,,09:00,18:00,02-3663-5054,서울특별시 강서구청,02-2600-4115,2026-01-01
남도자동차공업사,02,서울특별시 강서구 양천로47길 30(가양동),,37.571736740,126.837847800,2009-04-22,922,01,,,,09:00,18:00,02-2668-8402,서울특별시 강서구청,02-2600-4115,2026-01-01
한국공항(주),01,서울특별시 강서구 하늘길 38(방화동),,37.571369850,126.802960400,2009-04-27,5113,01,,,,09:00,18:00,02-2660-6513,서울특별시 강서구청,02-2600-4115,2026-01-01
한국지엠등촌바로서비스,03,서울특별시 강서구 화곡로61길 16(등촌동),,37.557131290,126.851437200,2009-05-11,127,01,,,,09:00,18:00,02-3662-8252,서울특별시 강서구청,02-2600-4115,2026-01-01
영인운수(주),01,서울특별시 강서구 남부순환로 224-40,,37.545574990,126.819076000,2009-06-15,6220,01,,,,09:00,18:00,02-2665-3121,서울특별시 강서구청,02-2600-4115,2026-01-01
현대그린오토,03,서울특별시 강서구 양천로10길 6(방화동),,37.572622590,126.808654100,2009-06-19,91,01,,,,09:00,18:00,02-2664-5773,서울특별시 강서구청,02-2600-4115,2026-01-01
카라이프,03,서울특별시 강서구 양천로11길 27(방화동),,37.574409790,126.809764500,2009-06-30,78,01,,,,09:00,18:00,02-2662-4055,서울특별시 강서구청,02-2600-4115,2026-01-01
염창카공업사,03,서울특별시 강서구 양천로 717-5(염창동),,37.549845020,126.875782300,2009-07-24,98,01,,,,09:00,18:00,02-3664-0964,서울특별시 강서구청,02-2600-4115,2026-01-01
한성자동차공업사,03,서울특별시 강서구 화곡로18길 35(화곡동),,37.538757250,126.836187600,2009-08-11,98.28,01,,,,09:00,18:00,02-2601-4176,서울특별시 강서구청,02-2600-4115,2026-01-01
J.S모터스,03,서울특별시 강서구 강서로 284(내발산동),,37.551023590,126.836623800,2009-08-27,86.5,01,,,,09:00,18:00,02-2697-6786,서울특별시 강서구청,02-2600-4115,2026-01-01
까치자동차공업사,03,서울특별시 강서구 강서로19길 3(화곡동),,37.533546700,126.845358100,2009-09-08,113,01,,,,09:00,18:00,02-2693-0500,서울특별시 강서구청,02-2600-4115,2026-01-01
슬랜시오가인카,03,서울특별시 강서구 개화동로29길 48(방화동),,37.563738630,126.809340900,2009-09-28,72.2,01,,,,09:00,18:00,02-2662-4871,서울특별시 강서구청,02-2600-4115,2026-01-01
가양오토서비스,02,서울특별시 강서구 강서로74길 58(등촌동),,37.566040180,126.844163900,2009-11-10,430,01,,,,09:00,18:00,02-3663-6671,서울특별시 강서구청,02-2600-4115,2026-01-01
㈜대한자동차공업사,01,서울특별시 강서구 양천로 714(염창동),,37.549296250,126.875037700,2009-12-03,804,01,,,,09:00,18:00,02-3661-9121,서울특별시 강서구청,02-2600-4115,2026-01-01
서서울자동차정비공장,02,"서울특별시 강서구 화곡로66길 83, 4층(등촌동)",,37.556832600,126.857794300,2009-12-28,1674,01,,,,09:00,18:00,02-2658-9448,서울특별시 강서구청,02-2600-4115,2026-01-01
삼성모터스,02,"서울특별시 강서구 남부순환로19길 48-37, G동서측동 1,2층(외발산동)",,37.546599080,126.824944300,2010-01-22,428,01,,,,09:00,18:00,02-2668-5665,서울특별시 강서구청,02-2600-4115,2026-01-01
정인모터스,02,서울특별시 강서구 초원로 2(방화동),,37.567670220,126.805699600,2010-02-09,516,01,,,,09:00,18:00,02-2661-7110,서울특별시 강서구청,02-2600-4115,2026-01-01
(주)공항모터스,01,"서울특별시 강서구 하늘길 233, 디동(공항동)",,37.553505430,126.813427400,2010-02-23,1200,01,,,,09:00,18:00,02-2661-9990,서울특별시 강서구청,02-2600-4115,2026-01-01
영인카센타,03,서울특별시 강서구 강서로5나길 55(화곡동),,37.528301040,126.845125600,2010-03-02,94,01,,,,09:00,18:00,02-2697-7950,서울특별시 강서구청,02-2600-4115,2026-01-01
현대공업사,03,"서울특별시 강서구 강서로74길 30, 1층(가양동)",,37.566994200,126.842594300,2010-03-24,142,01,,,,09:00,18:00,02-3664-4263,서울특별시 강서구청,02-2600-4115,2026-01-01
NK모터스,02,서울특별시 강서구 남부순환로19길 48-8(외발산동),,37.546352750,126.823673400,2010-07-14,1096,01,,,,09:00,18:00,02-3662-2055,서울특별시 강서구청,02-2600-4115,2026-01-01
삼성미터자동차공업사,03,서울특별시 강서구 남부순환로19길 5(외발산동),,37.546627770,126.821593600,2010-07-28,182,01,,,,09:00,18:00,02-2662-1101,서울특별시 강서구청,02-2600-4115,2026-01-01
제로모터스,03,서울특별시 강서구 초원로 22(방화동),,37.567617840,126.807881100,2010-10-04,71,01,,,,09:00,18:00,02-1588-7332,서울특별시 강서구청,02-2600-4115,2026-01-01
와우모터스,03,서울특별시 강서구 양천로10길 6(방화동),,37.572622590,126.808654100,2011-05-03,152,01,,,,09:00,18:00,02-2665-5236,서울특별시 강서구청,02-2600-4115,2026-01-01
공항남부점 현대자동차,03,서울특별시 강서구 송정로 21-1(공항동),,37.557059490,126.811716900,2011-08-10,132,01,,,,09:00,18:00,02-2064-0164,서울특별시 강서구청,02-2600-4115,2026-01-01
㈜비비퍼포먼스,02,서울특별시 강서구 남부순환로 224-48(외발산동),,37.545738440,126.818606400,2011-08-16,1,01,,,,09:00,18:00,02-2635-2722,서울특별시 강서구청,02-2600-4115,2026-01-01
미래카공업사,03,서울특별시 강서구 양천로47길 76(가양동),,37.573725770,126.837387500,2011-09-23,151,01,,,,09:00,18:00,02-3661-4141,서울특별시 강서구청,02-2600-4115,2026-01-01
부림현대,02,서울특별시 강서구 양천로65길 41-35(염창동),,37.556706570,126.866772900,2011-11-24,896,01,,,,09:00,18:00,02-2668-7686,서울특별시 강서구청,02-2600-4115,2026-01-01
오토오아시스롯데몰김포공항점,03,"서울특별시 강서구 하늘길 38, 지하3층 B304호(방화동, 롯데몰김포공항점)",,37.571369850,126.802960400,2011-12-08,137,01,,,,09:00,18:00,02-6116-5735,서울특별시 강서구청,02-2600-4115,2026-01-01
(주)천지모터스,02,서울특별시 강서구 양천로60길 7(등촌동),,37.558067690,126.859530100,2011-12-28,812.2,01,,,,09:00,18:00,02-3661-8321,서울특별시 강서구청,02-2600-4115,2026-01-01
대성자동차정비센타,02,서울특별시 강서구 남부순환로 223-35(외발산동),,37.546130840,126.823613800,2012-04-04,860,01,,,,09:00,18:00,02-2658-0311,서울특별시 강서구청,02-2600-4115,2026-01-01
㈜서부현대서비스,02,서울특별시 강서구 남부순환로 224-40(외발산동),,37.545574990,126.819076000,2012-05-18,290,01,,,,09:00,18:00,02-2665-6767,서울특별시 강서구청,02-2600-4115,2026-01-01
맥가이버공업사,03,서울특별시 강서구 강서로 511-34(가양동),,37.571351870,126.840915900,2012-06-28,286,01,,,,09:00,18:00,02-3665-1260,서울특별시 강서구청,02-2600-4115,2026-01-01
복지정비서부사업소,03,서울특별시 강서구 개화동로 416(개화동),,37.574926630,126.801785100,2012-07-18,155,01,,,,09:00,18:00,02-2667-0934,서울특별시 강서구청,02-2600-4115,2026-01-01
메르세데스 벤츠 서비스센타,03,서울특별시 강서구 공항대로 665(염창동),,37.548267900,126.878186500,2012-08-24,1,01,,,,09:00,18:00,02-6355-0020,서울특별시 강서구청,02-2600-4115,2026-01-01
성신자동차공업사,03,서울특별시 강서구 송정로 33(공항동),,37.557809070,126.811177300,2012-09-17,286,01,,,,09:00,18:00,02-2662-0078,서울특별시 강서구청,02-2600-4115,2026-01-01
(주)티에이치모터스,03,서울특별시 강서구 국회대로7길 92(화곡동),,37.529754030,126.855758000,2012-11-15,61,01,,,,09:00,18:00,02-2617-2844,서울특별시 강서구청,02-2600-4115,2026-01-01
등촌형제자동차공업사,03,서울특별시 강서구 공항대로59다길 33(등촌동),,37.553117850,126.865306100,2012-11-28,72.25,01,,,,09:00,18:00,02-3665-8489,서울특별시 강서구청,02-2600-4115,2026-01-01
(주)오토가이드,03,서울특별시 강서구 양천로 311(가양동),,37.570496020,126.838075900,2012-12-21,1,01,,,,09:00,18:00,02-3665-5251,서울특별시 강서구청,02-2600-4115,2026-01-01
케이지모빌리티 강서서비스센터,01,서울특별시 강서구 남부순환로 223-11(외발산동),,37.546159260,126.822140100,2013-04-08,2049,01,,,,09:00,18:00,02-3664-5090,서울특별시 강서구청,02-2600-4115,2026-01-01
대영모터스,03,서울특별시 강서구 월정로 146(화곡동),,37.532054570,126.837322500,2013-10-16,287.9,01,,,,09:00,18:00,02-2696-0685,서울특별시 강서구청,02-2600-4115,2026-01-01
명덕자동차,01,서울특별시 강서구 공항대로59다길 179(염창동),,37.549633950,126.871936200,2013-11-04,964,01,,,,09:00,18:00,02-3661-0060,서울특별시 강서구청,02-2600-4115,2026-01-01
㈜웨스트서울모터스,02,"서울특별시 강서구 양천로53길 30, 지하1층 102호(가양동, 서서울모터리움)",,37.566572890,126.846907700,2014-02-21,534.69,01,,,,09:00,18:00,02-2659-3779,서울특별시 강서구청,02-2600-4115,2026-01-01
(주)한국모터스,01,서울특별시 강서구 양천로 686-3(염창동),,37.550066700,126.872179600,2014-07-22,2206.4,01,,,,09:00,18:00,02-3665-0292,서울특별시 강서구청,02-2600-4115,2026-01-01
다올모터스,03,"서울특별시 강서구 양천로53길 44, 1층 B1호(가양동)",,37.566790490,126.847612300,2014-08-12,94.38,01,,,,09:00,18:00,,서울특별시 강서구청,02-2600-4115,2026-01-01
그린서비스,02,서울특별시 강서구 남부순환로19길 48-37(외발산동),,37.546599080,126.824944300,2014-09-01,856,01,,,,09:00,18:00,02-3664-5669,서울특별시 강서구청,02-2600-4115,2026-01-01
주식회사 새라컴퍼니,03,"서울특별시 강서구 화곡로66길 181, 1층(등촌동)",,37.554391210,126.862705900,2014-12-22,172.87,01,,,,09:00,18:00,02-3664-9919,서울특별시 강서구청,02-2600-4115,2026-01-01
㈜르노코리아서비스코너공항점,03,서울특별시 강서구 남부순환로9길 1(공항동),,37.557223360,126.810238000,2014-12-30,336.54,01,,,,09:00,18:00,070-8611-9998,서울특별시 강서구청,02-2600-4115,2026-01-01
㈜명진센타,02,서울특별시 강서구 남부순환로19길 48-7(외발산동),,37.546362560,126.824392100,2015-04-30,1319,01,,,,09:00,18:00,02-2665-8313,서울특별시 강서구청,02-2600-4115,2026-01-01
코리아모터스,03,서울특별시 강서구 방화대로44길 29(방화동),,37.572087330,126.817932110,2015-05-01,64.08,01,,,,09:00,18:00,02-2662-9076,서울특별시 강서구청,02-2600-4115,2026-01-01
한성모터스,02,서울특별시 강서구 남부순환로 214(외발산동),,37.546199320,126.818917700,2015-09-04,1019,01,,,,09:00,18:00,02-3664-4516,서울특별시 강서구청,02-2600-4115,2026-01-01
대원카공업사,03,"서울특별시 강서구 강서로74길 21, 1층(등촌동)",,37.567371090,126.842376140,2015-11-20,76,01,,,,09:00,18:00,,서울특별시 강서구청,02-2600-4115,2026-01-01
티(T)방화정비서비스,03,"서울특별시 강서구 방화대로 344, 1층(방화동)",,37.571499190,126.817041600,2015-12-07,126,01,,,,09:00,18:00,02-2662-7718,서울특별시 강서구청,02-2600-4115,2026-01-01
강서현대서비스(주),01,서울특별시 강서구 남부순환로 223(외발산동),,37.545862040,126.821913800,2015-12-23,1940,01,,,,09:00,18:00,02-2661-0072,서울특별시 강서구청,02-2600-4115,2026-01-01
뉴창조모터스,02,서울특별시 강서구 남부순환로 223-17(외발산동),,37.546188730,126.822503300,2016-03-21,410.6,01,,,,09:00,18:00,02-2665-8811,서울특별시 강서구청,02-2600-4115,2026-01-01
(주)에프엠케이,02,"서울특별시 강서구 양천로66길 5, 4층동 5층(등촌동)",,37.554538470,126.865717100,2016-05-04,1643,01,,,,09:00,18:00,02-3433-0851,서울특별시 강서구청,02-2600-4115,2026-01-01
CM모터스,03,서울특별시 강서구 월정로 148(화곡동),,37.532200840,126.837223300,2016-05-13,171.68,01,,,,09:00,18:00,02-2606-3011,서울특별시 강서구청,02-2600-4115,2026-01-01
공임나라 방화점,03,"서울특별시 강서구 방화대로 373, 201동(방화동)",,37.574117910,126.816391300,2016-06-30,730,01,,,,09:00,18:00,02-2665-9390,서울특별시 강서구청,02-2600-4115,2026-01-01
아주네트웍스(주)목동서비스,03,서울특별시 강서구 공항대로 595(염창동),,37.547781510,126.871275600,2016-08-30,820,01,,,,09:00,18:00,02-2647-0582,서울특별시 강서구청,02-2600-4115,2026-01-01
효성토요타(주)강서서비스센터,01,"서울특별시 강서구 양천로47가길 19, 가동아동(가양동)",,37.571033990,126.838788400,2017-04-26,1013,01,,,,09:00,18:00,02-520-5500,서울특별시 강서구청,02-2600-4115,2026-01-01
테슬라코리아(유) 서울 강서점,02,"서울특별시 강서구 양천로66길 5, 1,3층(등촌동)",,37.554538470,126.865717100,2023-03-02,1885,01,,,,09:00,18:00,080-617-1399,서울특별시 강서구청,02-2600-4115,2026-01-01
동광모터스,02,"서울특별시 강서구 양천로66길 31, 2층(등촌동)",,37.553580540,126.865014200,2017-06-21,605,01,,,,09:00,18:00,02-3665-2657,서울특별시 강서구청,02-2600-4115,2026-01-01
(주)가인상사,03,"서울특별시 강서구 공항대로63길 12, 1층(염창동)",,37.550696590,126.867045700,2017-07-04,1,01,,,,09:00,18:00,02-2088-2121,서울특별시 강서구청,02-2600-4115,2026-01-01
신평 카클리닉,03,"서울특별시 강서구 양천로53길 44, 1층 B4호(가양동)",,37.566790490,126.847612300,2017-07-14,2567,01,,,,09:00,18:00,02-2659-0443,서울특별시 강서구청,02-2600-4115,2026-01-01
한강자동차공업㈜,01,서울특별시 강서구 남부순환로19길 48-23(외발산동),,37.546449560,126.824787600,2017-09-19,1589,01,,,,09:00,18:00,02-2667-0230,서울특별시 강서구청,02-2600-4115,2026-01-01
마곡종합서비스기아오토큐,02,"서울특별시 강서구 남부순환로 223-29, 31호(내발산동)",,37.546246830,126.823272700,2017-10-23,452,01,,,,09:00,18:00,02-3664-9231,서울특별시 강서구청,02-2600-4115,2026-01-01
세진모터스,02,"서울특별시 강서구 남부순환로19길 48-37, G동 동측일부호(외발산동)",,37.546599080,126.824944300,2018-04-25,419,01,,,,09:00,18:00,02-2667-0453,서울특별시 강서구청,02-2600-4115,2026-01-01
(주)강서종합정비사업소,02,"서울특별시 강서구 공항대로59다길 273, 1,2층(염창동)",,37.548253190,126.877037100,2018-05-09,520,01,,,,09:00,18:00,02-3661-0531,서울특별시 강서구청,02-2600-4115,2026-01-01
블루모터스,02,"서울특별시 강서구 남부순환로19길 48-37, G동동측1층북측일부동 2층(외발산동)",,37.546599080,126.824944300,2018-06-08,431,01,,,,09:00,18:00,02-2688-5984,서울특별시 강서구청,02-2600-4115,2026-01-01
(주)서서울공업사,02,"서울특별시 강서구 강서로 527, 일부호(가양동)",,37.572502780,126.842042200,2018-06-26,632,01,,,,09:00,18:00,02-3665-6666,서울특별시 강서구청,02-2600-4115,2026-01-01
그린자동차공업사,03,"서울특별시 강서구 등촌로 83-1, 1층 2호(등촌동)",,37.537501930,126.863195400,2019-03-12,370.5,01,,,,09:00,18:00,02-2649-2597,서울특별시 강서구청,02-2600-4115,2026-01-01
(주)대건모터스,02,"서울특별시 강서구 양천로47가길 16, 201동(가양동)",,37.570555680,126.838870200,2019-05-20,629,01,,,,09:00,18:00,02-3661-5088,서울특별시 강서구청,02-2600-4115,2026-01-01
굿모닝카독크,02,"서울특별시 강서구 양천로66길 31, 4층(등촌동)",,37.553580540,126.865014200,2019-06-11,605,01,,,,09:00,18:00,02-3661-5946,서울특별시 강서구청,02-2600-4115,2026-01-01
아시아자동차정비공장,02,서울특별시 강서구 남부순환로19길 48-7(외발산동),,37.546362560,126.824392100,2019-06-20,426,01,,,,09:00,18:00,02-2668-7702,서울특별시 강서구청,02-2600-4115,2026-01-01
카이저오토,03,서울특별시 강서구 방화대로 237(공항동),,37.561922890,126.816061700,2019-12-16,336.3,01,,,,09:00,18:00,02-6053-5454,서울특별시 강서구청,02-2600-4115,2026-01-01
세한현대모터스,02,서울특별시 강서구 방화대로 18(외발산동),,37.542045020,126.816944700,2020-03-25,743,01,,,,09:00,18:00,02-3661-3101,서울특별시 강서구청,02-2600-4115,2026-01-01
가양현대자동차공업사,02,서울특별시 강서구 공항대로59길 57(등촌동),,37.554218630,126.863216500,2020-03-26,1662,01,,,,09:00,18:00,02-3665-8284,서울특별시 강서구청,02-2600-4115,2026-01-01
하이큐모터스,03,서울특별시 강서구 양천로 400-12(가양동),,37.565247060,126.845836520,2020-07-08,4435,01,,,,09:00,18:00,02-6949-6934,서울특별시 강서구청,02-2600-4115,2026-01-01
현대카미다스,02,"서울특별시 강서구 화곡로66길 153, 4~5층(등촌동)",,37.554951140,126.861436100,2020-09-24,976,01,,,,09:00,18:00,02-2668-7686,서울특별시 강서구청,02-2600-4115,2026-01-01
(주)삼일일급자동차정비공업사,02,서울특별시 강서구 양천로47가길 22(가양동),,37.570608250,126.839102000,2020-11-03,440,01,,,,09:00,18:00,02-3664-3161,서울특별시 강서구청,02-2600-4115,2026-01-01
(주)신동성자동차,02,서울특별시 강서구 양천로 528(등촌동),,37.559270230,126.858162900,2020-12-02,522.52,01,,,,09:00,18:00,02-3663-4567,서울특별시 강서구청,02-2600-4115,2026-01-01
엘앤티렉서스(주),03,서울특별시 강서구 화곡로66길 71(등촌동),,37.557099700,126.857608400,2021-01-19,463.04,01,,,,09:00,18:00,02-3475-9164,서울특별시 강서구청,02-2600-4115,2026-01-01
르노코리아강서서비스센터㈜,02,서울특별시 강서구 양천로 372(가양동),,37.566982670,126.843401200,2021-04-30,736,01,,,,09:00,18:00,02-3663-4569,서울특별시 강서구청,02-2600-4115,2026-01-01
공임나라 서울 가양점,03,서울특별시 강서구 강서로74길 52(가양동),,37.566529500,126.843774500,2021-04-22,87.9,01,,,,09:00,18:00,02-3661-7597,서울특별시 강서구청,02-2600-4115,2026-01-01
강서정비센터㈜,01,서울특별시 강서구 양천로 372(가양동),,37.566982670,126.843401200,2008-01-07,1300.13,01,,,,09:00,18:00,02-3664-2600,서울특별시 강서구청,02-2600-4115,2026-01-01
충일전장,03,서울특별시 강서구 양천로 9(방화동),,37.572752310,126.804518530,2022-03-08,142.4,01,,,,09:00,18:00,02-3661-1331,서울특별시 강서구청,02-2600-4115,2026-01-01
AGE모터스,03,서울특별시 강서구 남부순환로 212(외발산동),,37.546643390,126.820668700,2022-06-28,63.51,01,,,,09:00,18:00,02-0000-0000,서울특별시 강서구청,02-2600-4115,2026-01-01
광진자동차서비스,03,서울특별시 강서구 강서로74길 52(가양동),,37.566529500,126.843774500,2022-07-26,69.3,01,,,,09:00,18:00,02-0000-0000,서울특별시 강서구청,02-2600-4115,2026-01-01
타이어테크 목동점,03,서울특별시 강서구 등촌로 47(화곡동),,37.534142640,126.863271500,2023-05-03,184.32,01,,,,09:00,18:00,02-2652-9410,서울특별시 강서구청,02-2600-4115,2026-01-01
(주)플라잉모터스,01,"서울특별시 강서구 방화대로 22(외발산동 384-8) A동 1층, B동1층, C동 1층",,37.542381030,126.817137290,2020-12-09,1579,01,,,,09:00,18:00,02-2667-0453,서울특별시 강서구청,02-2600-4115,2026-01-01
성원모터스,02,"서울특별시 강서구 방화대로 22(외발산동 384-8), A동 2층, B동2층",,37.542381030,126.817137290,2020-12-09,822,01,,,,09:00,18:00,02-2667-0453,서울특별시 강서구청,02-2600-4115,2026-01-01
대성우주카,03,서울특별시 강서구 강서로 472(등촌동),,37.567469820,126.841418600,1998-08-10,78,01,,,,09:00,18:00,02-3661-4760,서울특별시 강서구청,02-2600-4115,2026-01-01
공항모터스,03,서울특별시 강서구 초원로 67(방화동),,37.567825420,126.813076000,2019-12-18,126,01,,,,09:00,18:00,02-0000-0000,서울특별시 강서구청,02-2600-4115,2026-01-01
바이에른오토㈜ 김포공항 서비스센터,03,"서울특별시 강서구 하늘길 38, P1층(방화동)",,37.571369850,126.802960400,2024-03-20,378.29,01,,,,09:00,18:00,02-6116-3240,서울특별시 강서구청,02-2600-4115,2026-01-01
티스테이션 목동등촌로점,03,"서울특별시 강서구 등촌로 67, 1층(등촌동)",,37.536085930,126.863121030,2024-08-26,92.16,01,,,,09:00,18:00,02-2062-8882,서울특별시 강서구청,02-2600-4115,2026-01-01
(유)프리마모터스 강서서비스,03,서울특별시 강서구 양천로60길 43(등촌동),,37.556731340,126.858483600,2024-10-15,663.6,01,,,,09:00,18:00,02-6925-0393,서울특별시 강서구청,02-2600-4115,2026-01-01
1급경성모터스,01,서울특별시 강서구 남부순환로 224-46(외발산동),,37.545400000,126.818800000,2025-03-20,969,01,,,,09:00,18:00,02-0000-0000,서울특별시 강서구청,02-2600-4115,2026-01-01
㈜오토가이드 센터,03,"서울특별시 강서구 개화동로27가길 17, A동(방화동)",,37.563700000,126.807100000,2025-05-01,179,01,,,,09:00,18:00,02-0000-0000,서울특별시 강서구청,02-2600-4115,2026-01-01
마곡모터스,03,"서울특별시 강서구 방화대로8길 10, 1층(공항동)",,37.556300000,126.817200000,2025-05-25,60,01,,,,09:00,18:00,02-0000-0000,서울특별시 강서구청,02-2600-4115,2026-01-01
