자동차정비업체명,자동차정비업체종류,소재지도로명주소,소재지지번주소,위도,경도,사업등록일자,면적,영업상태,폐업일자,휴업시작일자,휴업종료일자,운영시작시각,운영종료시각,전화번호,관리기관명,관리기관전화번호,데이터기준일자
반도자동차공업사,1,전북특별자치도 익산시 황등면 화강암로 59,,35.99311918,126.9492993,2005-11-04,2172,03,2014-11-07,,,,,,전북특별자치도 익산시청 교통행정과,063-859-5564,2025-12-24
그린1급자동차공업사,1,전북특별자치도 익산시 오산면 광양길 98-10,,35.9430934,126.9257381,2008-02-25,1732,03,2014-09-17,,,,,,전북특별자치도 익산시청 교통행정과,063-859-5564,2025-12-24
(유)무진모터스,1,전북특별자치도 익산시 서동로38길 13-6 (금강동),,35.9382281,126.9761952,2012-02-23,3735,03,2016-07-13,,,,,,전북특별자치도 익산시청 교통행정과,063-859-5564,2025-12-24
(유)익산자동차공업사,1,전북특별자치도 익산시 목천로1길 19 (평화동),,35.931044,126.9450944,1979-06-10,3345,01,,,,,,,전북특별자치도 익산시청 교통행정과,063-859-5564,2025-12-24
유신자동차공업사,1,전북특별자치도 익산시 서동로 209 (금강동),,35.93889183,126.9730707,1980-04-11,3068,01,,,,,,,전북특별자치도 익산시청 교통행정과,063-859-5564,2025-12-24
1급 서일특장자동차공업사,1,전북특별자치도 익산시 함열읍 함열10길 25,,36.07582395,126.9659782,1980-08-20,1230,01,,,,,,,전북특별자치도 익산시청 교통행정과,063-859-5564,2025-12-24
국제자동차공업사,1,전북특별자치도 익산시 서동로 205 (금강동),,35.93886902,126.9726221,1988-10-28,2408,01,,,,,,,전북특별자치도 익산시청 교통행정과,063-859-5564,2025-12-24
새한자동차공업사,1,전북특별자치도 익산시 목천로 51 (목천동),,35.91926094,126.9339022,1988-12-30,6507,01,,,,,,,전북특별자치도 익산시청 교통행정과,063-859-5564,2025-12-24
익산진우자동차공업사,1,전북특별자치도 익산시 약촌로 63 (신흥동),,35.93946321,126.9773993,1989-07-15,1518,01,,,,,,,전북특별자치도 익산시청 교통행정과,063-859-5564,2025-12-24
반석자동차공업사,1,전북특별자치도 익산시 목천로6길 18 (인화동1가),,35.9294357,126.9467842,1992-07-31,759,01,,,,,,,전북특별자치도 익산시청 교통행정과,063-859-5564,2025-12-24
(유)대호자동차공업사,1,전북특별자치도 익산시 서동로 469 (용제동),,35.94302867,126.9996453,1992-07-31,1734,01,,,,,,,전북특별자치도 익산시청 교통행정과,063-859-5564,2025-12-24
(유)광진,1,전북특별자치도 익산시 목천로4길 29 (인화동1가),,35.9281555,126.9483098,1992-08-20,1290,01,,,,,,,전북특별자치도 익산시청 교통행정과,063-859-5564,2025-12-24
대훈자동차공업사 (유),1,전북특별자치도 익산시 목천로12길 15 A동 (인화동1가),,35.92824825,126.948763,1993-07-21,1395,03,2021-08-10,,,,,,전북특별자치도 익산시청 교통행정과,063-859-5564,2025-12-24
대신자동차공업사,1,전북특별자치도 익산시 목천로10길 12 (인화동1가),,35.9285013,126.9481209,1993-10-29,1625,01,,,,,,,전북특별자치도 익산시청 교통행정과,063-859-5564,2025-12-24
1급 신하림자동차공업사,1,전북특별자치도 익산시 함열읍 익산대로 1676-22,,36.06899854,126.9672709,1994-02-02,3511,01,,,,,,,전북특별자치도 익산시청 교통행정과,063-859-5564,2025-12-24
대우익산서비스㈜,1,전북특별자치도 익산시 서동로 242 (신흥동),,35.93990747,126.9766956,1994-03-18,6179,01,,,,,,,전북특별자치도 익산시청 교통행정과,063-859-5564,2025-12-24
(유)제일자동차공업사,1,전북특별자치도 익산시 군익로 446-1 (송학동),,35.94311165,126.9343311,1994-06-27,3655,01,,,,,,,전북특별자치도 익산시청 교통행정과,063-859-5564,2025-12-24
동산자동차공업사,1,전북특별자치도 익산시 목천로6길 42 (인화동1가),,35.92856699,126.9496924,1994-11-21,2650,01,,,,,,,전북특별자치도 익산시청 교통행정과,063-859-5564,2025-12-24
현대자동차공업사,1,전북특별자치도 익산시 동서로39길 2 (영등동),,35.95050228,126.9720106,1999-10-12,1970,01,,,,,,,전북특별자치도 익산시청 교통행정과,063-859-5564,2025-12-24
(유)남성자동차공업사,1,전북특별자치도 익산시 동서로 341 (영등동),,35.95095966,126.9708267,1999-12-03,1864,01,,,,,,,전북특별자치도 익산시청 교통행정과,063-859-5564,2025-12-24
㈜익산여객,1,전북특별자치도 익산시 무왕로2길 140 (목천동),,35.93388647,126.9221755,2000-07-19,8553,01,,,,,,,전북특별자치도 익산시청 교통행정과,063-859-5564,2025-12-24
백제자동차공업사,1,전북특별자치도 익산시 마한로 161 (어양동),,35.9660148,126.9821379,2000-07-27,3414,01,,,,,,,전북특별자치도 익산시청 교통행정과,063-859-5564,2025-12-24
이한자동차공업사,1,전북특별자치도 익산시 춘포로 81 (금강동),,35.91544922,126.9818169,2001-10-12,1269,01,,,,,,,전북특별자치도 익산시청 교통행정과,063-859-5564,2025-12-24
새천년자동차공업사,1,전북특별자치도 익산시 약촌로 8 (금강동),,35.93480819,126.9798798,2001-11-23,2415,01,,,,,,,전북특별자치도 익산시청 교통행정과,063-859-5564,2025-12-24
길자동차공업사,1,전북특별자치도 익산시 신왕길 13 (석왕동),,35.97193108,127.0271621,2001-11-23,1448,01,,,,,,,전북특별자치도 익산시청 교통행정과,063-859-5564,2025-12-24
(유)일급엘지자동차공업사,1,전북특별자치도 익산시 춘포로 35 (금강동),,35.91932782,126.9795824,2002-06-25,1909,01,,,,,,,전북특별자치도 익산시청 교통행정과,063-859-5564,2025-12-24
(유)1급진성자동차공업사,1,전북특별자치도 익산시 서동로46길 8 (용제동),,35.94457516,127.0033192,2002-09-24,2420,01,,,,,,,전북특별자치도 익산시청 교통행정과,063-859-5564,2025-12-24
GS1급자동차공업사,1,전북특별자치도 익산시 평동로 806 (동산동),,35.92563006,126.9667646,2003-08-06,1019,01,,,,,,,전북특별자치도 익산시청 교통행정과,063-859-5564,2025-12-24
(유)원창자동차공업사,1,전북특별자치도 익산시 마한로 57 (영등동),,35.96484218,126.9700766,2004-06-13,1390,03,2024-04-04,,,,,,전북특별자치도 익산시청 교통행정과,063-859-5564,2025-12-24
쌍용자동차 익산정비사업소 (주),1,전북특별자치도 익산시 오산면 군익로 352,,35.94675433,126.926179,2004-12-24,3967,01,,,,,,,전북특별자치도 익산시청 교통행정과,063-859-5564,2025-12-24
한스모터스,1,전북특별자치도 익산시 목천로 116 (목천동),,35.92343418,126.9382653,2005-02-01,1000,01,,,,,,,전북특별자치도 익산시청 교통행정과,063-859-5564,2025-12-24
현대자동차익산서비스,1,전북특별자치도 익산시 서동로 491 (용제동),,35.94427959,127.0014275,2007-07-31,2280,01,,,,,,,전북특별자치도 익산시청 교통행정과,063-859-5564,2025-12-24
DY㈜익산공장,1,전북특별자치도 익산시 석암로13길 118 (팔봉동),,35.9556387,127.0059059,2008-03-10,6230,01,,,,,,,전북특별자치도 익산시청 교통행정과,063-859-5564,2025-12-24
에이플러스자동차공업사,1,전북특별자치도 익산시 무왕로 798 (모현동2가),,35.96383965,126.9479469,2010-12-22,2138,01,,,,,,,전북특별자치도 익산시청 교통행정과,063-859-5564,2025-12-24
현주자동차공업사,1,전북특별자치도 익산시 무왕로 1506 (석왕동),,35.9697353,127.0204678,2012-04-10,1653,01,,,,,,,전북특별자치도 익산시청 교통행정과,063-859-5564,2025-12-24
세종특장차,1,전북특별자치도 익산시 왕궁면 왕춘길 76-28,,35.93421277,127.0609992,2015-01-26,2119,01,,,,,,,전북특별자치도 익산시청 교통행정과,063-859-5564,2025-12-24
서호자동차공업사,1,전북특별자치도 익산시 황등면 화강암로 86-8,,35.9954308,126.9503031,2015-05-11,1021,01,,,,,,,전북특별자치도 익산시청 교통행정과,063-859-5564,2025-12-24
하나로공업사,1,전북특별자치도 익산시 하나로 543-12 (어양동),,35.96944029,126.9784475,2016-04-01,2247,01,,,,,,,전북특별자치도 익산시청 교통행정과,063-859-5564,2025-12-24
한결자동차공업사,1,전북특별자치도 익산시 무왕로 779-30 (현영동),,35.96472792,126.9431909,2016-07-22,2247,01,,,,,,,전북특별자치도 익산시청 교통행정과,063-859-5564,2025-12-24
(유)무왕1급자동차공업사,1,전북특별자치도 익산시 무왕로31길 416 (월성동),,35.98779909,126.9792764,2016-12-08,3141,01,,,,,,,전북특별자치도 익산시청 교통행정과,063-859-5564,2025-12-24
태양 자동차 공업사,1,전북특별자치도 익산시 옛둑2길 83 (동산동),,35.91913917,126.9603836,2017-08-30,3173,01,,,,,,,전북특별자치도 익산시청 교통행정과,063-859-5564,2025-12-24
동산자동차공업사,1,전북특별자치도 익산시 목천로6길 42 (인화동1가),,35.92859599,126.9496932,2020-06-16,2650,01,,,,,,,전북특별자치도 익산시청 교통행정과,063-859-5565,2025-12-24
서호자동차공업사,2,전북특별자치도 익산시 황등면 화강암로 86-8,,35.9954308,126.9503031,2012-01-11,502,03,2015-05-08,,,,,,전북특별자치도 익산시청 교통행정과,063-859-5564,2025-12-24
금호자동차공업사,2,전북특별자치도 익산시 하나로 115 (금강동),,35.93243906,126.9791269,1996-09-24,700,01,,,,,,,전북특별자치도 익산시청 교통행정과,063-859-5564,2025-12-24
신세계자동차공업사,2,전북특별자치도 익산시 목천로6길 34 (인화동1가),,35.9288135,126.9486581,1998-09-16,517,01,,,,,,,전북특별자치도 익산시청 교통행정과,063-859-5564,2025-12-24
형제자동차공업사,2,전북특별자치도 익산시 목천로6길 38 102동 (인화동1가),,35.9287411,126.9489876,1998-10-15,834,01,,,,,,,전북특별자치도 익산시청 교통행정과,063-859-5564,2025-12-24
미래자동차공업사,2,전북특별자치도 익산시 서동로38길 13-5 (금강동),,35.9387337,126.9755744,2002-10-25,939,03,2022-12-22,,,,,,전북특별자치도 익산시청 교통행정과,063-859-5564,2025-12-24
연일자동차공업사,2,전북특별자치도 익산시 오산면 무왕로2길 346,,35.95032336,126.9310709,2003-04-21,818,01,,,,,,,전북특별자치도 익산시청 교통행정과,063-859-5564,2025-12-24
정열자동차공업사,2,전북특별자치도 익산시 서동로 199 (금강동),,35.9386838,126.9721523,2005-03-02,1486,01,,,,,,,전북특별자치도 익산시청 교통행정과,063-859-5564,2025-12-24
신황등자동차공업사,2,전북특별자치도 익산시 황등면 도선길 163,,36.0028029,126.9518503,2005-09-16,1113,01,,,,,,,전북특별자치도 익산시청 교통행정과,063-859-5564,2025-12-24
좋은차만들기공업사,2,전북특별자치도 익산시 서동로 466 (용제동),,35.9422475,126.9993346,2006-09-15,2493,01,,,,,,,전북특별자치도 익산시청 교통행정과,063-859-5564,2025-12-24
대광자동차공업사,2,전북특별자치도 익산시 무왕로 807 (신용동),,35.9648529,126.9486628,2007-10-29,776,01,,,,,,,전북특별자치도 익산시청 교통행정과,063-859-5564,2025-12-24
억불자동차공업사,2,전북특별자치도 익산시 석암로 179 (석암동),,35.9420378,127.0090436,2010-10-01,717,01,,,,,,,전북특별자치도 익산시청 교통행정과,063-859-5564,2025-12-24
대성공업사,2,전북특별자치도 익산시 오산면 무왕로2길 321-12,,35.94893429,126.929077,2012-05-14,798,03,2021-08-10,,,,,,전북특별자치도 익산시청 교통행정과,063-859-5564,2025-12-24
오토오아시스 홈플러스 익산점,3,전북특별자치도 익산시 무왕로 1035 (영등동 홈플러스),,35.95890226,126.9722201,2007-04-03,152,03,2024-03-20,,,,,,전북특별자치도 익산시청 교통행정과,063-859-5565,2025-12-24
이동준자동차세상,3,전북특별자치도 익산시 무왕로 971 (신동),,35.96105692,126.9658389,1997-08-20,621,3,2015-03-31,,,,,,전북특별자치도 익산시청 교통행정과,063-859-5564,2025-12-24
동성카센타,3,전북특별자치도 익산시 무왕로 937 (신동),,35.96283571,126.9625772,1998-10-17,178,03,2015-12-24,,,,,,전북특별자치도 익산시청 교통행정과,063-859-5564,2025-12-24
터보카센타,3,전북특별자치도 익산시 선화로 306 (마동),,35.94503475,126.9636984,1998-11-07,263,03,2017-02-03,,,,,,전북특별자치도 익산시청 교통행정과,063-859-5564,2025-12-24
대동종합카센타,3,전북특별자치도 익산시 무왕로 1614 (덕기동),,35.97209487,127.0317568,1998-11-10,150,03,2013-09-27,,,,,,전북특별자치도 익산시청 교통행정과,063-859-5564,2025-12-24
수영카센타,3,전북특별자치도 익산시 약촌로 237 (영등동),,35.9549136,126.9734531,1998-12-31,110,03,2013-07-01,,,,,,전북특별자치도 익산시청 교통행정과,063-859-5564,2025-12-24
카프랜드,3,전북특별자치도 익산시 무왕로12길 43 (신동),,35.95721968,126.9641862,1999-02-11,30,03,2016-01-12,,,,,,전북특별자치도 익산시청 교통행정과,063-859-5564,2025-12-24
명진카모터스,3,전북특별자치도 익산시 평동로 738 (동산동),,35.92842543,126.9598604,1999-03-31,119,03,2013-01-16,,,,,,전북특별자치도 익산시청 교통행정과,063-859-5564,2025-12-24
성진카센타,3,전북특별자치도 익산시 서동로 511 (용제동),,35.9455043,127.0028551,1999-07-02,149,03,2012-05-05,,,,,,전북특별자치도 익산시청 교통행정과,063-859-5564,2025-12-24
석불카센타,3,전북특별자치도 익산시 삼기면 미륵사지로 670 (삼기면),,36.0305203,127.0079042,1999-10-08,166,03,2014-07-14,,,,,,전북특별자치도 익산시청 교통행정과,063-859-5564,2025-12-24
르노삼성자동차 지정정비코너 마동점,3,전북특별자치도 익산시 중앙로 114 (마동),,35.93688246,126.9591558,1999-10-28,160,03,2015-12-01,,,,,,전북특별자치도 익산시청 교통행정과,063-859-5564,2025-12-24
스피드카센타,3,전북특별자치도 익산시 선화로 514,,35.94713035,126.9863672,2000-11-01,108,03,2014-10-27,,,,,,전북특별자치도 익산시청 교통행정과,063-859-5564,2025-12-24
이엘씨테크,3,전북특별자치도 익산시 배산로 63 (모현동1가),,35.9434787,126.9379756,2000-11-20,181,03,2013-09-12,,,,,,전북특별자치도 익산시청 교통행정과,063-859-5564,2025-12-24
인정카클리닉,3,전북특별자치도 익산시 동서로51길 76 (영등동),,35.958043,126.9787569,2001-08-06,104,03,2012-11-01,,,,,,전북특별자치도 익산시청 교통행정과,063-859-5564,2025-12-24
이레카써비스,3,전북특별자치도 익산시 군익로 495 (송학동),,35.9422015,126.9401085,2002-04-26,103,03,2015-04-06,,,,,,전북특별자치도 익산시청 교통행정과,063-859-5564,2025-12-24
대성종합카센타,3,전북특별자치도 익산시 함열읍 함열10길 28 (함열읍),,36.07680666,126.9670564,2002-10-18,115,03,2016-03-04,,,,,,전북특별자치도 익산시청 교통행정과,063-859-5564,2025-12-24
우성카센타,3,전북특별자치도 익산시 왕궁면 왕궁로 146 (왕궁면),,35.9332144,127.0786411,2008-01-02,1247,03,2014-07-07,,,,,,전북특별자치도 익산시청 교통행정과,063-859-5564,2025-12-24
자동차세상,3,전북특별자치도 익산시 부송로 17 (어양동),,35.9535697,126.9928084,2008-03-11,134,03,2014-08-14,,,,,,전북특별자치도 익산시청 교통행정과,063-859-5564,2025-12-24
일신카공업사,3,전북특별자치도 익산시 용안면 익산대로 2408-2 (용안면),,36.1238513,126.9744885,2008-08-07,203,03,2014-07-15,,,,,,전북특별자치도 익산시청 교통행정과,063-859-5564,2025-12-24
타이어테크 익산본점,3,전북특별자치도 익산시 선화로 506 (신흥동),,35.9470458,126.9853626,2009-07-31,426,03,2013-04-12,,,,,,전북특별자치도 익산시청 교통행정과,063-859-5564,2025-12-24
조합카센타,3,전북특별자치도 익산시 무왕로2길 46-9 (목천동),,35.92652849,126.9164193,2009-09-03,110,03,2017-02-07,,,,,,전북특별자치도 익산시청 교통행정과,063-859-5564,2025-12-24
천운카센타,3,전북특별자치도 익산시 서동로38길 6 (금강동),,35.93901369,126.9747874,2011-08-04,231,03,2014-10-21,,,,,,전북특별자치도 익산시청 교통행정과,063-859-5564,2025-12-24
수 카센타,3,전북특별자치도 익산시 인북로 95 (갈산동),,35.9377537,126.9523233,2012-06-25,332,03,2013-08-06,,,,,,전북특별자치도 익산시청 교통행정과,063-859-5564,2025-12-24
봉명카센타,3,전북특별자치도 익산시 익산대로 290 (남중동),,35.95154852,126.9522128,2012-07-03,225,03,2014-03-10,,,,,,전북특별자치도 익산시청 교통행정과,063-859-5564,2025-12-24
하나카모터스,3,전북특별자치도 익산시 선화로 655 (부송동),,35.95604258,126.9976101,2012-09-24,114,03,2013-06-24,,,,,,전북특별자치도 익산시청 교통행정과,063-859-5564,2025-12-24
TIRE TECH 넥센타이어,3,전북특별자치도 익산시 선화로 506 (신흥동),,35.9470458,126.9853626,2013-11-06,426,03,2015-11-06,,,,,,전북특별자치도 익산시청 교통행정과,063-859-5564,2025-12-24
현모터스,3,전북특별자치도 익산시 선화로 655 (부송동),,35.95604258,126.9976101,2014-05-30,114,03,2016-05-31,,,,,,전북특별자치도 익산시청 교통행정과,063-859-5564,2025-12-24
대우상사,3,전북특별자치도 익산시 무왕로31길 416 (월성동),,35.98779909,126.9792764,2015-04-24,1647,03,2017-01-18,,,,,,전북특별자치도 익산시청 교통행정과,063-859-5564,2025-12-24
인정카센타,3,전북특별자치도 익산시 고봉로30길 85-1 (어양동),,35.95575608,126.9796617,1999-11-04,237,03,2017-11-27,,,,,,전북특별자치도 익산시청 교통행정과,063-859-5564,2025-12-24
알파안전,3,전북특별자치도 익산시 선화로 309 (마동),,35.94570098,126.9640787,1999-01-19,80,03,2017-12-18,,,,,,전북특별자치도 익산시청 교통행정과,063-859-5564,2025-12-24
신흥점 기아오토큐,3,전북특별자치도 익산시 서동로 318 (신흥동),,35.9405145,126.9847479,1997-06-05,551,01,,,,,,,전북특별자치도 익산시청 교통행정과,063-859-5564,2025-12-24
서부종합카,3,전북특별자치도 익산시 학곤로16길 60 (송학동),,35.94323706,126.9329631,1997-08-30,191,01,,,,,,,전북특별자치도 익산시청 교통행정과,063-859-5564,2025-12-24
신진카센타,3,전북특별자치도 익산시 삼기면 황금로 492 (삼기면),,36.0208174,126.9815309,1997-09-20,135,01,,,,,,,전북특별자치도 익산시청 교통행정과,063-859-5564,2025-12-24
금마카센타,3,전북특별자치도 익산시 금마면 금마길 40 (금마면),,35.99006482,127.0523301,1997-10-22,154,03,2019-02-07,,,,,,전북특별자치도 익산시청 교통행정과,063-859-5564,2025-12-24
바로카서비스,3,전북특별자치도 익산시 고봉로18길 3 (영등동),,35.95332781,126.9695911,1997-11-20,180,01,,,,,,,전북특별자치도 익산시청 교통행정과,063-859-5564,2025-12-24
진성카센타,3,전북특별자치도 익산시 황등면 황등로 36 (황등면),,35.9964414,126.9489713,1997-11-20,165,01,,,,,,,전북특별자치도 익산시청 교통행정과,063-859-5564,2025-12-24
현대종합카센타,3,전북특별자치도 익산시 목천로 269 (인화동1가),,35.9292619,126.9512839,1997-11-20,690,03,2023-01-12,,,,,,전북특별자치도 익산시청 교통행정과,063-859-5564,2025-12-24
현대믿음카센타,3,전북특별자치도 익산시 석치길 29 (석왕동),,35.9767069,127.0096553,1997-11-20,364,01,,,,,,,전북특별자치도 익산시청 교통행정과,063-859-5564,2025-12-24
수성카닥터,3,전북특별자치도 익산시 학곤로12길 13-2 (송학동),,35.9385307,126.9413455,1997-11-20,185,01,,,,,,,전북특별자치도 익산시청 교통행정과,063-859-5564,2025-12-24
한국카센타,3,전북특별자치도 익산시 주현로 26 (주현동),,35.9326111,126.9559441,1997-11-20,175,01,,,,,,,전북특별자치도 익산시청 교통행정과,063-859-5564,2025-12-24
태흥카,3,전북특별자치도 익산시 동서로 335 (영등동),,35.9505886,126.9706382,1997-11-28,375,01,,,,,,,전북특별자치도 익산시청 교통행정과,063-859-5564,2025-12-24
일성카센타,3,전북특별자치도 익산시 인북로 50 (인화동1가),,35.9336752,126.9513597,1997-11-28,197,01,,,,,,,전북특별자치도 익산시청 교통행정과,063-859-5564,2025-12-24
동산밧데리,3,전북특별자치도 익산시 평동로 776 (동산동),,35.927028,126.9639876,1997-12-09,148,01,,,,,,,전북특별자치도 익산시청 교통행정과,063-859-5564,2025-12-24
신기카센타,3,전북특별자치도 익산시 약촌로 53-12 (금강동),,35.9378674,126.9768931,1997-12-30,170,01,,,,,,,전북특별자치도 익산시청 교통행정과,063-859-5564,2025-12-24
삼동카센타,3,전북특별자치도 익산시 익산대로23길 39 (신동),,35.9647002,126.9525594,1997-12-30,195,01,,,,,,,전북특별자치도 익산시청 교통행정과,063-859-5564,2025-12-24
고운카써비스,3,전북특별자치도 익산시 고현로5길 4 (송학동),,35.94022753,126.9409875,1998-01-09,151,01,,,,,,,전북특별자치도 익산시청 교통행정과,063-859-5564,2025-12-24
카매니아클럽,3,전북특별자치도 익산시 동서로 322-1 (영등동),,35.9504452,126.9691503,1998-01-22,193,01,,,,,,,전북특별자치도 익산시청 교통행정과,063-859-5564,2025-12-24
삼정카인테리어,3,전북특별자치도 익산시 목천로 300 (인화동2가),,35.9278422,126.9539794,1998-01-22,198,01,,,,,,,전북특별자치도 익산시청 교통행정과,063-859-5564,2025-12-24
현대카클리닉 영등점,3,전북특별자치도 익산시 무왕로 1017 (영등동),,35.9589076,126.9701321,1998-02-17,196,01,,,,,,,전북특별자치도 익산시청 교통행정과,063-859-5564,2025-12-24
금마카테크,3,전북특별자치도 익산시 서동로 230 (금강동),,35.93906447,126.9753874,1998-02-17,179,01,,,,,,,전북특별자치도 익산시청 교통행정과,063-859-5564,2025-12-24
삼일카독크센타,3,전북특별자치도 익산시 무왕로10길 4 (신동),,35.961324,126.9641866,1998-02-20,187,01,,,,,,,전북특별자치도 익산시청 교통행정과,063-859-5564,2025-12-24
동일카인테리어,3,전북특별자치도 익산시 배산로2길 11-15 (송학동),,35.9395545,126.9379671,1998-02-27,446,01,,,,,,,전북특별자치도 익산시청 교통행정과,063-859-5564,2025-12-24
한국타이어 새한대리점,3,전북특별자치도 익산시 목천로 254 (인화동1가),,35.92920727,126.9491721,1998-04-03,396,01,,,,,,,전북특별자치도 익산시청 교통행정과,063-859-5564,2025-12-24
한국타이어 공단대리점,3,전북특별자치도 익산시 선화로30길 57-1 (용제동),,35.94787365,126.9951276,1998-05-19,140,01,,,,,,,전북특별자치도 익산시청 교통행정과,063-859-5564,2025-12-24
이레오토밋션,3,전북특별자치도 익산시 인북로 343 (신동),,35.95891783,126.9611055,1998-05-21,194,01,,,,,,,전북특별자치도 익산시청 교통행정과,063-859-5564,2025-12-24
보람카센타,3,전북특별자치도 익산시 익산대로22길 43 (남중동),,35.9436229,126.9535692,1998-05-21,196,01,,,,,,,전북특별자치도 익산시청 교통행정과,063-859-5564,2025-12-24
영카센타,3,전북특별자치도 익산시 금마면 무왕로 1871,,35.98705506,127.0531156,1998-05-28,192,01,,,,,,,전북특별자치도 익산시청 교통행정과,063-859-5564,2025-12-24
진영카센타,3,전북특별자치도 익산시 고봉로18길 9 (영등동),,35.9531543,126.9700806,1998-05-28,167,01,,,,,,,전북특별자치도 익산시청 교통행정과,063-859-5564,2025-12-24
원준카서비스,3,전북특별자치도 익산시 고봉로32길 40 (영등동),,35.9595239,126.9754942,1998-05-28,120,01,,,,,,,전북특별자치도 익산시청 교통행정과,063-859-5564,2025-12-24
호남튠업사,3,전북특별자치도 익산시 동서로 335-1 (영등동),,35.95062717,126.9707462,1998-06-11,225,01,,,,,,,전북특별자치도 익산시청 교통행정과,063-859-5564,2025-12-24
피드백오토샵,3,전북특별자치도 익산시 목천로 28 (목천동),,35.91684181,126.932833,1998-07-08,149,01,,,,,,,전북특별자치도 익산시청 교통행정과,063-859-5564,2025-12-24
영등종합카센타,3,전북특별자치도 익산시 선화로51길 35 (영등동),,35.9497223,126.9669417,1998-07-14,180,01,,,,,,,전북특별자치도 익산시청 교통행정과,063-859-5564,2025-12-24
미성카센타,3,전북특별자치도 익산시 금마면 미륵사지로 48 (금마면),,35.99052454,127.0495748,1998-07-14,50,01,,,,,,,전북특별자치도 익산시청 교통행정과,063-859-5564,2025-12-24
해금강카센타,3,전북특별자치도 익산시 익산대로13길 3 (남중동),,35.95053143,126.9510423,1998-07-14,320,01,,,,,,,전북특별자치도 익산시청 교통행정과,063-859-5564,2025-12-24
서원종합카센타,3,전북특별자치도 익산시 동서로51길 72 (어양동),,35.9575664,126.9787731,1998-07-14,159,01,,,,,,,전북특별자치도 익산시청 교통행정과,063-859-5564,2025-12-24
현대자동차 모현점,3,전북특별자치도 익산시 동서로 110 (모현동2가),,35.9553057,126.9469314,1998-07-23,162,01,,,,,,,전북특별자치도 익산시청 교통행정과,063-859-5564,2025-12-24
용제카센타,3,전북특별자치도 익산시 서동로 456 (용제동),,35.9419592,126.9983662,1998-08-12,124,01,,,,,,,전북특별자치도 익산시청 교통행정과,063-859-5564,2025-12-24
명동튠업사,3,전북특별자치도 익산시 서동로4길 9 (주현동),,35.9317207,126.9588624,1998-08-18,178,01,,,,,,,전북특별자치도 익산시청 교통행정과,063-859-5564,2025-12-24
동양밧데리,3,전북특별자치도 익산시 춘포로 18 (금강동),,35.92065783,126.9782834,1998-09-14,193,03,2018-06-30,,,,,,전북특별자치도 익산시청 교통행정과,063-859-5564,2025-12-24
동방자동차정비,3,전북특별자치도 익산시 평동로 710 (동산동),,35.9294093,126.9569921,1998-09-14,106,01,,,,,,,전북특별자치도 익산시청 교통행정과,063-859-5564,2025-12-24
우리카센터,3,전북특별자치도 익산시 배산로 67 (모현동1가),,35.94401492,126.9381539,1998-09-14,689,03,2018-05-03,,,,,,전북특별자치도 익산시청 교통행정과,063-859-5564,2025-12-24
애니카랜드 마동점,3,전북특별자치도 익산시 중앙로 111-2 (마동),,35.93754937,126.9591526,1998-09-21,459,01,,,,,,,전북특별자치도 익산시청 교통행정과,063-859-5564,2025-12-24
킹카써비스,3,전북특별자치도 익산시 고봉로 335 (영등동),,35.9619553,126.9711481,1998-09-28,185,01,,,,,,,전북특별자치도 익산시청 교통행정과,063-859-5564,2025-12-24
배산오토랜드,3,전북특별자치도 익산시 동서로 195 (남중동),,35.9544729,126.9561086,1998-09-28,415,01,,,,,,,전북특별자치도 익산시청 교통행정과,063-859-5564,2025-12-24
T-STATION 영등점,3,전북특별자치도 익산시 고봉로 261-4 (영등동),,35.9555735,126.9697954,1998-10-29,282,01,,,,,,,전북특별자치도 익산시청 교통행정과,063-859-5564,2025-12-24
광장카,3,전북특별자치도 익산시 함열읍 익산대로 1802,,36.07906827,126.9676955,1998-11-07,730,01,,,,,,,전북특별자치도 익산시청 교통행정과,063-859-5564,2025-12-24
형제밧데리,3,전북특별자치도 익산시 오산면 무왕로2길 260 (오산면),,35.94338504,126.9270737,1998-11-07,121,01,,,,,,,전북특별자치도 익산시청 교통행정과,063-859-5564,2025-12-24
호남밧데리A/S센타,3,전북특별자치도 익산시 목천로 325 (동산동),,35.9275491,126.9568868,1998-11-10,115,01,,,,,,,전북특별자치도 익산시청 교통행정과,063-859-5564,2025-12-24
천마카센타,3,전북특별자치도 익산시 금마면 미륵사지로1길 32,,35.9892421,127.0528846,1998-11-19,142,01,,,,,,,전북특별자치도 익산시청 교통행정과,063-859-5564,2025-12-24
통운카센타,3,"전북특별자치도 익산시 석암로3길 85, 802동 (팔봉동)",,35.9551196,127.005396,1998-12-03,190,03,2018-04-24,,,,,,전북특별자치도 익산시청 교통행정과,063-859-5564,2025-12-24
영등점 기아오토큐,3,전북특별자치도 익산시 고봉로 225 (영등동),,35.95248942,126.9686422,1998-12-08,183,01,,,,,,,전북특별자치도 익산시청 교통행정과,063-859-5564,2025-12-24
신동카센타,3,전북특별자치도 익산시 인북로 373 (신동),,35.96150171,126.9620558,1998-12-17,198,01,,,,,,,전북특별자치도 익산시청 교통행정과,063-859-5564,2025-12-24
타이어프로인화점,3,전북특별자치도 익산시 평동로 669 (인화동2가),,35.9311301,126.9531332,1998-12-31,247,01,,,,,,,전북특별자치도 익산시청 교통행정과,063-859-5564,2025-12-24
MJ Motors,3,전북특별자치도 익산시 평동로 751 (동산동),,35.9281539,126.9614784,1998-12-31,100,01,,,,,,,전북특별자치도 익산시청 교통행정과,063-859-5564,2025-12-24
준카프라자,3,전북특별자치도 익산시 익산대로 304-1 (남중동),,35.95293295,126.9525501,1999-01-06,186,01,,,,,,,전북특별자치도 익산시청 교통행정과,063-859-5564,2025-12-24
대우모터스,3,전북특별자치도 익산시 평동로 658 (인화동1가),,35.93110362,126.9516845,1999-01-06,178,01,,,,,,,전북특별자치도 익산시청 교통행정과,063-859-5564,2025-12-24
만나카클리닉,3,전북특별자치도 익산시 무왕로 1337-3 (팔봉동),,35.9626323,127.0045895,1999-01-19,149,01,,,,,,,전북특별자치도 익산시청 교통행정과,063-859-5564,2025-12-24
유명카센타,3,전북특별자치도 익산시 인북로 306 (남중동),,35.9554192,126.9603617,1999-01-26,104,01,,,,,,,전북특별자치도 익산시청 교통행정과,063-859-5564,2025-12-24
익산스타카센타,3,전북특별자치도 익산시 오산면 군익로 348 (오산면),,35.9478352,126.9253868,1999-01-30,100,03,2020-12-02,,,,,,전북특별자치도 익산시청 교통행정과,063-859-5564,2025-12-24
부흥밧데리,3,전북특별자치도 익산시 함열읍 익산대로 1703 (함열읍),,36.0700292,126.9660628,1999-02-05,142,01,,,,,,,전북특별자치도 익산시청 교통행정과,063-859-5564,2025-12-24
상룡카센타,3,전북특별자치도 익산시 익산대로74길 7 (신용동),,35.9743325,126.9557969,1999-02-11,169,03,2016-12-30,,,,,,전북특별자치도 익산시청 교통행정과,063-859-5564,2025-12-24
쌍용자동차 익산서비스프라자,3,전북특별자치도 익산시 익산대로44길 1 (남중동),,35.9505318,126.9519488,1999-02-11,677,01,,,,,,,전북특별자치도 익산시청 교통행정과,063-859-5564,2025-12-24
하이카프라자,3,전북특별자치도 익산시 하나로13길 8 (영등동),,35.9606644,126.9804985,1999-02-24,205,01,,,,,,,전북특별자치도 익산시청 교통행정과,063-859-5564,2025-12-24
함열밧데리카센타,3,전북특별자치도 익산시 함열읍 함낭로 534 (함열읍),,36.07396223,126.966586,1999-03-08,185,01,,,,,,,전북특별자치도 익산시청 교통행정과,063-859-5564,2025-12-24
금호카세차장,3,전북특별자치도 익산시 선화로49길 38 (영등동),,35.94790073,126.9665717,1999-03-18,1188,01,,,,,,,전북특별자치도 익산시청 교통행정과,063-859-5564,2025-12-24
1급믿음카센타,3,전북특별자치도 익산시 주현로 70 (주현동),,35.9363123,126.9576785,1999-04-03,175,01,,,,,,,전북특별자치도 익산시청 교통행정과,063-859-5564,2025-12-24
공열종합카센타,3,전북특별자치도 익산시 황등면 화강암로 77 (황등면),,35.99492932,126.9493665,1999-04-03,183,01,,,,,,,전북특별자치도 익산시청 교통행정과,063-859-5564,2025-12-24
현대카인테리어,3,전북특별자치도 익산시 함열읍 익산대로 1780 (함열읍),,36.07683834,126.9678228,1999-04-15,154,01,,,,,,,전북특별자치도 익산시청 교통행정과,063-859-5564,2025-12-24
원카센타,3,전북특별자치도 익산시 무왕로 1350 (팔봉동),,35.96265757,127.0057581,1999-05-14,157,03,2018-06-20,,,,,,전북특별자치도 익산시청 교통행정과,063-859-5564,2025-12-24
우진카서비스,3,전북특별자치도 익산시 무왕로 968 (신동),,35.9608422,126.9652671,1999-05-31,192,01,,,,,,,전북특별자치도 익산시청 교통행정과,063-859-5564,2025-12-24
보석카크리닉,3,전북특별자치도 익산시 선화로 367 (영등동),,35.9460383,126.9703481,1999-06-21,117,01,,,,,,,전북특별자치도 익산시청 교통행정과,063-859-5564,2025-12-24
드림카프라자,3,전북특별자치도 익산시 궁동로 77 (영등동),,35.96221984,126.9800341,1999-06-23,125,01,,,,,,,전북특별자치도 익산시청 교통행정과,063-859-5564,2025-12-24
세림카센타,3,전북특별자치도 익산시 낭산면 함낭로 1187 (낭산면),,36.07571366,127.0355028,1999-06-28,144,03,2021-07-05,,,,,,전북특별자치도 익산시청 교통행정과,063-859-5564,2025-12-24
평화경정비상사,3,전북특별자치도 익산시 함열읍 미륵사지로 1206 (함열읍),,36.06624713,126.9736682,1999-07-02,195,01,,,,,,,전북특별자치도 익산시청 교통행정과,063-859-5564,2025-12-24
한달음정비센타,3,전북특별자치도 익산시 하나로 292 (신흥동),,35.9467057,126.984993,1999-07-24,196,03,2023-01-16,,,,,,전북특별자치도 익산시청 교통행정과,063-859-5564,2025-12-24
진자동차병원,3,전북특별자치도 익산시 고봉로36길 7 (영등동),,35.9632147,126.9720221,1999-09-21,163,01,,,,,,,전북특별자치도 익산시청 교통행정과,063-859-5564,2025-12-24
타이어프로 부송점,3,전북특별자치도 익산시 무왕로 1245 (부송동),,35.96058114,126.9949938,1999-09-29,316,03,2021-04-30,,,,,,전북특별자치도 익산시청 교통행정과,063-859-5564,2025-12-24
애니카랜드 영등점,3,전북특별자치도 익산시 궁동로 9 (영등동),,35.96203447,126.9723549,1999-10-11,120,01,,,,,,,전북특별자치도 익산시청 교통행정과,063-859-5564,2025-12-24
하이원카서비스,3,전북특별자치도 익산시 무왕로 1175 (부송동),,35.9595095,126.9871754,1999-11-10,128,01,,,,,,,전북특별자치도 익산시청 교통행정과,063-859-5564,2025-12-24
태풍카인테리어,3,전북특별자치도 익산시 동서로45길 3 (영등동),,35.9516535,126.9763895,1999-12-28,124,01,,,,,,,전북특별자치도 익산시청 교통행정과,063-859-5564,2025-12-24
이공단카써비스,3,전북특별자치도 익산시 석암로 128 (용제동),,35.9449583,127.004287,2000-02-11,407,01,,,,,,,전북특별자치도 익산시청 교통행정과,063-859-5564,2025-12-24
차사랑,3,전북특별자치도 익산시 고봉로 289 (영등동),,35.9578415,126.9706727,2000-02-28,113,01,,,,,,,전북특별자치도 익산시청 교통행정과,063-859-5564,2025-12-24
슈퍼카모터스,3,전북특별자치도 익산시 선화로59길 52 (영등동),,35.9499195,126.9718551,2000-03-30,471,01,,,,,,,전북특별자치도 익산시청 교통행정과,063-859-5564,2025-12-24
그랜드카서비스,3,전북특별자치도 익산시 고봉로18길 37 (영등동),,35.9528216,126.9730651,2000-04-06,129,01,,,,,,,전북특별자치도 익산시청 교통행정과,063-859-5564,2025-12-24
삼기문화카센타,3,전북특별자치도 익산시 삼기면 황금로 537 (삼기면),,36.018768,126.9860931,2000-05-15,100,01,,,,,,,전북특별자치도 익산시청 교통행정과,063-859-5564,2025-12-24
한솔카프라자,3,전북특별자치도 익산시 고봉로18길 16 (영등동),,35.9526634,126.9707454,2000-06-08,159,01,,,,,,,전북특별자치도 익산시청 교통행정과,063-859-5564,2025-12-24
엔크린카센타,3,전북특별자치도 익산시 선화로 306 (마동),,35.94503475,126.9636984,2000-06-26,1465,01,,,,,,,전북특별자치도 익산시청 교통행정과,063-859-5564,2025-12-24
에이스카,3,전북특별자치도 익산시 서동로 20 (동산동),,35.92917779,126.9567854,2000-07-18,186,01,,,,,,,전북특별자치도 익산시청 교통행정과,063-859-5564,2025-12-24
현대그린카,3,전북특별자치도 익산시 익산대로2길 14-8 (평화동),,35.93150544,126.9450452,2000-07-29,40,01,,,,,,,전북특별자치도 익산시청 교통행정과,063-859-5564,2025-12-24
남바우세차장,3,전북특별자치도 익산시 익산대로 271 (남중동),,35.9501424,126.9509561,2000-08-09,210,01,,,,,,,전북특별자치도 익산시청 교통행정과,063-859-5564,2025-12-24
김연수카매니저,3,전북특별자치도 익산시 배산로 189-4 (모현동2가),,35.9545688,126.9417971,2000-08-21,102,01,,,,,,,전북특별자치도 익산시청 교통행정과,063-859-5564,2025-12-24
친구카센타,3,전북특별자치도 익산시 인북로 369 (신동),,35.9611651,126.9619537,2000-08-21,150,01,,,,,,,전북특별자치도 익산시청 교통행정과,063-859-5564,2025-12-24
뉴모악카경정비,3,전북특별자치도 익산시 금마면 호남로 947 (금마면),,35.9952521,127.0618418,2000-08-21,100,01,,,,,,,전북특별자치도 익산시청 교통행정과,063-859-5564,2025-12-24
1급전라카써비스,3,전북특별자치도 익산시 궁동로 101 (어양동),,35.96240046,126.9824328,2000-09-06,106,01,,,,,,,전북특별자치도 익산시청 교통행정과,063-859-5564,2025-12-24
미륵카쎈타,3,전북특별자치도 익산시 금마면 미륵사지로 261 (금마면),,36.0060603,127.0377688,2000-10-25,107,01,,,,,,,전북특별자치도 익산시청 교통행정과,063-859-5564,2025-12-24
광선자동차나라,3,전북특별자치도 익산시 동서로 189 (남중동),,35.9546217,126.9552886,2000-11-07,202,01,,,,,,,전북특별자치도 익산시청 교통행정과,063-859-5564,2025-12-24
현대자동차 함열점,3,전북특별자치도 익산시 함열읍 함낭로 495 (함열읍),,36.07410879,126.9622155,2001-02-12,191,01,,,,,,,전북특별자치도 익산시청 교통행정과,063-859-5564,2025-12-24
오토피아 동부점,3,전북특별자치도 익산시 서동로 276 (신흥동),,35.94024397,126.9800159,2001-02-28,192,01,,,,,,,전북특별자치도 익산시청 교통행정과,063-859-5564,2025-12-24
두리카서비스,3,전북특별자치도 익산시 서동로 443 (신흥동),,35.9420438,126.9969554,2001-04-03,115,01,,,,,,,전북특별자치도 익산시청 교통행정과,063-859-5564,2025-12-24
(유)금호타이어 호남총판 목천점,3,전북특별자치도 익산시 목천로 11 (목천동),,35.9157482,126.9313585,2001-05-16,698,01,,,,,,,전북특별자치도 익산시청 교통행정과,063-859-5564,2025-12-24
금호타이어 대진대리점,3,전북특별자치도 익산시 무왕로 984 (신동),,35.9599873,126.9665686,2001-06-09,151,01,,,,,,,전북특별자치도 익산시청 교통행정과,063-859-5564,2025-12-24
현대자동차 송학점,3,전북특별자치도 익산시 학곤로 65 (송학동),,35.93721297,126.9393841,2001-06-09,141,01,,,,,,,전북특별자치도 익산시청 교통행정과,063-859-5564,2025-12-24
동인종합카센타,3,전북특별자치도 익산시 선화로 369 (영등동),,35.9463455,126.9708628,2001-07-14,100,01,,,,,,,전북특별자치도 익산시청 교통행정과,063-859-5564,2025-12-24
스피드메이트 한신점,3,전북특별자치도 익산시 선화로 514 (신흥동),,35.94713035,126.9863672,2001-12-26,1538,01,,,,,,,전북특별자치도 익산시청 교통행정과,063-859-5564,2025-12-24
고려카공업사,3,전북특별자치도 익산시 낭산면 함낭로 1151 (낭산면),,36.07530744,127.0314705,2002-03-14,183,01,,,,,,,전북특별자치도 익산시청 교통행정과,063-859-5564,2025-12-24
오토오아시스롯데마트익산점,3,전북특별자치도 익산시 무왕로 1053 (영등동),,35.9590886,126.9741271,2002-04-10,114,03,2021-10-01,,,,,,전북특별자치도 익산시청 교통행정과,063-859-5564,2025-12-24
신광튠업정비,3,전북특별자치도 익산시 동서로51길 58-1 (어양동),,35.95651298,126.9788357,2002-04-16,108,01,,,,,,,전북특별자치도 익산시청 교통행정과,063-859-5564,2025-12-24
진주카센타,3,전북특별자치도 익산시 동서로 249 (남중동),,35.9528253,126.9617137,2002-04-30,164,01,,,,,,,전북특별자치도 익산시청 교통행정과,063-859-5564,2025-12-24
한국지엠 익산바로서비스,3,전북특별자치도 익산시 배산로24길 6 (모현동1가),,35.95210645,126.9421603,2002-05-01,110,01,,,,,,,전북특별자치도 익산시청 교통행정과,063-859-5564,2025-12-24
우리카경정비센타3급,3,전북특별자치도 익산시 금마면 미륵사지로 29 (금마면),,35.9888307,127.0490724,2002-07-29,543,01,,,,,,,전북특별자치도 익산시청 교통행정과,063-859-5564,2025-12-24
한빛카센타,3,전북특별자치도 익산시 황등면 황등로 45 (황등면),,35.99711682,126.9477673,2002-08-23,102,01,,,,,,,전북특별자치도 익산시청 교통행정과,063-859-5564,2025-12-24
마동현대카프라자,3,전북특별자치도 익산시 주현로24길 4 (주현동),,35.93732912,126.9581354,2002-09-05,229,03,2020-02-25,,,,,,전북특별자치도 익산시청 교통행정과,063-859-5564,2025-12-24
후문카센타,3,전북특별자치도 익산시 서동로 314 (신흥동),,35.94061592,126.9842769,2002-09-13,376,01,,,,,,,전북특별자치도 익산시청 교통행정과,063-859-5564,2025-12-24
쌍용자동차 금강서비스프라자,3,전북특별자치도 익산시 서동로38길 9 (금강동),,35.93875424,126.9753736,2002-09-24,152,01,,,,,,,전북특별자치도 익산시청 교통행정과,063-859-5564,2025-12-24
행복카센타,3,전북특별자치도 익산시 춘포면 석암로 325 (춘포면),,35.9329087,127.0205646,2002-10-07,196,01,,,,,,,전북특별자치도 익산시청 교통행정과,063-859-5564,2025-12-24
레이싱,3,전북특별자치도 익산시 동서로 356 (영등동),,35.9499093,126.9728739,2002-10-18,163,01,,,,,,,전북특별자치도 익산시청 교통행정과,063-859-5564,2025-12-24
태극카마스타,3,전북특별자치도 익산시 선화로69길 17 (부송동),,35.9555453,126.9949468,2002-10-25,191,01,,,,,,,전북특별자치도 익산시청 교통행정과,063-859-5564,2025-12-24
어양점 기아오토큐,3,전북특별자치도 익산시 선화로 607 (어양동),,35.9527353,126.9938916,2002-12-05,171,01,,,,,,,전북특별자치도 익산시청 교통행정과,063-859-5564,2025-12-24
진일카센타,3,전북특별자치도 익산시 하나로 422-10 (어양동),,35.9580664,126.9826731,2002-12-28,153,01,,,,,,,전북특별자치도 익산시청 교통행정과,063-859-5564,2025-12-24
매직카써비스,3,전북특별자치도 익산시 동천로 93 (금강동),,35.929736,126.9735017,2003-03-06,120,01,,,,,,,전북특별자치도 익산시청 교통행정과,063-859-5564,2025-12-24
자동차마을카,3,전북특별자치도 익산시 황등면 황등로 23 (황등면),,35.9953385,126.9484977,2003-03-11,100,03,2022-02-17,,,,,,전북특별자치도 익산시청 교통행정과,063-859-5564,2025-12-24
명수카센타,3,전북특별자치도 익산시 무왕로 1729 (덕기동),,35.98003073,127.0393407,2003-03-11,105,01,,,,,,,전북특별자치도 익산시청 교통행정과,063-859-5564,2025-12-24
금마그린정비업소,3,전북특별자치도 익산시 금마면 미륵사지로 90 (금마면),,35.99412958,127.0493381,2003-03-11,122,01,,,,,,,전북특별자치도 익산시청 교통행정과,063-859-5564,2025-12-24
현대자동차 동산점,3,전북특별자치도 익산시 평동로 752 (동산동),,35.9278042,126.9611771,2003-06-09,194,01,,,,,,,전북특별자치도 익산시청 교통행정과,063-859-5564,2025-12-24
LG오아시스카센타,3,전북특별자치도 익산시 망성면 익산대로 2802 (망성면),,36.14572304,127.0063008,2003-06-23,141,01,,,,,,,전북특별자치도 익산시청 교통행정과,063-859-5564,2025-12-24
모아종합카센타,3,전북특별자치도 익산시 동서로19길 19-2 (신동),,35.9560115,126.9560241,2003-07-01,148,01,,,,,,,전북특별자치도 익산시청 교통행정과,063-859-5564,2025-12-24
시온카센타,3,전북특별자치도 익산시 왕궁면 왕궁로 135 (왕궁면),,35.9324463,127.077709,2003-07-10,468,01,,,,,,,전북특별자치도 익산시청 교통행정과,063-859-5564,2025-12-24
용안종합카센타,3,전북특별자치도 익산시 용안면 하신1길 6-8 (용안면),,36.1210135,126.9598846,2003-07-24,351,01,,,,,,,전북특별자치도 익산시청 교통행정과,063-859-5564,2025-12-24
수정카인테리어,3,전북특별자치도 익산시 낭산면 함낭로 1351 (낭산면),,36.07471639,127.0517903,2003-08-29,395,01,,,,,,,전북특별자치도 익산시청 교통행정과,063-859-5564,2025-12-24
백제카프라자,3,전북특별자치도 익산시 궁동로 174 (부송동),,35.9630253,126.9903677,2003-12-08,119,01,,,,,,,전북특별자치도 익산시청 교통행정과,063-859-5564,2025-12-24
오토오아시스 연세점,3,전북특별자치도 익산시 부송로 33 (어양동),,35.954535,126.9912993,2003-12-17,118,01,,,,,,,전북특별자치도 익산시청 교통행정과,063-859-5564,2025-12-24
현대자동차 금강점,3,전북특별자치도 익산시 약촌로 41-1 (금강동),,35.93756437,126.977826,2004-01-10,326,01,,,,,,,전북특별자치도 익산시청 교통행정과,063-859-5564,2025-12-24
숲정이카센타,3,전북특별자치도 익산시 여산면 여강로 325,,36.07693741,127.0587193,2004-01-17,200,03,2020-06-29,,,,,,전북특별자치도 익산시청 교통행정과,063-859-5564,2025-12-24
금강카클리닉,3,전북특별자치도 익산시 약촌로 56 (신흥동),,35.93898915,126.978345,2004-04-07,125,01,,,,,,,전북특별자치도 익산시청 교통행정과,063-859-5564,2025-12-24
동산동카센타,3,전북특별자치도 익산시 서동로2길 12 (동산동),,35.92891127,126.9574578,2004-04-07,200,01,,,,,,,전북특별자치도 익산시청 교통행정과,063-859-5564,2025-12-24
진용카써비스,3,전북특별자치도 익산시 동천로 69 (동산동),,35.9296995,126.9708877,2004-04-08,124,01,,,,,,,전북특별자치도 익산시청 교통행정과,063-859-5564,2025-12-24
여산카센타,3,전북특별자치도 익산시 여산면 여강로 63 (여산면),,36.06041548,127.0788516,2004-06-18,359,01,,,,,,,전북특별자치도 익산시청 교통행정과,063-859-5564,2025-12-24
삼광카센타,3,전북특별자치도 익산시 익산대로 336-4 (모현동2가),,35.9556605,126.9529771,2004-07-01,331,01,,,,,,,전북특별자치도 익산시청 교통행정과,063-859-5564,2025-12-24
현대바로클리닉,3,전북특별자치도 익산시 인북로 347 (신동),,35.9592051,126.9612658,2004-11-03,83,01,,,,,,,전북특별자치도 익산시청 교통행정과,063-859-5564,2025-12-24
현대오토,3,전북특별자치도 익산시 서동로 310 (신흥동),,35.9405845,126.9836575,2004-12-03,187,01,,,,,,,전북특별자치도 익산시청 교통행정과,063-859-5564,2025-12-24
현대자동차 황등점,3,전북특별자치도 익산시 황등면 황등로 14 (황등면),,35.99462284,126.9492069,2004-12-21,1063,01,,,,,,,전북특별자치도 익산시청 교통행정과,063-859-5564,2025-12-24
경부카센타,3,전북특별자치도 익산시 익산대로 267-10 (남중동),,35.9494255,126.9503979,2005-01-04,130,01,,,,,,,전북특별자치도 익산시청 교통행정과,063-859-5564,2025-12-24
타이어월드,3,전북특별자치도 익산시 무왕로 1005-8 (영등동),,35.9590293,126.9692008,2005-01-05,261,01,,,,,,,전북특별자치도 익산시청 교통행정과,063-859-5564,2025-12-24
마스타카서비스,3,전북특별자치도 익산시 인북로 172 (남중동),,35.9439801,126.9555523,2005-01-13,50,01,,,,,,,전북특별자치도 익산시청 교통행정과,063-859-5564,2025-12-24
카맨샵 영등점,3,전북특별자치도 익산시 마한로 74 (영등동),,35.9642669,126.9721747,2005-12-23,80,01,,,,,,,전북특별자치도 익산시청 교통행정과,063-859-5564,2025-12-24
송학점 기아오토큐,3,전북특별자치도 익산시 학곤로 52 (송학동),,35.93776891,126.9409294,2005-12-27,180,01,,,,,,,전북특별자치도 익산시청 교통행정과,063-859-5564,2025-12-24
스마일자동차마을,3,전북특별자치도 익산시 부송1로 9 (어양동),,35.9570491,126.9832349,2006-01-05,100,01,,,,,,,전북특별자치도 익산시청 교통행정과,063-859-5564,2025-12-24
티스테이션 익산점,3,전북특별자치도 익산시 하나로13길 3 (영등동),,35.9604281,126.9809201,2006-02-07,59,01,,,,,,,전북특별자치도 익산시청 교통행정과,063-859-5564,2025-12-24
한국타이어 익산판매,3,전북특별자치도 익산시 무왕로 1373 (팔봉동),,35.9641436,127.0078532,2006-04-06,40,03,2019-10-22,,,,,,전북특별자치도 익산시청 교통행정과,063-859-5564,2025-12-24
마동열린카센타,3,전북특별자치도 익산시 서동로 160 (마동),,35.9363339,126.9683984,2006-04-21,327,01,,,,,,,전북특별자치도 익산시청 교통행정과,063-859-5564,2025-12-24
으뜸자동차공업사,3,전북특별자치도 익산시 마한로 89 (영등동),,35.96504492,126.9737101,2006-07-20,50,01,,,,,,,전북특별자치도 익산시청 교통행정과,063-859-5564,2025-12-24
신동점 기아오토큐,3,전북특별자치도 익산시 인북로 362 (신동),,35.9603073,126.9622975,2006-07-20,162,01,,,,,,,전북특별자치도 익산시청 교통행정과,063-859-5564,2025-12-24
스피드메이트 이마트익산점,3,전북특별자치도 익산시 평동로 705 (동산동),,35.93059493,126.9578558,2006-10-04,191,01,,,,,,,전북특별자치도 익산시청 교통행정과,063-859-5564,2025-12-24
쌍정오토랜드,3,전북특별자치도 익산시 춘포면 궁성로 137-1 (춘포면),,35.9250705,127.0518655,2006-10-16,134,01,,,,,,,전북특별자치도 익산시청 교통행정과,063-859-5564,2025-12-24
배산오토카,3,전북특별자치도 익산시 동서로 141 (모현동2가),,35.9560086,126.9501938,2006-12-19,107,01,,,,,,,전북특별자치도 익산시청 교통행정과,063-859-5564,2025-12-24
하나로카센타,3,전북특별자치도 익산시 하나로 63 (금강동),,35.9276148,126.9778773,2007-02-22,330,01,,,,,,,전북특별자치도 익산시청 교통행정과,063-859-5564,2025-12-24
에스카플러스 익산점,3,"전북특별자치도 익산시 무왕로 1035, 홈플러스5층 (영등동)",,35.95890172,126.9722301,2007-04-03,152,01,,,,,,,전북특별자치도 익산시청 교통행정과,063-859-5564,2025-12-24
SOS 카마스타,3,전북특별자치도 익산시 약촌로 60 (신흥동),,35.9392178,126.9782954,2007-06-07,495,01,,,,,,,전북특별자치도 익산시청 교통행정과,063-859-5564,2025-12-24
OK카센타,3,전북특별자치도 익산시 선화로 358 (마동),,35.94583301,126.9692821,2007-06-11,102,01,,,,,,,전북특별자치도 익산시청 교통행정과,063-859-5564,2025-12-24
바른카서비스,3,전북특별자치도 익산시 동서로51길 50 (어양동),,35.9556642,126.9789272,2007-06-11,245,01,,,,,,,전북특별자치도 익산시청 교통행정과,063-859-5564,2025-12-24
호남카센타,3,전북특별자치도 익산시 오산면 무왕로2길 321-41 (오산면),,35.9477195,126.9278234,2007-11-07,184,01,,,,,,,전북특별자치도 익산시청 교통행정과,063-859-5564,2025-12-24
명인모터스,3,전북특별자치도 익산시 무왕로 834 (신동),,35.9646194,126.9516006,2007-11-19,542,01,,,,,,,전북특별자치도 익산시청 교통행정과,063-859-5564,2025-12-24
인화카써비스,3,전북특별자치도 익산시 인북로4길 54 (인화동2가),,35.9289507,126.9552283,2008-01-28,437,01,,,,,,,전북특별자치도 익산시청 교통행정과,063-859-5564,2025-12-24
광명모터스,3,전북특별자치도 익산시 인북로 346 (신동),,35.95900701,126.9618471,2008-02-01,392,01,,,,,,,전북특별자치도 익산시청 교통행정과,063-859-5564,2025-12-24
베스트 타이어,3,전북특별자치도 익산시 인북로 293 (남중동),,35.9545332,126.9593191,2008-03-11,107,01,,,,,,,전북특별자치도 익산시청 교통행정과,063-859-5564,2025-12-24
삼부자동차카센타,3,전북특별자치도 익산시 낭산면 함낭로 935 (낭산면),,36.07753186,127.0087038,2008-03-24,142,01,,,,,,,전북특별자치도 익산시청 교통행정과,063-859-5564,2025-12-24
평화카밧데리,3,전북특별자치도 익산시 함열읍 미륵사지로 1279 (함열읍),,36.0703724,126.968305,2008-10-30,350,01,,,,,,,전북특별자치도 익산시청 교통행정과,063-859-5564,2025-12-24
현대자동차 영등동부점,3,전북특별자치도 익산시 고봉로 182 (영등동),,35.94834521,126.9674981,2009-03-06,110,01,,,,,,,전북특별자치도 익산시청 교통행정과,063-859-5564,2025-12-24
베스트카클리닉,3,전북특별자치도 익산시 서동로38길 25-66 (금강동),,35.9374098,126.9771328,2009-03-26,238,01,,,,,,,전북특별자치도 익산시청 교통행정과,063-859-5564,2025-12-24
첨단카오토랜드,3,전북특별자치도 익산시 서동로 484 (용제동),,35.943136,127.0011477,2009-07-24,464,01,,,,,,,전북특별자치도 익산시청 교통행정과,063-859-5564,2025-12-24
애니카랜드 동익산점,3,전북특별자치도 익산시 서동로38길 10 (금강동),,35.9387938,126.9748766,2009-08-10,335,01,,,,,,,전북특별자치도 익산시청 교통행정과,063-859-5564,2025-12-24
타이어타운 송학점,3,전북특별자치도 익산시 오산면 무왕로2길 321-43 (오산면),,35.94795684,126.9282399,2009-08-24,522,01,,,,,,,전북특별자치도 익산시청 교통행정과,063-859-5564,2025-12-24
성공카센타,3,전북특별자치도 익산시 왕궁면 온천길 26 (왕궁면),,35.92324115,127.0584636,2009-08-31,460,01,,,,,,,전북특별자치도 익산시청 교통행정과,063-859-5564,2025-12-24
금마형제트럭서비스,3,전북특별자치도 익산시 금마면 미륵사지로 6 (금마면),,35.9874082,127.0501099,2009-09-11,319,01,,,,,,,전북특별자치도 익산시청 교통행정과,063-859-5564,2025-12-24
르노삼성자동차지정정비코너 신동점 타이어타운,3,전북특별자치도 익산시 인북로64길 1(신동),,35.9598373,126.9620376,2010-02-01,297,01,,,,,,,전북특별자치도 익산시청 교통행정과,063-859-5564,2025-12-24
용진카센타,3,전북특별자치도 익산시 서동로 463 (용제동),,35.94273667,126.9990023,2010-03-24,457,01,,,,,,,전북특별자치도 익산시청 교통행정과,063-859-5564,2025-12-24
김재두카클리닉,3,전북특별자치도 익산시 익산대로68길 79 (신동),,35.9610304,126.9618925,2010-04-26,396,03,2023-07-20,,,,,,전북특별자치도 익산시청 교통행정과,063-859-5564,2025-12-24
첨단카센타,3,전북특별자치도 익산시 중앙로 163 (마동),,35.9363424,126.9645891,2010-05-10,204,01,,,,,,,전북특별자치도 익산시청 교통행정과,063-859-5564,2025-12-24
프로미월드 익산점,3,전북특별자치도 익산시 학곤로 45 (송학동),,35.9369807,126.9413618,2010-06-30,407,01,,,,,,,전북특별자치도 익산시청 교통행정과,063-859-5564,2025-12-24
777타이어백화점 평화점,3,전북특별자치도 익산시 익산대로 79 (평화동),,35.9337563,126.9445296,2010-07-08,346,03,2019-04-26,,,,,,전북특별자치도 익산시청 교통행정과,063-859-5564,2025-12-24
한국타이어T-Staion송학점,3,전북특별자치도 익산시 학곤로 95-4 (송학동),,35.9379149,126.9359122,2010-07-09,412,01,,,,,,,전북특별자치도 익산시청 교통행정과,063-859-5564,2025-12-24
진명모터스,3,전북특별자치도 익산시 인북로 176 (남중동),,35.94442285,126.9557471,2010-08-04,269,01,,,,,,,전북특별자치도 익산시청 교통행정과,063-859-5564,2025-12-24
효성카센타,3,전북특별자치도 익산시 석암로 234 (석암동),,35.93836315,127.0129176,2010-12-24,110,01,,,,,,,전북특별자치도 익산시청 교통행정과,063-859-5564,2025-12-24
송산카센타,3,전북특별자치도 익산시 용안면 송산길 2-1,,36.09856838,126.9637185,2011-01-17,336,01,,,,,,,전북특별자치도 익산시청 교통행정과,063-859-5564,2025-12-24
가나상사,3,전북특별자치도 익산시 함열읍 미륵사지로 1248 (함열읍),,36.07008103,126.9712623,2011-03-25,248,01,,,,,,,전북특별자치도 익산시청 교통행정과,063-859-5564,2025-12-24
이벤트 카클리닉,3,전북특별자치도 익산시 선화로 265 (남중동),,35.9445382,126.9594381,2011-04-05,2356,01,,,,,,,전북특별자치도 익산시청 교통행정과,063-859-5564,2025-12-24
강남카서비스,3,전북특별자치도 익산시 인북로 320-1(남중동),,35.9567152,126.9608746,2011-04-11,150,01,,,,,,,전북특별자치도 익산시청 교통행정과,063-859-5564,2025-12-24
대우카서비스,3,전북특별자치도 익산시 함열읍 익산대로 1729-21 (함열읍),,36.07408494,126.9668958,2011-05-13,674,01,,,,,,,전북특별자치도 익산시청 교통행정과,063-859-5564,2025-12-24
샘터토탈카서비스,3,전북특별자치도 익산시 선화로 683-4 (부송동),,35.9578677,126.9999911,2011-05-16,1149,01,,,,,,,전북특별자치도 익산시청 교통행정과,063-859-5564,2025-12-24
그린카세차장,3,전북특별자치도 익산시 오산면 무왕로2길 266,,35.94390069,126.9273038,2011-06-01,325,01,,,,,,,전북특별자치도 익산시청 교통행정과,063-859-5564,2025-12-24
금요오토카센타,3,전북특별자치도 익산시 서동로 16-9 (동산동),,35.92886071,126.9572054,2011-06-01,393,01,,,,,,,전북특별자치도 익산시청 교통행정과,063-859-5564,2025-12-24
일급카센타,3,전북특별자치도 익산시 배산로3길 24-17 (모현동1가),,35.9486698,126.9355892,2011-08-05,243,01,,,,,,,전북특별자치도 익산시청 교통행정과,063-859-5564,2025-12-24
천지카센타,3,전북특별자치도 익산시 금마면 궁성로 808 (금마면),,35.9842651,127.0537846,2011-08-25,348,01,,,,,,,전북특별자치도 익산시청 교통행정과,063-859-5564,2025-12-24
주영카센타,3,전북특별자치도 익산시 무왕로 1774 (덕기동),,35.98270765,127.0438508,2011-10-06,121,01,,,,,,,전북특별자치도 익산시청 교통행정과,063-859-5564,2025-12-24
새한쌍용종합카센타,3,전북특별자치도 익산시 목천로 323 (동산동),,35.927634,126.9565898,2011-10-06,85,01,,,,,,,전북특별자치도 익산시청 교통행정과,063-859-5564,2025-12-24
성진오토서비스,3,전북특별자치도 익산시 서동로48길 22-3 (용제동),,35.9435865,127.0018902,2011-12-15,274,01,,,,,,,전북특별자치도 익산시청 교통행정과,063-859-5564,2025-12-24
제일카프라자,3,전북특별자치도 익산시 함열읍 부촌길 79 (함열읍),,36.07580524,126.9578741,2011-12-22,476,01,,,,,,,전북특별자치도 익산시청 교통행정과,063-859-5564,2025-12-24
서해카센타,3,전북특별자치도 익산시 석암로11길 32 (용제동),,35.94532827,127.009443,2011-12-23,201,01,,,,,,,전북특별자치도 익산시청 교통행정과,063-859-5564,2025-12-24
창신카세차장,3,전북특별자치도 익산시 익산대로 415-3 (신동),,35.9628481,126.9531771,2012-01-11,302,01,,,,,,,전북특별자치도 익산시청 교통행정과,063-859-5564,2025-12-24
현대자동차 부송점,3,전북특별자치도 익산시 무왕로 1290 (부송동),,35.9605196,126.9997384,2012-01-31,584,01,,,,,,,전북특별자치도 익산시청 교통행정과,063-859-5564,2025-12-24
하나카센타,3,전북특별자치도 익산시 배산로3길 56 (모현동1가),,35.94591358,126.9359381,2012-03-26,205,01,,,,,,,전북특별자치도 익산시청 교통행정과,063-859-5564,2025-12-24
AM카센타,3,전북특별자치도 익산시 무왕로 828 (신동),,35.9645414,126.9507866,2012-05-21,123,01,,,,,,,전북특별자치도 익산시청 교통행정과,063-859-5564,2025-12-24
(주)동양해외관광,3,전북특별자치도 익산시 서동로46길 25 (석암동),,35.94357652,127.0050893,2012-06-26,337,01,,,,,,,전북특별자치도 익산시청 교통행정과,063-859-5564,2025-12-24
오산농협자동차수리센타,3,전북특별자치도 익산시 오산면 오산로 19 (오산면),,35.93971781,126.9142658,2012-07-12,1957,01,,,,,,,전북특별자치도 익산시청 교통행정과,063-859-5564,2025-12-24
뉴현대모터스,3,전북특별자치도 익산시 여산면 가람로 392 (여산면),,36.0598055,127.0840005,2012-07-20,718,01,,,,,,,전북특별자치도 익산시청 교통행정과,063-859-5564,2025-12-24
금호타이어함열점,3,전북특별자치도 익산시 함열읍 익산대로 1717,,36.07149646,126.9663108,2012-08-27,2018,01,,,,,,,전북특별자치도 익산시청 교통행정과,063-859-5564,2025-12-24
부송카센타,3,전북특별자치도 익산시 궁동로 185-1 (부송동),,35.96355505,126.9917404,2012-09-20,620,01,,,,,,,전북특별자치도 익산시청 교통행정과,063-859-5564,2025-12-24
재룡카센타,3,전북특별자치도 익산시 함라면 용산로 519,,36.0586401,126.913098,2012-11-01,348,01,,,,,,,전북특별자치도 익산시청 교통행정과,063-859-5564,2025-12-24
대성카센터,3,전북특별자치도 익산시 함열읍 함열로 44,,36.0776821,126.958245,2012-11-08,780,01,,,,,,,전북특별자치도 익산시청 교통행정과,063-859-5564,2025-12-24
드림자동차서비스,3,전북특별자치도 익산시 선화로 187 (남중동),,35.9466086,126.9511722,2013-04-19,196,01,,,,,,,전북특별자치도 익산시청 교통행정과,063-859-5564,2025-12-24
타이어 K 모현점,3,전북특별자치도 익산시 동서로5길 1 (모현동2가),,35.95533411,126.9531871,2013-08-07,335,01,,,,,,,전북특별자치도 익산시청 교통행정과,063-859-5564,2025-12-24
타이어테크 인화점,3,전북특별자치도 익산시 인북로 28-3 (인화동1가),,35.9320197,126.9505059,2013-12-17,332,01,,,,,,,전북특별자치도 익산시청 교통행정과,063-859-5564,2025-12-24
(유)금호타이어 호남총판 공단점,3,전북특별자치도 익산시 서동로 478 (용제동),,35.94282319,127.0005674,2013-12-24,1158,01,,,,,,,전북특별자치도 익산시청 교통행정과,063-859-5564,2025-12-24
태영카랜드,3,전북특별자치도 익산시 선화로 221-1 (남중동),,35.94574918,126.9549351,2014-01-08,264,03,2019-05-20,,,,,,전북특별자치도 익산시청 교통행정과,063-859-5564,2025-12-24
공단타이어,3,전북특별자치도 익산시 서동로 423 (신흥동),,35.94181369,126.9947645,2014-04-02,1269,01,,,,,,,전북특별자치도 익산시청 교통행정과,063-859-5564,2025-12-24
타이어 K,3,전북특별자치도 익산시 무왕로 921 (신동),,35.96320653,126.9609742,2014-04-22,603,01,,,,,,,전북특별자치도 익산시청 교통행정과,063-859-5564,2025-12-24
원창모터스,3,전북특별자치도 익산시 마한로 61 (영등동),,35.9647145,126.9706711,2014-06-20,536,01,,,,,,,전북특별자치도 익산시청 교통행정과,063-859-5564,2025-12-24
타이어K팔봉점,3,전북특별자치도 익산시 무왕로 1423 (팔봉동),,35.96644946,127.0125363,2014-07-17,344,01,,,,,,,전북특별자치도 익산시청 교통행정과,063-859-5564,2025-12-24
팔봉 R 카센타,3,전북특별자치도 익산시 쌍능길 6 (덕기동),,35.97397641,127.0326987,2014-07-21,200,03,2023-03-27,,,,,,전북특별자치도 익산시청 교통행정과,063-859-5564,2025-12-24
형제타이어,3,전북특별자치도 익산시 함열읍 익산대로 1729-17,,36.07387206,126.9668517,2014-09-23,998,01,,,,,,,전북특별자치도 익산시청 교통행정과,063-859-5564,2025-12-24
자동차세상,3,전북특별자치도 익산시 부송로 17 (어양동),,35.9535697,126.9928084,2014-10-14,305,01,,,,,,,전북특별자치도 익산시청 교통행정과,063-859-5564,2025-12-24
제일카센타,3,전북특별자치도 익산시 오산면 무왕로2길 256,,35.9431146,126.9269631,2014-11-20,1558,03,2020-09-30,,,,,,전북특별자치도 익산시청 교통행정과,063-859-5564,2025-12-24
타이어365+배산점 (주)가정오토클럽,01,전북특별자치도 익산시 동서로 158 (모현동1가),,35.95521466,126.9519635,2014-11-24,567,01,,,,,,,전북특별자치도 익산시청 교통행정과,063-859-5564,2025-12-24
동아오토,3,전북특별자치도 익산시 목상길 8 (목천동),,35.9221209,126.9348828,2015-02-10,357,03,2019-02-15,,,,,,전북특별자치도 익산시청 교통행정과,063-859-5564,2025-12-24
마스타카센타,3,전북특별자치도 익산시 무왕로 1721 (덕기동),,35.97923769,127.0391895,2015-03-02,2967,01,,,,,,,전북특별자치도 익산시청 교통행정과,063-859-5564,2025-12-24
청하카서비스,3,전북특별자치도 익산시 중앙로29길 1 (마동),,35.93642626,126.9642851,2015-03-11,130,01,,,,,,,전북특별자치도 익산시청 교통행정과,063-859-5564,2025-12-24
다올카서비스,3,전북특별자치도 익산시 석암로15길 160 (팔봉동),,35.9617685,127.0040001,2015-06-18,200,01,,,,,,,전북특별자치도 익산시청 교통행정과,063-859-5564,2025-12-24
이레카서비스,3,전북특별자치도 익산시 동서로6길 30 (모현동2가),,35.9561637,126.9401758,2015-07-09,273,01,,,,,,,전북특별자치도 익산시청 교통행정과,063-859-5564,2025-12-24
르노삼성자동차 서비스코너 중앙점,3,전북특별자치도 익산시 중앙로11길 4 (마동),,35.9382338,126.9574659,2015-10-01,653,01,,,,,,,전북특별자치도 익산시청 교통행정과,063-859-5564,2025-12-24
낭산카센타,3,전북특별자치도 익산시 낭산면 함낭로 1255,,36.07450359,127.0429357,2015-11-03,2369,01,,,,,,,전북특별자치도 익산시청 교통행정과,063-859-5564,2025-12-24
대일카냉동,3,전북특별자치도 익산시 목천로 263 (인화동1가),,35.92939525,126.9504499,2015-12-22,191,01,,,,,,,전북특별자치도 익산시청 교통행정과,063-859-5564,2025-12-24
오일시프트,3,전북특별자치도 익산시 목천로 280 (인화동2가),,35.9284572,126.9520239,2016-05-20,297,01,,,,,,,전북특별자치도 익산시청 교통행정과,063-859-5564,2025-12-24
명성플랜트정비,3,전북특별자치도 익산시 오산면 새들길 3-18,,35.93344229,126.8792798,2016-09-21,1643,01,,,,,,,전북특별자치도 익산시청 교통행정과,063-859-5564,2025-12-24
오토오아시스 익산훼미리점,3,전북특별자치도 익산시 무왕로 1223 (부송동),,35.960426,126.992493,2016-12-28,106,01,,,,,,,전북특별자치도 익산시청 교통행정과,063-859-5564,2025-12-24
모모카서비스,3,전북특별자치도 익산시 목천로 327 (동산동),,35.92749797,126.9570464,2017-02-15,292,01,,,,,,,전북특별자치도 익산시청 교통행정과,063-859-5564,2025-12-24
에벤에셀 모터스,3,전북특별자치도 익산시 주현로 79-2 (주현동),,35.9373015,126.9576322,2017-02-21,468,01,,,,,,,전북특별자치도 익산시청 교통행정과,063-859-5564,2025-12-24
조합 카센타,3,전북특별자치도 익산시 목천로 140 (목천동),,35.92533103,126.9394987,2017-02-28,124,01,,,,,,,전북특별자치도 익산시청 교통행정과,063-859-5564,2025-12-24
비전 카센타,3,전북특별자치도 익산시 선화로13길 25 (모현동1가),,35.9500758,126.9437697,2017-05-23,538,1,,,,,,,전북특별자치도 익산시청 교통행정과,063-859-5564,2025-12-24
토탈상용모터스,3,전북특별자치도 익산시 무왕로33길 60 (석왕동),,35.97568059,127.0208268,2017-07-21,940,01,,,,,,,전북특별자치도 익산시청 교통행정과,063-859-5564,2025-12-24
백용욱 타이어,3,전북특별자치도 익산시 인북로 379 (신동),,35.96210747,126.9624419,2017-09-06,408,01,,,,,,,전북특별자치도 익산시청 교통행정과,063-859-5564,2025-12-24
스마일카상사,3,전북특별자치도 익산시 춘포면 쌍정길 25-28,,35.92244321,127.0533334,2017-10-27,857,01,,,,,,,전북특별자치도 익산시청 교통행정과,063-859-5564,2025-12-24
한일보링,4,전북특별자치도 익산시 선화1로 125 (금강동),,35.93875706,126.9717779,1989-08-02,1452,03,2020-07-10,,,,,,전북특별자치도 익산시청 교통행정과,063-859-5564,2025-12-24
익산 살림보링,4,전북특별자치도 익산시 황등면 도선길 79-1,,35.99682294,126.9544008,2020-07-07,1060,01,,,,,,,전북특별자치도 익산시청 교통행정과,063-859-5564,2025-12-24
