자동차정비업체명,자동차정비업체종류,소재지도로명주소,소재지지번주소,위도,경도,사업등록일자,면적,영업상태,폐업일자,휴업시작일자,휴업종료일자,운영시작시각,운영종료시각,전화번호,관리기관명,관리기관전화번호,데이터기준일자
동강부분정비공업사,1,전라남도 고흥군 동강면 원유둔1길 28-9,전라남도 고흥군 동강면 유둔리 203-4,34.781451,127.3343531,2011-08-08,353,1,,,,09:00,18:00,061-835-1979,고흥군청,061-830-5354,2021-10-19
현대카센터,1,전라남도 고흥군 도양읍 녹동중앙길 21,전라남도 고흥군 도양읍 봉암리 3106,34.527032,127.1388731,2011-09-20,434,1,,,,09:00,18:00,061-842-8204,고흥군청,061-830-5354,2021-10-19
조은카크린,1,전라남도 고흥군 고흥읍 학교길 6,전라남도 고흥군 고흥읍 호형리 1012-2,34.6068318,127.2948842,2011-12-21,600,1,,,,09:00,18:00,061-832-6686,고흥군청,061-830-5354,2021-10-19
블루핸즈,1,전라남도 고흥군 도양읍 천마로 114,전라남도 고흥군 도양읍 봉암리 2699-118,34.52921856,127.1401929,2012-01-18,864,1,,,,09:00,18:00,061-830-6400,고흥군청,061-830-5354,2021-10-19
새한카센터,1,전라남도 고흥군 고흥읍 봉동주공길 43,전라남도 고흥군 고흥읍 호형리 1229,34.60559272,127.291794,2012-08-30,883,1,,,,09:00,18:00,061-835-3100,고흥군청,061-830-5354,2021-10-19
신흥자동차정비,1,전라남도 고흥군 도양읍 녹동신항2길 28,전라남도 고흥군 도양읍 봉암리 3835,34.52494391,127.1436542,2013-04-16,592.9,1,,,,09:00,18:00,061-844-7739,고흥군청,061-830-5354,2021-10-19
녹동도덕카센타,1,전라남도 고흥군 도양읍 녹동신항3길 30,전라남도 고흥군 도양읍 봉암리 3782번지,34.525356,127.1442371,2013-07-03,293.6,1,,,,09:00,18:00,061-842-4875,고흥군청,061-830-5354,2021-10-19
OK타이어뱅크,1,전라남도 고흥군 도양읍 녹동신항2길 29,전라남도 고흥군 도양읍 봉암리 3789,34.52519951,127.1441545,2016-11-30,344.5,1,,,,09:00,18:00,061-844-8280,고흥군청,061-830-5354,2021-10-19
