자동차정비업체명,자동차정비업체종류,소재지도로명주소,소재지지번주소,위도,경도,사업등록일자,면적,영업상태,폐업일자,휴업시작일자,휴업종료일자,운영시작시각,운영종료시각,전화번호,관리기관명,관리기관전화번호,데이터기준일자
통일자동차공업사,1,전라남도 화순군 화순읍 쌍충로 127-2,,35.06218945,126.9786344,1982-12-24,559.7,1,,,,,,061-374-3320,전라남도 화순군청,061-379-3783,2026-01-20
한국자동차공업사,1,전라남도 화순군 화순읍 대리길 22,,35.05950279,126.9790145,1994-01-16,191.6,1,,,,,,061-374-7337,전라남도 화순군청,061-379-3783,2026-01-20
화순하나로자동차1급공업사,1,전라남도 화순군 화순읍 대리길 42,,35.0595136,126.9769768,1994-03-05,422.8,1,,,,,,061-374-5577,전라남도 화순군청,061-379-3783,2026-01-20
능주자동차공업사,1,전라남도 화순군 능주면 학포로 1847-7,,34.98219524,126.9645169,1997-05-06,401,1,,,,,,061-373-8225,전라남도 화순군청,061-379-3783,2026-01-20
주식회사 현대1급정비마을,1,전라남도 화순군 화순읍 연양1길 2,,35.04105319,126.9632576,2007-02-16,639,1,,,,,,061-373-6000,전라남도 화순군청,061-379-3783,2026-01-20
화순종합자동차공업사,1,전라남도 화순군 화순읍 학포로 2574,,35.03937885,126.962861,2014-02-20,140.88,1,,,,,,061-371-5500,전라남도 화순군청,061-379-3783,2026-01-20
화순종합자동차공업사,1,전라남도 화순군 화순읍 학포로 2574,,35.03937885,126.962861,2014-02-20,120,1,,,,,,061-371-5500,전라남도 화순군청,061-379-3783,2026-01-20
청호활어특장,1,전라남도 화순군 동면 동농공길 91,,35.02443118,127.0273889,2017-04-10,927,1,,,,,,061-372-6851,전라남도 화순군청,061-379-3783,2026-01-20
삼천리자동차부분정비공업사,3,전라남도 화순군 화순읍 충의로 108,,35.05518259,126.9893863,1997-05-27,95,1,,,,,,061-371-8809,전라남도 화순군청,061-379-3783,2026-01-20
천운자동차부분정비공업사,3,전라남도 화순군 화순읍 진각로 40,,35.05517629,126.9859732,1997-06-10,82.5,1,,,,,,061-374-5020,전라남도 화순군청,061-379-3783,2026-01-20
용암자동차부분정비공업사,3,전라남도 화순군 능주면 학포로 1876,,34.98463737,126.9627452,1997-08-11,49,1,,,,,,061-372-4148,전라남도 화순군청,061-379-3783,2026-01-20
동남자동차부분정비공업사,3,전라남도 화순군 능주면 학포로 1885,,34.98554836,126.9623083,1997-08-26,134,1,,,,,,061-373-7302,전라남도 화순군청,061-379-3783,2026-01-20
보성자동차부분정비공업사,3,전라남도 화순군 동복면 김삿갓로 824,,35.0681326,127.1294643,1997-10-08,70,1,,,,,,061-372-2156,전라남도 화순군청,061-379-3783,2026-01-20
청룡자동차부분정비공업사,3,전라남도 화순군 화순읍 충의로 221,,35.04934528,126.9981495,1997-11-25,36,1,,,,,,061-374-6744,전라남도 화순군청,061-379-3783,2026-01-20
광덕자동차부분정비공업사,3,전라남도 화순군 화순읍 충의로 120,,35.05547692,126.9908944,1997-12-17,155.9,1,,,,,,061-373-7429,전라남도 화순군청,061-379-3783,2026-01-20
2 Baek 모터스,3,전라남도 화순군 화순읍 대교로 5,,35.06360239,126.9799171,1998-02-05,169,1,,,,,,,전라남도 화순군청,061-379-3783,2026-01-20
케이지모빌리티화순서비스프라자,3,전라남도 화순군 화순읍 쌍충로 113,,35.06148062,126.9803235,1998-02-05,447,1,,,,,,061-374-5409,전라남도 화순군청,061-379-3783,2026-01-20
영동자동차부분정비공업사,3,전라남도 화순군 화순읍 중앙로 63,,35.06067107,126.9885193,1998-02-20,178,1,,,,,,061-375-2595,전라남도 화순군청,061-379-3783,2026-01-20
능주자동차부분정비공업사,3,전라남도 화순군 능주면 학포로 1859,,34.98341334,126.9632191,1998-04-23,155,1,,,,,,061-373-6222,전라남도 화순군청,061-379-3783,2026-01-20
이양자동차부분정비공업사,3,전라남도 화순군 이양면 학포로 621,,34.89281297,126.9882511,1998-04-24,180,1,,,,,,061-373-2206,전라남도 화순군청,061-379-3783,2026-01-20
애니카랜드 화순점,3,전라남도 화순군 화순읍 쌍충로 64,,35.05761552,126.9819721,1998-04-24,185,1,,,,,,061-375-1800,전라남도 화순군청,061-379-3783,2026-01-20
기아자동차카클리닉,3,전라남도 화순군 화순읍 만연로 101,,35.06476344,126.9899455,1998-07-16,71.5,1,,,,,,061-374-7929,전라남도 화순군청,061-379-3783,2026-01-20
(주)금호타이어 화순대리점,3,전라남도 화순군 화순읍 안양산로 3,,35.06840634,126.9925254,1998-10-30,165,1,,,,,,061-373-8945,전라남도 화순군청,061-379-3783,2026-01-20
블루핸즈(화순점),3,전라남도 화순군 화순읍 충의로 60,,35.05549462,126.9841615,1998-10-30,174,1,,,,,,061-371-5562,전라남도 화순군청,061-379-3783,2026-01-20
도곡부분정비공업사,3,전라남도 화순군 도곡면 지석로 1122,,34.99721536,126.918343,1999-01-09,150,1,,,,,,061-373-9928,전라남도 화순군청,061-379-3783,2026-01-20
도훈자동차부분정비공업사,3,전라남도 화순군 화순읍 진각로 12-1,,35.05262675,126.9859778,1999-01-09,120,1,,,,,,061-374-7890,전라남도 화순군청,061-379-3783,2026-01-20
대광자동차부분정비공업사,3,전라남도 화순군 능주면 죽수길 18,,34.98553273,126.961333,1999-01-19,130,1,,,,,,061-373-5593,전라남도 화순군청,061-379-3783,2026-01-20
그린카정비센터,3,전라남도 화순군 화순읍 쌍충로 74,,35.05876661,126.9822247,1999-01-29,66,1,,,,,,061-373-7591,전라남도 화순군청,061-379-3783,2026-01-20
중앙자동차부분정비공업사,3,전라남도 화순군 화순읍 충의로 95,,35.05586796,126.988057,1999-04-06,130,1,,,,,,061-374-9013,전라남도 화순군청,061-379-3783,2026-01-20
부영자동차부분정비공업사,3,전라남도 화순군 화순읍 광덕로 238,,35.06600393,126.9928295,1999-04-09,168,1,,,,,,061-375-8008,전라남도 화순군청,061-379-3783,2026-01-20
카프렌드오토샵,3,전라남도 화순군 화순읍 칠충로 84,,35.05702111,126.979986,1999-08-19,86.8,1,,,,,,061-374-6767,전라남도 화순군청,061-379-3783,2026-01-20
우성오토샵,3,전라남도 화순군 화순읍 쌍충로 60,,35.05715003,126.9818778,1999-12-07,120,1,,,,,,061-375-0775,전라남도 화순군청,061-379-3783,2026-01-20
서광자동차부분정비공업사,3,전라남도 화순군 화순읍 도서관길 5,,35.06156856,126.9812216,2001-03-09,71.5,1,,,,,,061-927-8936,전라남도 화순군청,061-379-3783,2026-01-20
인디카 마스터,3,전라남도 화순군 화순읍 해대길 6,,35.05530811,126.9834372,2001-07-19,115,1,,,,,,061-373-6488,전라남도 화순군청,061-379-3783,2026-01-20
중앙타이어갤러리,3,전라남도 화순군 화순읍 대교로 64,,35.0633178,126.9861684,2001-09-22,228.89,1,,,,,,,전라남도 화순군청,061-379-3783,2026-01-20
구억카,3,전라남도 화순군 화순읍 오성로 580-6,,35.05269271,126.9714592,2002-03-06,30,1,,,,,,061-375-5177,전라남도 화순군청,061-379-3783,2026-01-20
백용카부분정비공업사,3,전라남도 화순군 동면 충의로 446,,35.0341982,127.0131211,2002-06-28,66.5,1,,,,,,061-373-6432,전라남도 화순군청,061-379-3783,2026-01-20
대한자동차공업사,3,전라남도 화순군 화순읍 충의로 129,,35.05588027,126.9919924,2003-04-04,201,1,,,,,,061-375-2411,전라남도 화순군청,061-379-3783,2026-01-20
원플러스원카써비스,3,전라남도 화순군 화순읍 충의로 166,,35.05324387,126.9941117,2003-05-28,159,1,,,,,,061-373-5121,전라남도 화순군청,061-379-3783,2026-01-20
춘양카센타,3,전라남도 화순군 춘양면 춘양로 48,,34.95503447,126.9613961,2003-06-04,104,1,,,,,,061-373-8544,전라남도 화순군청,061-379-3783,2026-01-20
신성모터샵,3,전라남도 화순군 화순읍 소천길 7-6,,35.06593705,126.9881755,2004-02-27,179,1,,,,,,061-375-8956,전라남도 화순군청,061-379-3783,2026-01-20
한국지엡화순바로서비스,3,전라남도 화순군 화순읍 충의로 94,,35.05548793,126.9879543,2007-04-19,208,1,,,,,,061-371-8255,전라남도 화순군청,061-379-3783,2026-01-20
티스테이션 화순점,3,전라남도 화순군 화순읍 충의로 145,,35.05492679,126.9934176,2008-05-13,313.7,1,,,,,,061-375-5161,전라남도 화순군청,061-379-3783,2026-01-20
(주)병만이가 차고치는 집,3,전라남도 화순군 화순읍 대교로 84,,35.06319264,126.9882999,2008-09-01,105.5,1,,,,,,061-372-2515,전라남도 화순군청,061-379-3783,2026-01-20
화순자동차부분정비공업사,3,전라남도 화순군 화순읍 내평길 45,,35.03669937,126.9677213,2010-06-01,269,1,,,,,,061-375-1133,전라남도 화순군청,061-379-3783,2026-01-20
24시 자동차부분정비공업사,3,전라남도 화순군 화순읍 충의로 151-2,,35.05440627,126.9938638,2011-05-04,661,1,,,,,,061-375-4809,전라남도 화순군청,061-379-3783,2026-01-20
스피드메이트화순점,3,전라남도 화순군 화순읍 쌍충로 131-1,,35.06278982,126.9789533,2012-01-20,243,1,,,,,,061-375-7244,전라남도 화순군청,061-379-3783,2026-01-20
주식회사 푸른,3,,"전라남도 화순군 화순읍 유천리 3, 3호",35.07607651,127.0023096,2016-08-23,541,1,,,,,,061-373-0452,전라남도 화순군청,061-379-3783,2026-01-20
드림 카 서비스,3,전라남도 화순군 화순읍 쌍충로 114,,35.06186243,126.9807963,2019-03-26,160,1,,,,,,061-371-7301,전라남도 화순군청,061-379-3783,2026-01-20
