자동차정비업체명,자동차정비업체종류,소재지도로명주소,소재지지번주소,위도,경도,사업등록일자,면적,영업상태,폐업일자,휴업시작일자,휴업종료일자,운영시작시각,운영종료시각,전화번호,관리기관명,관리기관전화번호,데이터기준일자
삼보카경정비,03,충청북도 청주시 서원구 궁뜰로 103,충청북도 청주시 서원구 장성동 20-1,36.596248,127.485929,2009-09-30,593,01,,,,,,,충청북도 청주시청,043-201-6392,2025-10-31
삼보카센타,03,충청북도 청주시 청원구 북이면 충청대로 1524,충청북도 청주시 청원구 북이면 옥수리 122,36.771751,127.564965,2008-11-28,128.5,01,,,,,,,충청북도 청주시청,043-201-8392,2025-10-31
삼보카에어컨,03,충청북도 청주시 흥덕구 사운로386번길 11,충청북도 청주시 흥덕구 신봉동 257-16,36.660645,127.465920,2007-04-26,427.75,01,,,,,,,충청북도 청주시청,043-201-7397,2025-10-31
삼성카상사,03,충청북도 청주시 청원구 율봉로202번길 60,충청북도 청주시 청원구 율량동 993,36.665979,127.490482,2001-03-31,93,01,,,,,,,충청북도 청주시청,043-201-8392,2025-10-31
삼우자동차공업사,03,충청북도 청주시 청원구 북이면 신대석성로 411,충청북도 청주시 청원구 북이면 석성리 328-1,36.758029,127.510303,2003-02-15,902,01,,,,,,,충청북도 청주시청,043-201-8392,2025-10-31
삼원카부분정비공업사,03,충청북도 청주시 흥덕구 봉명로191번길 40-2,충청북도 청주시 흥덕구 봉명동 813,36.641519,127.4631276,2005-11-07,143.28,01,,,,,,,충청북도 청주시청,043-201-7397,2025-10-31
삼화모터스(주)청주지점,03,충청북도 청주시 서원구 남이면 2순환로 1778,충청북도 청주시 서원구 남이면 양촌리 11-2,36.594504,127.474572,2017-02-10,2052,01,,,,,,,충청북도 청주시청,043-201-6392,2025-10-31
삼화자동차부분정비공업사,03,충청북도 청주시 상당구 용담로31번길 5,충청북도 청주시 상당구 문화동 32,36.632739,127.494142,2008-05-06,160,01,,,,,,,충청북도 청주시청,043-201-5393,2025-10-31
상당공업사,03,,충청북도 청주시 상당구 용정동 271-5,36.623988,127.519573,2021-02-05,218,01,,,,,,,충청북도 청주시청,043-201-5393,2025-10-31
상당카정비센타,03,충청북도 청주시 서원구 1순환로 747,충청북도 청주시 서원구 개신동 49-9,36.627212,127.4631902,2007-10-11,361,01,,,,,,,충청북도 청주시청,043-201-6392,2025-10-31
박상규카클리닉,03,충청북도 청주시 서원구 매봉로2번길 8,충청북도 청주시 서원구 분평동 288-1,36.610406,127.477932,1999-05-21,87.5,01,,,,,,,충청북도 청주시청,043-201-6392,2025-10-31
반도건기공업사,03,충청북도 청주시 서원구 남이면 양촌3길 17,충청북도 청주시 서원구 남이면 양촌리 40,36.591049,127.471582,2017-09-28,2150,01,,,,,,,충청북도 청주시청,043-201-6392,2025-10-31
방서점 AUTO Q,03,충청북도 청주시 상당구 단재로317번길 21,충청북도 청주시 상당구 방서동 54-1,36.602623,127.504356,2006-12-07,461.89,01,,,,,,,충청북도 청주시청,043-201-5393,2025-10-31
백송자동차부분정비공업사,03,충청북도 청주시 청원구 율천북로165번길 8-1,충청북도 청주시 청원구 율량동 997,36.666216,127.488929,1998-11-20,96,01,,,,,,,충청북도 청주시청,043-201-8392,2025-10-31
백운카정비센타,03,충청북도 청주시 상당구 목련로 226,충청북도 청주시 상당구 운동동 70-9,36.607396,127.527841,2021-05-25,393.12,01,,,,,,,충청북도 청주시청,043-201-5393,2025-10-31
베스트카,03,충청북도 청주시 흥덕구 강내면 다락탑연길 294,충청북도 청주시 흥덕구 강내면 탑연리 82-5,36.618387,127.359885,2008-11-10,567,01,,,,,,,충청북도 청주시청,043-201-7397,2025-10-31
베스트카센터,03,충청북도 청주시 서원구 남이면 청남로 1064,충청북도 청주시 서원구 남이면 외천리 464-7,36.54751635,127.430885,2024-04-05,1298,01,,,,,,,충청북도 청주시청,043-201-6392,2025-10-31
보쉬카랜드,03,충청북도 청주시 흥덕구 직지대로 658,충청북도 청주시 흥덕구 봉명동 772,36.64265983,127.466059,2006-11-23,143,01,,,,,,,충청북도 청주시청,043-201-7397,2025-10-31
보쉬카서비스 청주점,03,충청북도 청주시 청원구 충청대로284번길 5,충청북도 청주시 청원구 주성동 284-1,36.68078982,127.500807,2021-01-07,694,01,,,,,,,충청북도 청주시청,043-201-8392,2025-10-31
보쉬카센타,03,충청북도 청주시 상당구 용암북로 50-1,충청북도 청주시 상당구 용암동 641-3,36.616797,127.5047301,2015-07-31,473,01,,,,,,,충청북도 청주시청,043-201-5393,2025-10-31
복대카부분정비공업사,03,충청북도 청주시 흥덕구 복대로163번길 40,충청북도 청주시 흥덕구 복대동 51-6,36.631224,127.438589,2002-02-26,77,01,,,,,,,충청북도 청주시청,043-201-7397,2025-10-31
복천보링공업사,03,충청북도 청주시 흥덕구 송절로 75-42,충청북도 청주시 흥덕구 송절동 122-5,36.659599,127.456051,2010-07-27,1119.21,01,,,,,,,충청북도 청주시청,043-201-7397,2025-10-31
부강경정비,03,충청북도 청주시 서원구 남이면 청남로 926,충청북도 청주시 서원구 남이면 부용외천리 533,36.535259,127.427360,1998-10-20,136.8,01,,,,,,,충청북도 청주시청,043-201-6392,2025-10-31
부릉카정비,03,충청북도 청주시 상당구 수영로 97,충청북도 청주시 상당구 영운동 187-13,36.616316,127.496948,2001-04-06,399,01,,,,,,,충청북도 청주시청,043-201-5393,2025-10-31
북이자동차공업사,03,충청북도 청주시 청원구 내수읍 내수학평길 89,충청북도 청주시 청원구 내수읍 학평리 159-1,36.725706,127.541708,1997-07-31,881,01,,,,,,,충청북도 청주시청,043-201-8392,2025-10-31
분평점 AUTO Q,03,충청북도 청주시 서원구 청남로2005번길 73,충청북도 청주시 서원구 분평동 318-5,36.609916,127.481088,2006-12-07,687,01,,,,,,,충청북도 청주시청,043-201-6392,2025-10-31
만도상사,03,충청북도 청주시 흥덕구 직지대로 48-1 (지동동),충청북도 청주시 흥덕구 지동동 759-3,36.644907,127.398457,2015-04-03,1033,01,,,,,,,충청북도 청주시청,043-201-7397,2025-10-31
만도플라자,03,충청북도 청주시 청원구 사뜸로61번길 68,충청북도 청주시 청원구 사천동 233-49,36.666865,127.477042,2014-08-18,445,01,,,,,,,충청북도 청주시청,043-201-8392,2025-10-31
혜민카서비스,03,충청북도 청주시 흥덕구 서현서로21번길 6,충청북도 청주시 흥덕구 가경동 1813,36.61941022,127.427387,2008-10-13,207.2,01,,,,,,,충청북도 청주시청,043-201-7397,2025-10-31
환희카정비,03,충청북도 청주시 상당구 중흥로 28,충청북도 청주시 상당구 용암동 1610,36.608852,127.502073,2016-03-02,148,01,,,,,,,충청북도 청주시청,043-201-5393,2025-10-31
홍반장카클리닉,03,충청북도 청주시 청원구 1순환로 320,충청북도 청주시 청원구 내덕동 706-3,36.659723,127.478568,1997-05-16,194.1,01,,,,,,,충청북도 청주시청,043-201-8392,2025-10-31
효성카클리닉,03,충청북도 청주시 흥덕구 월명로252번길 63,충청북도 청주시 흥덕구 봉명동 2341,36.657252,127.457771,2011-09-15,99.2,01,,,,,,,충청북도 청주시청,043-201-7397,2025-10-31
효촌카센타,03,충청북도 청주시 상당구 남일면 효촌송암1길 4,충청북도 청주시 상당구 남일면 효촌리 201-10,36.588132,127.508391,1998-06-13,497,01,,,,,,,충청북도 청주시청,043-201-5393,2025-10-31
후니카센터,03,충청북도 청주시 청원구 주성로 228,충청북도 청주시 청원구 율량동 728-1,36.671206,127.491379,2016-08-08,289.3,01,,,,,,,충청북도 청주시청,043-201-8392,2025-10-31
흥덕라디에터,03,충청북도 청주시 서원구 남이면 2순환로 1636,충청북도 청주시 서원구 남이면 가마리 256,36.600271,127.460095,2017-04-12,172,01,,,,,,,충청북도 청주시청,043-201-6392,2025-10-31
흥덕모터스,03,충청북도 청주시 흥덕구 강내면 석화사인길 83-1,충청북도 청주시 흥덕구 강내면 석화리 28-1,36.62869455,127.3639258,2024-02-28,118,01,,,,,,,충청북도 청주시청,043-201-7397,2025-10-31
흥아씽씽카,03,충청북도 청주시 서원구 1순환로653번길 6,충청북도 청주시 서원구 사창동 222-2,36.635604,127.460472,2009-03-16,161.7,01,,,,,,,충청북도 청주시청,043-201-6392,2025-10-31
K디젤,04,충청북도 청주시 청원구 주성로 14,충청북도 청주시 청원구 사천동 530-20,36.665148,127.469962,2013-04-10,300,01,,,,,,,충청북도 청주시청,043-201-2897,2025-10-31
대광보링,04,충청북도 청주시 서원구 남이면 양촌1길 21-6,충청북도 청주시 서원구 남이면 양촌리 125-2,36.58539742,127.4677026,2024-07-23,390.45,01,,,,,,,충청북도 청주시청,043-201-2897,2025-10-31
동진커먼레일,04,충청북도 청주시 청원구 내수읍 원통숲안1길 15-1,충청북도 청주시 청원구 내수읍 원통리 256,36.701705,127.506242,2020-03-10,2056,01,,,,,,,충청북도 청주시청,043-201-2897,2025-10-31
복천보링공업사,04,충청북도 청주시 흥덕구 송절로 75-42,충청북도 청주시 흥덕구 송절동 122-5,36.659599,127.456051,2009-04-06,535.88,01,,,,,,,충청북도 청주시청,043-201-2897,2025-10-31
아일공업(주),04,충청북도 청주시 흥덕구 사운로386번길 45,충청북도 청주시 흥덕구 신봉동 261-6,36.661291,127.467712,1976-03-04,6581,01,,,,,,,충청북도 청주시청,043-201-2897,2025-10-31
청원모터스,04,충청북도 청주시 서원구 남이면 시목외천로 458-7,충청북도 청주시 서원구 남이면 부용외천리 985-7,36.528278,127.412896,2014-01-09,1473,01,,,,,,,충청북도 청주시청,043-201-2897,2025-10-31
충북보링공업사,04,충청북도 청주시 흥덕구 신전로 45,충청북도 청주시 흥덕구 휴암동 225-4,36.617003,127.403863,2013-07-02,2564,01,,,,,,,충청북도 청주시청,043-201-2897,2025-10-31
현대자동차부분정비공업사,03,충청북도 청주시 서원구 성화로 77,충청북도 청주시 서원구 죽림동 354,36.612163,127.4457097,2008-04-02,108.92,01,,,,,,,충청북도 청주시청,043-201-6392,2025-10-31
현대자동차부분정비공업사,03,충청북도 청주시 상당구 용암북로14번길 1,충청북도 청주시 상당구 용암동 1142,36.615296,127.501921,2001-03-07,82.47,01,,,,,,,충청북도 청주시청,043-201-5393,2025-10-31
현대자동차분평점,03,충청북도 청주시 서원구 1순환로 1019,충청북도 청주시 서원구 분평동 326-1,36.6082998,127.4806703,2003-08-11,1190,01,,,,,,,충청북도 청주시청,043-201-6392,2025-10-31
현대자동차블루핸즈 오창장대점,03,충청북도 청주시 청원구 오창읍 오창시내1길 13,충청북도 청주시 청원구 오창읍 장대리 272-4,36.738939,127.457788,2014-11-25,542,01,,,,,,,충청북도 청주시청,043-201-8392,2025-10-31
현대전장,03,충청북도 청주시 청원구 1순환로 347,충청북도 청주시 청원구 내덕동 672-20,36.657836,127.476458,1998-11-14,145,01,,,,,,,충청북도 청주시청,043-201-8392,2025-10-31
현대종합상사,03,충청북도 청주시 서원구 사운로 146,충청북도 청주시 서원구 사직동 212-1,36.641976,127.479554,2003-09-25,294.4,01,,,,,,,충청북도 청주시청,043-201-6392,2025-10-31
현대카랜드,03,충청북도 청주시 상당구 수영로 99,충청북도 청주시 상당구 영운동 196-2,36.616263,127.497101,2002-12-02,77,01,,,,,,,충청북도 청주시청,043-201-5393,2025-10-31
현대카모터스,03,충청북도 청주시 흥덕구 1순환로 622,충청북도 청주시 흥덕구 봉명동 229-4,36.638178,127.459045,2015-05-08,279.9,01,,,,,,,충청북도 청주시청,043-201-7397,2025-10-31
현대카랜드 내덕점,03,충청북도 청주시 청원구 충청대로 33,충청북도 청주시 청원구 내덕동 402-37,36.660162,127.490149,1999-10-04,77,01,,,,,,,충청북도 청주시청,043-201-8392,2025-10-31
현대카센터,03,충청북도 청주시 상당구 미원면 단재로 2429,충청북도 청주시 상당구 미원면 미원리 429-3,36.63325002,127.655075,2016-05-04,331,01,,,,,,,충청북도 청주시청,043-201-5393,2025-10-31
현대카클리닉분평점,03,충청북도 청주시 서원구 안뜸로12번길 48,충청북도 청주시 서원구 분평동 291-7,36.609881,127.478632,1998-01-08,174.6,01,,,,,,,충청북도 청주시청,043-201-6392,2025-10-31
현대카프라자,03,충청북도 청주시 흥덕구 장구봉로 15,충청북도 청주시 흥덕구 가경동 1477-8,36.621204,127.435872,2007-04-04,98,01,,,,,,,충청북도 청주시청,043-201-7397,2025-10-31
현도자동차부분정비공업사,03,충청북도 청주시 서원구 현도면 청남로 262,충청북도 청주시 서원구 현도면 달계리 542,36.478415,127.426791,1998-11-19,122.4,01,,,,,,,충청북도 청주시청,043-201-6392,2025-10-31
현진경정비,03,충청북도 청주시 청원구 율봉로201번길 35,충청북도 청주시 청원구 율량동 731-3,36.670272,127.491479,2008-05-19,316,01,,,,,,,충청북도 청주시청,043-201-8392,2025-10-31
형제모터스,03,충청북도 청주시 흥덕구 옥산면 오산가좌로 33,충청북도 청주시 흥덕구 옥산면 오산리 374-2,36.66461027,127.369814,1999-04-15,165,01,,,,,,,충청북도 청주시청,043-201-7397,2025-10-31
형제카부분정비공업사,03,충청북도 청주시 청원구 오창읍 화산여천길 5,충청북도 청주시 청원구 오창읍 화산리(華山) 278-1,36.765086,127.493292,2008-10-15,747,01,,,,,,,충청북도 청주시청,043-201-8392,2025-10-31
한국타이어 율량점,03,충청북도 청주시 청원구 공항로 135,충청북도 청주시 청원구 율량동 1227,36.66900323,127.484488,2001-06-21,181.13,01,,,,,,,충청북도 청주시청,043-201-8392,2025-10-31
한국타이어 천일,03,충청북도 청주시 서원구 남이면 청남로 1064,충청북도 청주시 서원구 남이면 외천리 464-7,36.547516,127.430885,2009-06-30,1298,01,,,,,,,충청북도 청주시청,043-201-6392,2025-10-31
한국타이어천일판매,03,충청북도 청주시 서원구 무심서로 393,충청북도 청주시 서원구 모충동 306-7,36.627378,127.483825,2003-04-29,231,01,,,,,,,충청북도 청주시청,043-201-6392,2025-10-31
한국타이어천일판매(주)서청주점,03,충청북도 청주시 흥덕구 가로수로 1153,충청북도 청주시 흥덕구 비하동 42-8,36.627314,127.424847,2009-06-30,350.76,01,,,,,,,충청북도 청주시청,043-201-7397,2025-10-31
한국타이어 청북카정비,03,충청북도 청주시 청원구 1순환로 312,충청북도 청주시 청원구 내덕동 704-9,36.6600501,127.479328,2010-03-26,179,01,,,,,,,충청북도 청주시청,043-201-8392,2025-10-31
한라모터스,03,충청북도 청주시 흥덕구 사운로280번길 42,충청북도 청주시 흥덕구 운천동 422-107,36.65263331,127.475399,2022-06-15,1203,01,,,,,,,충청북도 청주시청,043-201-7397,2025-10-31
한진오토,03,충청북도 청주시 서원구 사운로 154,충청북도 청주시 서원구 사직동 211-13,36.642847,127.479666,2018-01-22,135,01,,,,,,,충청북도 청주시청,043-201-6392,2025-10-31
한진자동차정비공업사,03,충청북도 청주시 서원구 남이면 청남로 975,충청북도 청주시 서원구 남이면 부용외천리 267-1,36.539566,127.429255,2009-06-30,312,01,,,,,,,충청북도 청주시청,043-201-6392,2025-10-31
할리월드 333,03,충청북도 청주시 서원구 남이면 수대길 6,충청북도 청주시 서원구 남이면 수대리 144-4,36.57076251,127.4521907,2024-01-16,133,01,,,,,,,충청북도 청주시청,043-201-6392,2025-10-31
해피카자동차정비전문점,03,충청북도 청주시 상당구 산성로 52,충청북도 청주시 상당구 금천동 261-18,36.628307,127.500938,2007-03-02,52,01,,,,,,,충청북도 청주시청,043-201-5393,2025-10-31
행운자동차부분정비공업사,03,충청북도 청주시 서원구 남들로13번길 2,충청북도 청주시 서원구 수곡동 91-4,36.61979984,127.482772,1998-09-19,98.76,01,,,,,,,충청북도 청주시청,043-201-6392,2025-10-31
현대그린카서비스센타,03,충청북도 청주시 흥덕구 월명로 190,충청북도 청주시 흥덕구 봉명동 2807,36.651683,127.454347,2008-02-27,395.1,01,,,,,,,충청북도 청주시청,043-201-7397,2025-10-31
현대엔진교정서비스,03,충청북도 청주시 서원구 성봉로220번길 22,충청북도 청주시 서원구 개신동 279-9,36.62402008,127.450854,1998-01-08,910,01,,,,,,,충청북도 청주시청,043-201-6392,2025-10-31
현대자동차 블루핸즈 강서점,03,충청북도 청주시 흥덕구 서현로 14,충청북도 청주시 흥덕구 가경동 623-10,36.61658018,127.424015,2018-11-23,237,01,,,,,,,충청북도 청주시청,043-201-7397,2025-10-31
현대자동차 블루핸즈 탑동점,03,충청북도 청주시 상당구 중고개로 364,충청북도 청주시 상당구 탑동 35,36.631623,127.500964,2018-10-02,903.6,01,,,,,,,충청북도 청주시청,043-201-5393,2025-10-31
현대자동차 오창남부점,03,충청북도 청주시 청원구 오창읍 과학산업3로 78-15,충청북도 청주시 청원구 오창읍 각리 659-2,36.697458,127.421545,2017-09-28,537.2,01,,,,,,,충청북도 청주시청,043-201-8392,2025-10-31
하나정비,03,충청북도 청주시 서원구 무심서로 615,충청북도 청주시 서원구 사직동 139-1,36.645742,127.480710,2008-07-29,537.5,01,,,,,,,충청북도 청주시청,043-201-6392,2025-10-31
하나오토밋션,03,충청북도 청주시 서원구 사북로 30,충청북도 청주시 서원구 사직동 537-48,36.642768,127.474445,2015-11-05,266,01,,,,,,,충청북도 청주시청,043-201-6392,2025-10-31
하나종합정비,03,충청북도 청주시 흥덕구 지동로 6,충청북도 청주시 흥덕구 지동동 228-1,36.646306,127.414494,2014-08-20,903,01,,,,,,,충청북도 청주시청,043-201-7397,2025-10-31
하나카서비스,03,충청북도 청주시 상당구 남일면 교육원로 20,충청북도 청주시 상당구 남일면 은행리 238-4,36.570183,127.557593,2019-04-30,281,01,,,,,,,충청북도 청주시청,043-201-5393,2025-10-31
하복대점현대자동차,03,충청북도 청주시 흥덕구 죽천로 98,충청북도 청주시 흥덕구 복대동 3041,36.637627,127.433763,1999-10-05,87.25,01,,,,,,,충청북도 청주시청,043-201-7397,2025-10-31
하이웨이스타,03,충청북도 청주시 청원구 주성로 31,충청북도 청주시 청원구 사천동 201-7,36.666205,127.471480,2017-02-09,317,01,,,,,,,충청북도 청주시청,043-201-8392,2025-10-31
하이카 가로수점,03,충청북도 청주시 흥덕구 가로수로 1138,충청북도 청주시 흥덕구 비하동 75-5,36.626271,127.423119,2011-11-21,514,01,,,,,,,충청북도 청주시청,043-201-7397,2025-10-31
학성카센타,03,충청북도 청주시 서원구 서부로 1391,충청북도 청주시 서원구 개신동 317-5,36.619331,127.452309,2005-11-28,152,01,,,,,,,충청북도 청주시청,043-201-6392,2025-10-31
한국상용트럭 주식회사,03,충청북도 청주시 서원구 남이면 연청로 1378,충청북도 청주시 서원구 남이면 부용외천리 854,36.532082,127.4241403,2017-03-29,452,01,,,,,,,충청북도 청주시청,043-201-6392,2025-10-31
한국지엠 가경지정서비스,03,충청북도 청주시 흥덕구 서현동로 20-8,충청북도 청주시 흥덕구 강서동 523,36.624046,127.430333,2012-09-20,412,01,,,,,,,충청북도 청주시청,043-201-7397,2025-10-31
한국지엠 서원바로서비스,03,충청북도 청주시 서원구 서부로 1397,충청북도 청주시 서원구 개신동 316-3,36.619589,127.453017,2020-10-13,741,01,,,,,,,충청북도 청주시청,043-201-6392,2025-10-31
한국지엠신용암바로서비스,03,충청북도 청주시 상당구 단재로180번길 8,충청북도 청주시 상당구 용암동 818-4,36.614101,127.500081,1999-08-23,88.26,01,,,,,,,충청북도 청주시청,043-201-5393,2025-10-31
한국타이어 TTS 수동점,03,충청북도 청주시 상당구 대성로122번길 27-10,충청북도 청주시 상당구 수동 230-4,36.636862,127.493945,2017-07-21,430.7,01,,,,,,,충청북도 청주시청,043-201-5393,2025-10-31
한국타이어 명암판매,03,충청북도 청주시 상당구 명암로 7-6,충청북도 청주시 상당구 용담동 76-16,36.637549,127.5085196,2014-11-21,193,01,,,,,,,충청북도 청주시청,043-201-5393,2025-10-31
한국타이어 법원점,03,충청북도 청주시 서원구 산미로 112,충청북도 청주시 서원구 산남동 46-32,36.606869,127.473294,2002-05-30,1190,01,,,,,,,충청북도 청주시청,043-201-6392,2025-10-31
한국타이어 서원총판(주),03,충청북도 청주시 흥덕구 덕암로47번길 97,충청북도 청주시 흥덕구 봉명동 2322,36.657434,127.458877,2003-08-22,1157,01,,,,,,,충청북도 청주시청,043-201-7397,2025-10-31
태영카특장,03,충청북도 청주시 서원구 현도면 청남로 504-6,충청북도 청주시 서원구 현도면 죽전리 64-29,36.499222,127.427638,2008-06-12,2039,01,,,,,,,충청북도 청주시청,043-201-6392,2025-10-31
태원카부분정비공업사,03,충청북도 청주시 상당구 영운천로 9-2,충청북도 청주시 상당구 영운동 209-10,36.615643,127.501064,2001-03-07,133,01,,,,,,,충청북도 청주시청,043-201-5393,2025-10-31
티스테이션 봉명점,03,충청북도 청주시 흥덕구 1순환로565번길 2,충청북도 청주시 흥덕구 봉명동 793,36.642384,127.462446,2008-11-19,542,01,,,,,,,충청북도 청주시청,043-201-7397,2025-10-31
티스테이션 산남점,03,충청북도 청주시 서원구 2순환로 1474,충청북도 청주시 서원구 죽림동 77-22,36.607808,127.444747,2016-08-04,1688,01,,,,,,,충청북도 청주시청,043-201-6392,2025-10-31
티스테이션 서청주IC점,03,충청북도 청주시 흥덕구 직지대로240번길 38,충청북도 청주시 흥덕구 지동동 476,36.64463977,127.4200018,2022-07-15,18312,01,,,,,,,충청북도 청주시청,043-201-7397,2025-10-31
티스테이션 오송쌍청점,03,충청북도 청주시 흥덕구 오송읍 상정쌍청로 320,충청북도 청주시 흥덕구 오송읍 쌍청리 507-4,36.639717,127.346345,2013-09-05,935,01,,,,,,,충청북도 청주시청,043-201-7397,2025-10-31
티스테이션 오창과학점,03,충청북도 청주시 청원구 오창읍 과학산업4로 8-4,충청북도 청주시 청원구 오창읍 각리 659-8,36.696741,127.420735,2018-07-12,544,01,,,,,,,충청북도 청주시청,043-201-8392,2025-10-31
티스테이션 오창점,03,충청북도 청주시 청원구 오창읍 양청송대길 9-15,충청북도 청주시 청원구 오창읍 양청리 808-3,36.7143691,127.4389619,2022-12-13,616.34,01,,,,,,,충청북도 청주시청,043-201-8392,2025-10-31
티스테이션동청주점,03,충청북도 청주시 청원구 율량로202번길 36,충청북도 청주시 청원구 율량동 2059,36.664912,127.496791,1999-04-29,561.3,01,,,,,,,충청북도 청주시청,043-201-8392,2025-10-31
퍼스트카서비스,03,충청북도 청주시 청원구 오창읍 구룡택지로 20,충청북도 청주시 청원구 오창읍 구룡리 402-13,36.709683,127.413424,2022-05-02,231.6,01,,,,,,,충청북도 청주시청,043-201-8392,2025-10-31
퍼시픽상사,03,충청북도 청주시 서원구 남이면 대림로 384,충청북도 청주시 서원구 남이면 석판리 5,36.604832,127.441178,2006-05-01,212,01,,,,,,,충청북도 청주시청,043-201-6392,2025-10-31
퍼팩트 모터스,03,충청북도 청주시 청원구 충청대로 233,충청북도 청주시 청원구 주중동 131-6,36.67777991,127.496995,2017-03-29,143,01,,,,,,,충청북도 청주시청,043-201-8392,2025-10-31
평우 개인택시 복지매장,03,충청북도 청주시 흥덕구 복대로 221,충청북도 청주시 흥덕구 복대동 227-2,36.636434,127.440511,2012-09-11,607,01,,,,,,,충청북도 청주시청,043-201-7397,2025-10-31
평화카부분정비,03,충청북도 청주시 흥덕구 천석로 48,충청북도 청주시 흥덕구 봉명동 1184,36.639503,127.465543,1998-10-19,207.6,01,,,,,,,충청북도 청주시청,043-201-7397,2025-10-31
포니자동차부분정비공업사,03,충청북도 청주시 상당구 산성로 43,충청북도 청주시 상당구 탑동 81-5,36.627892,127.499881,2008-01-07,95,01,,,,,,,충청북도 청주시청,043-201-5393,2025-10-31
풍년카부분정비공업사,03,충청북도 청주시 흥덕구 복대로 211,충청북도 청주시 흥덕구 복대동 153,36.635423,127.440508,2004-05-19,93.96,01,,,,,,,충청북도 청주시청,043-201-7397,2025-10-31
타이어마스타부분정비공업사,03,충청북도 청주시 상당구 1순환로1656번길 4,충청북도 청주시 상당구 용담동 6,36.63776991,127.512976,2003-03-28,279,01,,,,,,,충청북도 청주시청,043-201-5393,2025-10-31
타이어센터,03,충청북도 청주시 흥덕구 2순환로 944,충청북도 청주시 흥덕구 향정동 103,36.650903,127.422936,2018-03-06,209,01,,,,,,,충청북도 청주시청,043-201-7397,2025-10-31
타이어이글수 오송점,03,충청북도 청주시 흥덕구 오송읍 오송5길 2,충청북도 청주시 흥덕구 오송읍 오송리 43-8,36.61160013,127.3290966,2024-05-27,530,01,,,,,,,충청북도 청주시청,043-201-7397,2025-10-31
타이어테크 청주동남점,03,충청북도 청주시 상당구 목련로 56,충청북도 청주시 상당구 지북동 118,36.599249,127.511171,2021-10-06,347.57,01,,,,,,,충청북도 청주시청,043-201-5393,2025-10-31
타이어프로 가경점,03,충청북도 청주시 흥덕구 풍년로 30,충청북도 청주시 흥덕구 가경동 1690,36.616675,127.440512,2013-11-14,498.1,01,,,,,,,충청북도 청주시청,043-201-7397,2025-10-31
타이어프로 개신점,03,충청북도 청주시 서원구 성봉로 238,충청북도 청주시 서원구 개신동 243,36.626337,127.450371,2016-06-29,495,01,,,,,,,충청북도 청주시청,043-201-6392,2025-10-31
타이어프로 용암점,03,충청북도 청주시 상당구 영운천로141번길 5,충청북도 청주시 상당구 용정동 644,36.622076,127.512446,2003-12-29,209.1,01,,,,,,,충청북도 청주시청,043-201-5393,2025-10-31
타이어프로 청주봉명점,03,충청북도 청주시 흥덕구 직지대로 683,충청북도 청주시 흥덕구 신봉동 348-3,36.64313013,127.468882,2021-08-05,161,01,,,,,,,충청북도 청주시청,043-201-7397,2025-10-31
타이어프로 청주역점,03,충청북도 청주시 흥덕구 강촌로 290,충청북도 청주시 흥덕구 지동동 780,36.644904,127.397183,2016-01-04,2369,01,,,,,,,충청북도 청주시청,043-201-7397,2025-10-31
타이어프로 흥덕점,03,충청북도 청주시 흥덕구 무심서로 629,충청북도 청주시 흥덕구 운천동 1648,36.64698005,127.479916,2008-04-17,221.7,01,,,,,,,충청북도 청주시청,043-201-7397,2025-10-31
타이어프로오창점,03,충청북도 청주시 청원구 오창읍 과학산업3로 76,충청북도 청주시 청원구 오창읍 각리 655-1,36.698182,127.420576,2006-10-17,791.1,01,,,,,,,충청북도 청주시청,043-201-8392,2025-10-31
타이어플러스,03,충청북도 청주시 상당구 단재로 142,충청북도 청주시 상당구 영운동 199-9,36.61679972,127.498763,2006-03-27,160,01,,,,,,,충청북도 청주시청,043-201-5393,2025-10-31
탑클래스,03,충청북도 청주시 흥덕구 가로수로 933,충청북도 청주시 흥덕구 휴암동 394-19,36.620992,127.401948,2013-09-04,400,01,,,,,,,충청북도 청주시청,043-201-7397,2025-10-31
태건특장,03,충청북도 청주시 흥덕구 1순환로438번길 48,충청북도 청주시 흥덕구 신봉동 145-1,36.65391402,127.4686058,2024-03-26,658,01,,,,,,,충청북도 청주시청,043-201-7397,2025-10-31
카라인 자동차정비,03,충청북도 청주시 청원구 오창읍 중심상업2로 47-9,충청북도 청주시 청원구 오창읍 양청리 797-6,36.714542,127.430866,2007-10-09,302.41,01,,,,,,,충청북도 청주시청,043-201-8392,2025-10-31
카랜드써비스,03,충청북도 청주시 청원구 오창읍 과학산업2로 430,충청북도 청주시 청원구 오창읍 양청리 785-3,36.71691005,127.428356,2008-04-04,1476,01,,,,,,,충청북도 청주시청,043-201-8392,2025-10-31
카매니아클럽,03,충청북도 청주시 상당구 수영로 205,충청북도 청주시 상당구 금천동 131-64,36.623132,127.503218,2002-09-27,128.8,01,,,,,,,충청북도 청주시청,043-201-5393,2025-10-31
카솔루션,03,충청북도 청주시 서원구 남이면 남석로490,충청북도 청주시 서원구 남이면 석실리 7,36.59856171,127.4277762,2023-06-20,2288,01,,,,,,,충청북도 청주시청,043-201-6392,2025-10-31
카스 모빌리티 내수점,03,충청북도 청주시 청원구 내수읍 초정약수로 161,충청북도 청주시 청원구 내수읍 내수리 200,36.722739,127.530045,2022-04-20,1178,01,,,,,,,충청북도 청주시청,043-201-8392,2025-10-31
카젠 비하점,03,충청북도 청주시 흥덕구 비하로 53,충청북도 청주시 흥덕구 비하동 170-5,36.631849,127.424315,2015-04-30,429,01,,,,,,,충청북도 청주시청,043-201-7397,2025-10-31
카튠,03,충청북도 청주시 청원구 주성로 51,충청북도 청주시 청원구 사천동 223-3,36.667076,127.473573,2012-08-30,537,01,,,,,,,충청북도 청주시청,043-201-8392,2025-10-31
카프로 성수자동차,03,충청북도 청주시 서원구 남이면 남석로 63,충청북도 청주시 서원구 남이면 척산리 645-2,36.562578,127.430399,2007-04-25,688,01,,,,,,,충청북도 청주시청,043-201-6392,2025-10-31
캠프자동차부분정비공업사,03,충청북도 청주시 청원구 충청대로 44-2,충청북도 청주시 청원구 내덕동 410-5,36.66073996,127.490953,1998-11-14,84,01,,,,,,,충청북도 청주시청,043-201-8392,2025-10-31
케이지모빌리티상당서비스프라자(주),03,충청북도 청주시 상당구 교동로 131,충청북도 청주시 상당구 용담동 156-1,36.636513,127.502839,2006-05-11,516,01,,,,,,,충청북도 청주시청,043-201-5484,2025-10-31
케이지모빌리티 청주서비스프라자,03,충청북도 청주시 서원구 청남로 1833-50,충청북도 청주시 서원구 미평동 164-5,36.60008965,127.470742,2007-05-09,237.12,01,,,,,,,충청북도 청주시청,043-201-6392,2025-10-31
코리아자동차부분정비공업사,03,충청북도 청주시 흥덕구 봉명로 222,충청북도 청주시 흥덕구 봉명동 1188,36.639653,127.4662497,1998-05-26,99.52,01,,,,,,,충청북도 청주시청,043-201-7397,2025-10-31
퀄리티,03,충청북도 청주시 상당구 교서로 40-1,충청북도 청주시 상당구 영동 55-2,36.640514,127.486364,2010-09-13,94.01,01,,,,,,,충청북도 청주시청,043-201-5483,2025-10-31
퀄리티오토 오송점,03,충청북도 청주시 흥덕구 오송읍 연제만수길 51,충청북도 청주시 흥덕구 오송읍 만수리 668,36.624443,127.3294099,2009-09-07,250,01,,,,,,,충청북도 청주시청,043-201-7397,2025-10-31
클리어모터스,03,충청북도 청주시 흥덕구 옥산면 남촌길 1-20,충청북도 청주시 흥덕구 옥산면 남촌리 502-1,36.694845,127.420173,2017-01-31,820,01,,,,,,,충청북도 청주시청,043-201-7397,2025-10-31
청주 착한정비소,03,충청북도 청주시 상당구 중고개로 365-1,충청북도 청주시 상당구 탑동 37-1,36.631278,127.5004903,2016-05-18,370,01,,,,,,,충청북도 청주시청,043-201-5393,2025-10-31
청주 하나 카 모터스,03,충청북도 청주시 상당구 용암북로 54,충청북도 청주시 상당구 용암동 642-3,36.616914,127.505395,1999-06-18,317,01,,,,,,,충청북도 청주시청,043-201-5393,2025-10-31
청주모터스,03,충청북도 청주시 흥덕구 풍년로 68,충청북도 청주시 흥덕구 가경동 1503-21,36.619527,127.438159,2003-10-18,182.5,01,,,,,,,충청북도 청주시청,043-201-7397,2025-10-31
청주사육오토밋션,03,충청북도 청주시 서원구 남이면 청남로 1830,충청북도 청주시 서원구 남이면 가마리 4-1,36.59874354,127.4737413,2022-07-19,1303,01,,,,,,,충청북도 청주시청,043-201-6392,2025-10-31
청주상용트럭공업사,03,충청북도 청주시 흥덕구 송절로 31 (송절동),충청북도 청주시 흥덕구 송절동 395-7,36.65864542,127.452154,2023-07-20,748,01,,,,,,,충청북도 청주시청,043-201-7397,2025-10-31
청주세차장,03,충청북도 청주시 서원구 사운로 148,충청북도 청주시 서원구 사직동 211-5,36.642249,127.479554,2007-05-03,194,01,,,,,,,충청북도 청주시청,043-201-6392,2025-10-31
청주오토샵,03,충청북도 청주시 흥덕구 덕암로35번길 1,충청북도 청주시 흥덕구 봉명동 2458,36.653242,127.457974,2003-12-09,414.5,01,,,,,,,충청북도 청주시청,043-201-7397,2025-10-31
청주자동차부분정비공업사,03,충청북도 청주시 청원구 우암로 16,충청북도 청주시 청원구 우암동 385-17,36.651606,127.481505,1999-06-23,108,01,,,,,,,충청북도 청주시청,043-201-8392,2025-10-31
체인지부분정비공업사,03,충청북도 청주시 청원구 율봉로167번길 38,충청북도 청주시 청원구 율량동 807-1,36.670419,127.487807,2000-01-04,79.5,01,,,,,,,충청북도 청주시청,043-201-8392,2025-10-31
최선커먼레일,03,충청북도 청주시 청원구 내수읍 묵방국동로 24,충청북도 청주시 청원구 내수읍 묵방리 370-3,36.69505659,127.523339,2021-12-28,2090,01,,,,,,,충청북도 청주시청,043-201-8392,2025-10-31
최창섭3급카랜드,03,충청북도 청주시 상당구 상당로204번길 8,충청북도 청주시 상당구 수동 446-44,36.646201,127.489864,2007-07-24,327,01,,,,,,,충청북도 청주시청,043-201-5393,2025-10-31
충북리무진(주),03,충청북도 청주시 서원구 2순환로 1602,충청북도 청주시 서원구 미평동 326-5,36.602303,127.457099,2014-05-01,200,01,,,,,,,충청북도 청주시청,043-201-6392,2025-10-31
충북자동차정비공업사,03,충청북도 청주시 상당구 영운천로 103-6,충청북도 청주시 상당구 영운동 34-26,36.620404,127.509162,2006-08-11,228,01,,,,,,,충청북도 청주시청,043-201-5393,2025-10-31
충청모터스,03,충청북도 청주시 청원구 팔결로 39,충청북도 청주시 청원구 주중동 502-2,36.686624,127.483068,2007-10-22,123,01,,,,,,,충청북도 청주시청,043-201-8392,2025-10-31
카닥터모터스,03,충청북도 청주시 청원구 오창읍 공항로 1007,충청북도 청주시 청원구 오창읍 창리 36,36.738421,127.4543296,2019-08-09,962,01,,,,,,,충청북도 청주시청,043-201-8392,2025-10-31
착한타이어,03,충청북도 청주시 청원구 공항로 80,충청북도 청주시 청원구 내덕동 537-1,36.664556,127.487109,2016-03-25,210,01,,,,,,,충청북도 청주시청,043-201-8392,2025-10-31
창희자동차부분정비공업사,03,충청북도 청주시 서원구 안뜸로 63-1,충청북도 청주시 서원구 분평동 247-7,36.612273,127.484426,1998-11-07,105.8,01,,,,,,,충청북도 청주시청,043-201-6392,2025-10-31
천성자동차부분정비공업사,03,충청북도 청주시 청원구 내수읍 내수로 385,충청북도 청주시 청원구 내수읍 원통리 132,36.704884,127.508174,2004-03-18,394,01,,,,,,,충청북도 청주시청,043-201-8392,2025-10-31
천인카,03,충청북도 청주시 흥덕구 과상미로9번길 45,충청북도 청주시 흥덕구 봉명동 1621,36.643592,127.458978,2000-02-01,87.6,01,,,,,,,충청북도 청주시청,043-201-7397,2025-10-31
천일카부분정비공업사,03,충청북도 청주시 청원구 내수읍 내수로 534,충청북도 청주시 청원구 내수읍 묵방리 490-9,36.714152,127.521571,2003-02-06,990,01,,,,,,,충청북도 청주시청,043-201-8392,2025-10-31
첨단카부분정비공업사,03,충청북도 청주시 흥덕구 직지대로 662,충청북도 청주시 흥덕구 봉명동 773-1,36.642613,127.466398,2002-05-23,348.2,01,,,,,,,충청북도 청주시청,043-201-7397,2025-10-31
청남카부분정비공업사,03,충청북도 청주시 상당구 영운로 6,충청북도 청주시 상당구 영운동 195-1,36.616787,127.498661,1999-12-22,78,01,,,,,,,충청북도 청주시청,043-201-5393,2025-10-31
청남판매(주),03,충청북도 청주시 서원구 청남로 1898,충청북도 청주시 서원구 미평동 19-1,36.602953,127.478992,2002-07-30,540,01,,,,,,,충청북도 청주시청,043-201-6392,2025-10-31
청남판매(주) 지웰시티점,03,충청북도 청주시 흥덕구 직지대로240번길 84,충청북도 청주시 흥덕구 비하동 351-22,36.642805,127.421933,2019-10-06,3243,01,,,,,,,충청북도 청주시청,043-201-7397,2025-10-31
청솔자동차부분정비공업사,03,충청북도 청주시 청원구 내덕로 31,충청북도 청주시 청원구 내덕동 642-5,36.657326,127.483759,2007-12-06,162,01,,,,,,,충청북도 청주시청,043-201-8392,2025-10-31
청수타이어,03,충청북도 청주시 서원구 남이면 청남로 1810,충청북도 청주시 서원구 남이면 가마리 7-4,36.597261,127.472966,2017-06-13,129,01,,,,,,,충청북도 청주시청,043-201-6392,2025-10-31
청용카부분정비공업사,03,충청북도 청주시 상당구 가덕면 보청대로 4674-4,충청북도 청주시 상당구 가덕면 인차리 332-1,36.554204,127.547289,2001-07-18,345,01,,,,,,,충청북도 청주시청,043-201-5393,2025-10-31
청원 모터스,03,충청북도 청주시 서원구 남이면 시목외천로 458,충청북도 청주시 서원구 남이면 부용외천리 985,36.527517,127.412794,2014-01-09,1473,01,,,,,,,충청북도 청주시청,043-201-6392,2025-10-31
청원상사,03,충청북도 청주시 서원구 현도면 죽전1길 48-13,충청북도 청주시 서원구 현도면 죽전리 592-1,36.4955202,127.418282,1999-10-05,249.8,01,,,,,,,충청북도 청주시청,043-201-6392,2025-10-31
청일카부분정비공업사,03,충청북도 청주시 서원구 청남로2005번길 13,충청북도 청주시 서원구 분평동 246-23,36.611022,127.484126,2000-06-24,72.57,01,,,,,,,충청북도 청주시청,043-201-6392,2025-10-31
청주 다온 카센타,03,충청북도 청주시 서원구 모충로 41,충청북도 청주시 서원구 개신동 438-4,36.62571958,127.468199,2018-01-29,308,01,,,,,,,충청북도 청주시청,043-201-6392,2025-10-31
주식회사 청주타이어,03,충청북도 청주시 청원구 내덕로 67-1,충청북도 청주시 청원구 내덕동 179-7,36.657485,127.487755,2020-09-10,443.1,01,,,,,,,충청북도 청주시청,043-201-8392,2025-10-31
준수정비,03,충청북도 청주시 청원구 율천북로 187,충청북도 청주시 청원구 율량동 1011-4,36.665142,127.491119,2010-04-05,330.06,01,,,,,,,충청북도 청주시청,043-201-8392,2025-10-31
중부벤츠,03,충청북도 청주시 서원구 남이면 시목외천로 459-2,충청북도 청주시 서원구 남이면 부용외천리 983-6,36.528336,127.411266,2016-10-17,199.8,01,,,,,,,충청북도 청주시청,043-201-6392,2025-10-31
중부타이어,03,충청북도 청주시 청원구 오창읍 중부로 1375,충청북도 청주시 청원구 오창읍 일신리 11-2,36.752566,127.479022,2013-04-15,1874,01,,,,,,,충청북도 청주시청,043-201-8392,2025-10-31
중앙카랜드세차장,03,충청북도 청주시 서원구 장전로20번길 63,충청북도 청주시 서원구 성화동 786,36.616254,127.4526398,2019-07-25,686.4,01,,,,,,,충청북도 청주시청,043-201-6392,2025-10-31
중앙카부분정비공업사,03,충청북도 청주시 청원구 율봉로167번길 65-8,충청북도 청주시 청원구 율량동 720-5,36.671622,127.487488,2000-07-11,93,01,,,,,,,충청북도 청주시청,043-201-8392,2025-10-31
증평카,03,충청북도 청주시 청원구 내수읍 내수학평길 61,충청북도 청주시 청원구 내수읍 학평리 139-15,36.727251,127.5399095,2004-10-15,452,01,,,,,,,충청북도 청주시청,043-201-8392,2025-10-31
지·오 모터스(G·O MOTORS),03,충청북도 청주시 상당구 쇠내로 70,충청북도 청주시 상당구 금천동 172-65,36.624703,127.5014903,1998-09-15,82.6,01,,,,,,,충청북도 청주시청,043-201-5393,2025-10-31
지엠대우자동차산남점,03,충청북도 청주시 서원구 청남로1945번길 22,충청북도 청주시 서원구 미평동 3-6,36.607362,127.480622,2008-03-05,268,01,,,,,,,충청북도 청주시청,043-201-6392,2025-10-31
지프자동차부분정비공업사,03,충청북도 청주시 청원구 공항로 67,충청북도 청주시 청원구 내덕동 557-4,36.663338,127.486682,1999-09-09,93,01,,,,,,,충청북도 청주시청,043-201-8392,2025-10-31
진구 모터스,03,충청북도 청주시 상당구 사북로 128,충청북도 청주시 상당구 영동 13-1,36.644864,127.4850498,2017-05-15,148.62,01,,,,,,,충청북도 청주시청,043-201-5393,2025-10-31
차병원부분정비공업사,03,충청북도 청주시 청원구 공항로44번길 4,충청북도 청주시 청원구 내덕동 402-49,36.661014,127.487642,1999-09-28,72,01,,,,,,,충청북도 청주시청,043-201-8392,2025-10-31
착한정비센터 율량점,03,충청북도 청주시 청원구 율천북로 173,충청북도 청주시 청원구 율량동 1002,36.665807,127.489499,2010-07-07,352.2,01,,,,,,,충청북도 청주시청,043-201-8392,2025-10-31
착한카,03,충청북도 청주시 서원구 용평로93번길 67,충청북도 청주시 서원구 분평동 667,36.603089,127.486152,2017-02-22,3287,01,,,,,,,충청북도 청주시청,043-201-6392,2025-10-31
착한카 주식회사(신봉동지점),03,충청북도 청주시 흥덕구 1순환로 406,충청북도 청주시 흥덕구 신봉동 50-3,36.654656,127.471356,2012-03-12,570,01,,,,,,,충청북도 청주시청,043-201-7397,2025-10-31
착한카(주) 봉명점,03,충청북도 청주시 흥덕구 1순환로 561,충청북도 청주시 흥덕구 봉명동 754,36.642762,127.462597,2019-03-28,341.8,01,,,,,,,충청북도 청주시청,043-201-7397,2025-10-31
제이케이모터스 성화점,03,충청북도 청주시 서원구 2순환로 1512(성화동),충청북도 청주시 서원구 성화동 225-5,36.60612148,127.4486421,2012-05-04,165,01,,,,,,,충청북도 청주시청,043-201-6392,2025-10-31
제일공업사,03,충청북도 청주시 흥덕구 동촌로 78,충청북도 청주시 흥덕구 서촌동 124,36.649933,127.404901,2009-12-07,2276,01,,,,,,,충청북도 청주시청,043-201-7397,2025-10-31
제일자동차부분정비공업사,03,충청북도 청주시 청원구 우암로 6,충청북도 청주시 청원구 우암동 400-8,36.6511804,127.480628,1998-11-06,84,01,,,,,,,충청북도 청주시청,043-201-8392,2025-10-31
제일카센타,03,충청북도 청주시 상당구 수영로 149-2,충청북도 청주시 상당구 영운동 102-8,36.618353,127.501284,2008-04-28,298,01,,,,,,,충청북도 청주시청,043-201-5393,2025-10-31
제일카센터,03,충청북도 청주시 청원구 주성로 214,충청북도 청주시 청원구 율량동 725-1,36.671552,127.489932,2012-08-30,297.8,01,,,,,,,충청북도 청주시청,043-201-8392,2025-10-31
조은자동차,03,충청북도 청주시 청원구 새터로 193,충청북도 청주시 청원구 사천동 451-3,36.664254,127.471422,2002-10-28,98,01,,,,,,,충청북도 청주시청,043-201-8392,2025-10-31
조은차만들기,03,충청북도 청주시 청원구 오창읍 구룡택지1로 11,충청북도 청주시 청원구 오창읍 구룡리 425-3,36.710502,127.415388,2006-10-02,544.3,01,,,,,,,충청북도 청주시청,043-201-8392,2025-10-31
조은카타이어,03,충청북도 청주시 청원구 율천북로 69,충청북도 청주시 청원구 사천동 243-9,36.66300877,127.4787865,2022-07-04,451,01,,,,,,,충청북도 청주시청,043-201-8392,2025-10-31
조프로카맨샵,03,충청북도 청주시 서원구 성화로 67,충청북도 청주시 서원구 성화동 186-1,36.611372,127.446155,2007-10-10,635,01,,,,,,,충청북도 청주시청,043-201-6392,2025-10-31
종원타이어모터스,03,충청북도 청주시 청원구 1순환로225번길 4,충청북도 청주시 청원구 내덕동 534-1,36.663986,127.487377,2014-12-12,524,01,,,,,,,충청북도 청주시청,043-201-8392,2025-10-31
좋은차만들기,03,충청북도 청주시 청원구 향군로 78,충청북도 청주시 청원구 우암동 380-18,36.652294,127.484145,2012-04-06,287.1,01,,,,,,,충청북도 청주시청,043-201-8392,2025-10-31
주노카 클리닉,03,충청북도 청주시 흥덕구 덕암로12번길 34,충청북도 청주시 흥덕구 봉명동 2823,36.650855,127.455086,2011-06-29,288.9,01,,,,,,,충청북도 청주시청,043-201-7397,2025-10-31
주성카센터,03,충청북도 청주시 서원구 예체로 67번길 33,충청북도 청주시 서원구 사창동 357-90,36.632156,127.466826,2011-12-12,363,01,,,,,,,충청북도 청주시청,043-201-6392,2025-10-31
주식회사 제이엠티스,03,충청북도 청주시 청원구 외남로 70-55,충청북도 청주시 청원구 외남동 44,36.69641834,127.4886523,2024-03-12,281.47,01,,,,,,,충청북도 청주시청,043-201-8392,2025-10-31
주식회사 청주열린타이어,03,충청북도 청주시 흥덕구 직지대로 596,충청북도 청주시 흥덕구 봉명동 169-5,36.642917,127.458939,2006-03-15,541.1,01,,,,,,,충청북도 청주시청,043-201-7397,2025-10-31
일구구삼 정비소,03,충청북도 청주시 흥덕구 가로수로 1154,충청북도 청주시 흥덕구 강서동 34-8,36.62659528,127.4250781,2023-03-15,602,01,,,,,,,충청북도 청주시청,043-201-7397,2025-10-31
일산자동차부분정비공업사,03,충청북도 청주시 서원구 남지로21번길 9,충청북도 청주시 서원구 미평동 289-1,36.602108,127.461867,1999-03-08,117,01,,,,,,,충청북도 청주시청,043-201-6392,2025-10-31
임팩트,03,충청북도 청주시 서원구 1순환로 850-1,충청북도 청주시 서원구 산남동 319-3,36.619974,127.4681598,2014-02-20,728,01,,,,,,,충청북도 청주시청,043-201-6392,2025-10-31
자동차대학병원부분정비공업사,03,충청북도 청주시 서원구 모충로 80,충청북도 청주시 서원구 모충동 501-18,36.627085,127.472342,1999-10-20,118.9,01,,,,,,,충청북도 청주시청,043-201-6392,2025-10-31
자동차랜드,03,충청북도 청주시 흥덕구 죽천로 49,충청북도 청주시 흥덕구 복대동 499-1,36.638456,127.428309,2012-06-01,198,01,,,,,,,충청북도 청주시청,043-201-7397,2025-10-31
자동차를 잘 고치는 사람들,03,충청북도 청주시 흥덕구 서현북로 6,충청북도 청주시 흥덕구 가경동 1766,36.617799,127.426029,2005-07-06,347,01,,,,,,,충청북도 청주시청,043-201-7397,2025-10-31
자동차마을,03,충청북도 청주시 흥덕구 오송읍 가로수로 31,충청북도 청주시 흥덕구 오송읍 봉산리 611-11,36.605048,127.309459,2007-02-15,321.9,01,,,,,,,충청북도 청주시청,043-201-7397,2025-10-31
장성모터스,03,충청북도 청주시 상당구 남일면 가장로 229,충청북도 청주시 상당구 남일면 신송리 229-3,36.580136,127.494784,2018-11-08,1109,01,,,,,,,충청북도 청주시청,043-201-5393,2025-10-31
장인카부분정비공업사,03,충청북도 청주시 흥덕구 예체로179번길 10,충청북도 청주시 흥덕구 봉명동 791-1,36.642439,127.468424,1999-03-20,98.39,01,,,,,,,충청북도 청주시청,043-201-7397,2025-10-31
재성카 타이어타운 미평점,03,충청북도 청주시 서원구 산미로 27,충청북도 청주시 서원구 미평동 228-2,36.601225,127.467546,2002-02-24,749,01,,,,,,,충청북도 청주시청,043-201-6392,2025-10-31
재운카독크,03,충청북도 청주시 흥덕구 1순환로 519,충청북도 청주시 흥덕구 봉명동 490,36.645997,127.464963,2001-02-17,353.2,01,,,,,,,충청북도 청주시청,043-201-7397,2025-10-31
재희카서비스,03,충청북도 청주시 흥덕구 봉명로 70,충청북도 청주시 흥덕구 복대동 78-19,36.637883,127.4494903,2005-07-14,172,01,,,,,,,충청북도 청주시청,043-201-7397,2025-10-31
전상훈카클리닉,03,충청북도 청주시 서원구 산미로 26-9,충청북도 청주시 서원구 미평동 224-2,36.600530,127.468301,2008-05-29,84.6,01,,,,,,,충청북도 청주시청,043-201-6392,2025-10-31
정글팩토리,03,충청북도 청주시 서원구 현도면 시목외천로 258-6,충청북도 청주시 서원구 현도면 중삼리 19,36.510834,127.4147196,2018-09-12,3904,01,,,,,,,충청북도 청주시청,043-201-6392,2025-10-31
제이모터스,03,충청북도 청주시 상당구 쇠내로113번길 6,충청북도 청주시 상당구 금천동 110-18,36.62347394,127.5059014,2022-07-28,464,01,,,,,,,충청북도 청주시청,043-201-5446,2025-10-31
제이오토미션수리전문점,03,충청북도 청주시 청원구 2순환로160번길 18,충청북도 청주시 청원구 주성동 92-3,36.673318,127.502322,2019-04-25,894,01,,,,,,,충청북도 청주시청,043-201-8392,2025-10-31
유진카 신품 중고타이어,03,충청북도 청주시 상당구 용담로 74,충청북도 청주시 상당구 탑동 27-34,36.631724,127.499043,2006-07-04,72,01,,,,,,,충청북도 청주시청,043-201-5393,2025-10-31
유현&준 모터스,03,충청북도 청주시 청원구 북이면 충청대로 1039,충청북도 청주시 청원구 북이면 신기리 161-3,36.734411,127.5415797,2020-11-30,901,01,,,,,,,충청북도 청주시청,043-201-8392,2025-10-31
유형백카,03,충청북도 청주시 청원구 교서로 178,충청북도 청주시 청원구 우암동 401-7,36.651516,127.4799598,2004-06-04,193.2,01,,,,,,,충청북도 청주시청,043-201-8392,2025-10-31
윤광천 오토서비스,03,충청북도 청주시 상당구 영운천로 183,충청북도 청주시 상당구 용정동 839,36.624729,127.515966,2004-02-11,122.54,01,,,,,,,충청북도 청주시청,043-201-5393,2025-10-31
윤카클리닉,03,충청북도 청주시 청원구 율봉로167번길 71,충청북도 청주시 청원구 율량동 722,36.671757,127.487948,2006-10-02,97.5,01,,,,,,,충청북도 청주시청,043-201-8392,2025-10-31
율량점 AUTO Q,03,충청북도 청주시 청원구 율천북로 171,충청북도 청주시 청원구 율량동 1000,36.665827,127.489271,2006-12-07,96,01,,,,,,,충청북도 청주시청,043-201-8392,2025-10-31
은성자동차,03,충청북도 청주시 흥덕구 강내면 탑연월곡길 84,충청북도 청주시 흥덕구 강내면 월곡리 299-12,36.624048,127.364593,2013-03-18,397,01,,,,,,,충청북도 청주시청,043-201-7397,2025-10-31
은하 모터스,03,충청북도 청주시 흥덕구 가로수로 1336,충청북도 청주시 흥덕구 복대동 979,36.632713,127.441671,2012-04-02,271.9,01,,,,,,,충청북도 청주시청,043-201-7397,2025-10-31
이강식카클리닉,03,충청북도 청주시 상당구 단재로 141-4,충청북도 청주시 상당구 영운동 201-2,36.616855,127.499344,2003-11-14,99,01,,,,,,,충청북도 청주시청,043-201-5393,2025-10-31
이글스정비,03,충청북도 청주시 서원구 호국로 144,충청북도 청주시 서원구 사직동 252-15,36.640707,127.4763196,2000-06-24,76.77,01,,,,,,,충청북도 청주시청,043-201-6392,2025-10-31
이병재 카 독크,03,충청북도 청주시 상당구 쇠내로91번길 11-8,충청북도 청주시 상당구 금천동 174-19,36.625168,127.5031998,2006-07-11,75.2,01,,,,,,,충청북도 청주시청,043-201-5393,2025-10-31
이석민카클리닉,03,충청북도 청주시 청원구 충청대로 111,충청북도 청주시 청원구 율량동 1067,36.666465,127.492968,2005-07-12,246,01,,,,,,,충청북도 청주시청,043-201-8392,2025-10-31
이재형자동차병원,03,충청북도 청주시 상당구 용암북로94번길 36,충청북도 청주시 상당구 용암동 2519,36.618657,127.510311,2003-03-14,57,01,,,,,,,충청북도 청주시청,043-201-5393,2025-10-31
이종필 카클리닉,03,충청북도 청주시 상당구 쇠내로73번길 3,충청북도 청주시 상당구 금천동 172-15,36.625047,127.501824,2008-08-06,77.81,01,,,,,,,충청북도 청주시청,043-201-5393,2025-10-31
인터넷 타이어,03,충청북도 청주시 청원구 2순환로410번길 56-1,충청북도 청주시 청원구 사천동 155,36.673778,127.474806,2017-08-17,2607,01,,,,,,,충청북도 청주시청,043-201-8392,2025-10-31
우진카,03,충청북도 청주시 상당구 단재로 439-43,충청북도 청주시 상당구 지북동 257-1,36.592863,127.508423,2003-06-27,284,01,,,,,,,충청북도 청주시청,043-201-5393,2025-10-31
운천점현대자동차,03,충청북도 청주시 흥덕구 1순환로 389,충청북도 청주시 흥덕구 운천동 541-1,36.65555999,127.472695,2003-12-15,299,01,,,,,,,충청북도 청주시청,043-201-7397,2025-10-31
운천종합카부분정비공업사,03,충청북도 청주시 흥덕구 사운로 284,충청북도 청주시 흥덕구 운천동 555-15,36.652964,127.472373,1999-11-06,89.4,01,,,,,,,충청북도 청주시청,043-201-7397,2025-10-31
원광카부분정비공업사,03,충청북도 청주시 청원구 중앙로 189-12,충청북도 청주시 청원구 내덕동 294-15,36.654393,127.487092,1999-06-12,129,01,,,,,,,충청북도 청주시청,043-201-8392,2025-10-31
원모터스,03,충청북도 청주시 청원구 사뜸로 1,충청북도 청주시 청원구 내덕동 577-1,36.66298675,127.484022,2020-11-24,704,01,,,,,,,충청북도 청주시청,043-201-8392,2025-10-31
원앤올모터스,03,충청북도 청주시 상당구 남일면 단재로 500-16,충청북도 청주시 상당구 남일면 효촌리 176-1,36.586335,127.507056,2020-07-29,906,01,,,,,,,충청북도 청주시청,043-201-5393,2025-10-31
원일자동차부분정비공업사,03,충청북도 청주시 청원구 충청대로83번길 3,충청북도 청주시 청원구 내덕동 493-5,36.6639195,127.492716,1999-01-25,90,01,,,,,,,충청북도 청주시청,043-201-8392,2025-10-31
원타이어,03,충청북도 청주시 상당구 영운천로167번길 5,충청북도 청주시 상당구 용정동 781,36.62369005,127.514505,1999-11-04,224.8,01,,,,,,,충청북도 청주시청,043-201-5393,2025-10-31
원터치공업사,03,충청북도 청주시 상당구 남일면 단재로 490,충청북도 청주시 상당구 남일면 효촌리 193-4,36.587514,127.508007,2005-08-05,168,01,,,,,,,충청북도 청주시청,043-201-5393,2025-10-31
원흥카프라자,03,충청북도 청주시 상당구 중고개로 371-1,충청북도 청주시 상당구 탑동 27-46,36.631624,127.499658,2003-01-04,164.7,01,,,,,,,충청북도 청주시청,043-201-5393,2025-10-31
월곡자동차부분정비공업사,03,충청북도 청주시 흥덕구 강내면 가로수로 640-7,충청북도 청주시 흥덕구 강내면 월곡리 150-47,36.623778,127.370988,1999-09-28,101.4,01,,,,,,,충청북도 청주시청,043-201-7397,2025-10-31
월드오일,03,충청북도 청주시 흥덕구 직지대로 594,충청북도 청주시 흥덕구 봉명동 169-4,36.64287035,127.458765,2008-01-02,371.6,01,,,,,,,충청북도 청주시청,043-201-7397,2025-10-31
월드카센타,03,충청북도 청주시 흥덕구 월명로252번길 64,충청북도 청주시 흥덕구 봉명동 2346,36.656921,127.457764,2011-10-26,142.96,01,,,,,,,충청북도 청주시청,043-201-7397,2025-10-31
유로 모터스,03,충청북도 청주시 상당구 남일면 단재로 509,충청북도 청주시 상당구 남일면 효촌리 38-10,36.585765,127.509243,2003-03-20,352,01,,,,,,,충청북도 청주시청,043-201-5393,2025-10-31
유명한 카클리닉,03,충청북도 청주시 서원구 구룡산로51번마길 8,충청북도 청주시 서원구 성화동 872,36.615422,127.453052,2011-03-31,231,01,,,,,,,충청북도 청주시청,043-201-6392,2025-10-31
오토오아시스 청주21세기점,03,충청북도 청주시 서원구 청남로 1937,충청북도 청주시 서원구 미평동 6,36.606315,127.4804198,2009-04-14,205,01,,,,,,,충청북도 청주시청,043-201-6392,2025-10-31
오토오아시스 청주영운점,03,충청북도 청주시 상당구 산성로 24,충청북도 청주시 상당구 금천동 185-8,36.626296,127.4994098,2019-07-25,719,01,,,,,,,충청북도 청주시청,043-201-5393,2025-10-31
오토오아시스 홈플러스 청주성안점,03,충청북도 청주시 상당구 사직대로 346,충청북도 청주시 상당구 서문동 157-14,36.636018,127.485796,2008-01-17,6509.9,01,,,,,,,충청북도 청주시청,043-201-5393,2025-10-31
오토오아시스바이오2점,03,충청북도 청주시 청원구 오창읍 양청송대길 4,충청북도 청주시 청원구 오창읍 양청리 810-4,36.7131314,127.437851,2009-04-13,158,01,,,,,,,충청북도 청주시청,043-201-8392,2025-10-31
오토티엠,03,충청북도 청주시 청원구 새터로176번길 125,충청북도 청주시 청원구 사천동 194,36.668375,127.471856,2018-06-12,769,01,,,,,,,충청북도 청주시청,043-201-8392,2025-10-31
옥산점 현대자동차,03,충청북도 청주시 흥덕구 옥산면 오송가락로 895,충청북도 청주시 흥덕구 옥산면 가락리 641-4,36.666459,127.380174,2003-08-07,113.4,01,,,,,,,충청북도 청주시청,043-201-7397,2025-10-31
옥산중기공업사,03,충청북도 청주시 흥덕구 옥산면 오송가락로 730,충청북도 청주시 흥덕구 옥산면 오산리 593-18,36.65749103,127.368696,2023-04-25,1247,01,,,,,,,충청북도 청주시청,043-201-7397,2025-10-31
옥산타이어,03,충청북도 청주시 흥덕구 옥산면 경부고속도로 309-1,충청북도 청주시 흥덕구 옥산면 오산리 555-3,36.65533018,127.3714914,2013-01-30,117,01,,,,,,,충청북도 청주시청,043-201-7397,2025-10-31
용암동부점 현대자동차,03,충청북도 청주시 상당구 용암북로168번길 11-2,충청북도 청주시 상당구 용암동 2807,36.622695,127.515935,2006-01-05,214,01,,,,,,,충청북도 청주시청,043-201-5393,2025-10-31
용정카센타,03,충청북도 청주시 상당구 1순환로1594번길 56-2,충청북도 청주시 상당구 용정동 460-11,36.633436,127.5198695,1999-05-27,178,01,,,,,,,충청북도 청주시청,043-201-5393,2025-10-31
용카부분정비공업사,03,충청북도 청주시 상당구 쇠내로 152,충청북도 청주시 상당구 영운동 54-2,36.620607,127.508101,2006-05-29,110,01,,,,,,,충청북도 청주시청,043-201-5393,2025-10-31
우리바른정비공업사,03,충청북도 청주시 흥덕구 덕암로29번길 24,충청북도 청주시 흥덕구 봉명동 2454,36.653996,127.457704,2010-06-15,1128,01,,,,,,,충청북도 청주시청,043-201-7397,2025-10-31
우리카서비스,03,충청북도 청주시 청원구 무심동로660번길 24,충청북도 청주시 청원구 내덕동 770-4,36.658391,127.475884,2011-05-31,97.53,01,,,,,,,충청북도 청주시청,043-201-8392,2025-10-31
우정카부분정비공업사,03,충청북도 청주시 서원구 모충로 70,충청북도 청주시 서원구 모충동 498-1,36.626638,127.471218,1999-11-22,74.6,01,,,,,,,충청북도 청주시청,043-201-6392,2025-10-31
우정카부분정비공업사,03,충청북도 청주시 서원구 직지대로 722,충청북도 청주시 서원구 사직동 534-21,36.6425596,127.473219,1998-11-28,76.58,01,,,,,,,충청북도 청주시청,043-201-6392,2025-10-31
우주자동차부분정비공업사,03,충청북도 청주시 상당구 단재로 259,충청북도 청주시 상당구 용암동 1059,36.606935,127.500882,1999-06-18,80,01,,,,,,,충청북도 청주시청,043-201-5393,2025-10-31
오아시스 카 서비스,03,충청북도 청주시 흥덕구 가로수로1154번길 78,충청북도 청주시 흥덕구 강서동 52-8,36.623325,127.425477,2012-06-01,171,01,,,,,,,충청북도 청주시청,043-201-7397,2025-10-31
오아시스카,03,충청북도 청주시 서원구 서부로 1355,충청북도 청주시 서원구 개신동 689,36.618299,127.448318,2010-03-11,1895,01,,,,,,,충청북도 청주시청,043-201-6392,2025-10-31
오일카프라자,03,충청북도 청주시 흥덕구 월명로236번길 74,충청북도 청주시 흥덕구 봉명동 2431,36.655627,127.458328,2016-03-11,386.8,01,,,,,,,충청북도 청주시청,043-201-7397,2025-10-31
오창바로,03,충청북도 청주시 청원구 오창읍 양청송대길 9-15,충청북도 청주시 청원구 오창읍 양청리 808-3,36.7143691,127.4389619,2023-07-13,182.6,01,,,,,,,충청북도 청주시청,043-201-8392,2025-10-31
오창북부점 기아오토큐,03,충청북도 청주시 청원구 오창읍 오창시내1길 5-14,충청북도 청주시 청원구 오창읍 창리 5-4,36.739214,127.457025,2022-03-15,1323,01,,,,,,,충청북도 청주시청,043-201-8392,2025-10-31
오창점 기아오토큐,03,충청북도 청주시 청원구 오창읍 과학산업3로 68-6,충청북도 청주시 청원구 오창읍 각리 658-2,36.697397,127.419943,2007-09-20,1009,01,,,,,,,충청북도 청주시청,043-201-8392,2025-10-31
오창점현대자동차,03,충청북도 청주시 청원구 오창읍 양청송대길 9-4,충청북도 청주시 청원구 오창읍 양청리 809-8,36.71334993,127.438842,2009-04-13,184,01,,,,,,,충청북도 청주시청,043-201-8392,2025-10-31
오창현대카,03,충청북도 청주시 청원구 오창읍 중심상업2로 67,충청북도 청주시 청원구 오창읍 양청리 800-5,36.716109,127.431357,2006-02-13,552.6,01,,,,,,,충청북도 청주시청,043-201-8392,2025-10-31
오토라인,03,충청북도 청주시 청원구 오창읍 주성2길 13-5,충청북도 청주시 청원구 오창읍 주성리 520,36.736906,127.455306,2022-05-28,1839,01,,,,,,,충청북도 청주시청,043-201-8392,2025-10-31
오토맥스(AutoMax),03,충청북도 청주시 청원구 2순환로 50,충청북도 청주시 청원구 율량동 297-14,36.665635,127.508618,2020-09-28,122.5,01,,,,,,,충청북도 청주시청,043-201-8392,2025-10-31
오토빌리지,03,충청북도 청주시 청원구 중앙로 107(우암동),충청북도 청주시 청원구 우암동 326-10,36.646721,127.487823,2006-09-13,359,01,,,,,,,충청북도 청주시청,043-201-8392,2025-10-31
오토오아시스 롯데마트 상당점,03,충청북도 청주시 상당구 용암북로160번길 60,충청북도 청주시 상당구 용암동 2634,36.620415,127.516132,2008-01-17,93.93,01,,,,,,,충청북도 청주시청,043-201-5393,2025-10-31
오토오아시스 바이오1점,03,충청북도 청주시 청원구 오창읍 과학산업3로 202-12,충청북도 청주시 청원구 오창읍 각리 644-1,36.706481,127.429199,2009-04-13,3968,01,,,,,,,충청북도 청주시청,043-201-8392,2025-10-31
오토오아시스 바이오2점,03,충청북도 청주시 청원구 오창읍 양청송대길 4,충청북도 청주시 청원구 오창읍 양청리 810-4,36.713131,127.437889,2009-04-13,153,01,,,,,,,충청북도 청주시청,043-201-8392,2025-10-31
오토오아시스 서청주점,03,충청북도 청주시 흥덕구 1순환로 572,충청북도 청주시 흥덕구 봉명동 189,36.642423,127.461317,2009-04-14,75.05,01,,,,,,,충청북도 청주시청,043-201-7397,2025-10-31
오토오아시스 성화점,03,충청북도 청주시 서원구 신성화로34번길 1-1,충청북도 청주시 서원구 성화동 602,36.618084,127.458654,2012-07-05,387.2,01,,,,,,,충청북도 청주시청,043-201-6392,2025-10-31
열린카서비스,03,충청북도 청주시 서원구 청남로2097번길 20,충청북도 청주시 서원구 수곡동 83-9,36.619678,127.485969,2007-03-15,276.1,01,,,,,,,충청북도 청주시청,043-201-6392,2025-10-31
영광모터스,03,충청북도 청주시 흥덕구 봉명로 179,충청북도 청주시 흥덕구 봉명동 946-1,36.640052,127.461568,2009-11-18,338,01,,,,,,,충청북도 청주시청,043-201-7397,2025-10-31
영모터스,03,충청북도 청주시 청원구 교서로 226,충청북도 청주시 청원구 내덕동 700-6,36.655109,127.4769303,2018-11-12,411.4,01,,,,,,,충청북도 청주시청,043-201-8392,2025-10-31
영빈자동차부분정비공업사,03,충청북도 청주시 흥덕구 오송읍 가로수로 213,충청북도 청주시 흥덕구 오송읍 오송리 125-10,36.611662,127.328055,1998-09-28,113.4,01,,,,,,,충청북도 청주시청,043-201-7397,2025-10-31
영선카모터스,03,충청북도 청주시 흥덕구 직지대로 37,충청북도 청주시 흥덕구 지동동 778,36.645911,127.397385,2017-06-21,443,01,,,,,,,충청북도 청주시청,043-201-7397,2025-10-31
영오토텍,03,충청북도 청주시 흥덕구 봉명로 170,충청북도 청주시 흥덕구 봉명동 1057-1,36.639613,127.4604903,2006-01-05,143.2,01,,,,,,,충청북도 청주시청,043-201-7397,2025-10-31
영운점 기아 오토규,03,충청북도 청주시 상당구 영운천로 85,충청북도 청주시 상당구 영운동 59-13,36.619612,127.507395,2006-12-07,407,01,,,,,,,충청북도 청주시청,043-201-5393,2025-10-31
영운점현대자동차부분공업사,03,충청북도 청주시 상당구 단재로 157,충청북도 청주시 상당구 영운동 200-1,36.615653,127.500113,2005-12-02,195,01,,,,,,,충청북도 청주시청,043-201-5393,2025-10-31
영운카부분정비공업사,03,충청북도 청주시 서원구 가장로 363,충청북도 청주시 서원구 장암동 239-6,36.590869,127.487874,2011-12-13,733,01,,,,,,,충청북도 청주시청,043-201-6392,2025-10-31
현대카서비스,03,충청북도 청주시 청원구 공항로52번길 6,충청북도 청주시 청원구 내덕동 387-1,36.661836,127.487585,1997-10-23,144,01,,,,,,,충청북도 청주시청,043-201-8392,2025-10-31
영태카클럽,03,충청북도 청주시 흥덕구 복대로 193,충청북도 청주시 흥덕구 복대동 31-3,36.6338004,127.440497,2004-04-06,164.4,01,,,,,,,충청북도 청주시청,043-201-7397,2025-10-31
영호자동차정비,03,충청북도 청주시 흥덕구 대신로 40,충청북도 청주시 흥덕구 복대동 350-15,36.636447,127.4361804,2010-10-13,161,01,,,,,,,충청북도 청주시청,043-201-7397,2025-10-31
영화오토자동차부분정비공업사,03,충청북도 청주시 청원구 무심동로 598-1,충청북도 청주시 청원구 우암동 930-3,36.652915,127.477948,1998-10-23,98,01,,,,,,,충청북도 청주시청,043-201-8392,2025-10-31
오빠모터스,03,충청북도 청주시 흥덕구 진재로36번길 3-2,충청북도 청주시 흥덕구 복대동 2950,36.634615,127.4299798,2009-05-29,979.2,01,,,,,,,충청북도 청주시청,043-201-7397,2025-10-31
오송점 현대자동차,03,충청북도 청주시 흥덕구 오송읍 만수1길 4-2,충청북도 청주시 흥덕구 오송읍 만수리 841,36.622835,127.327476,2013-05-29,441.64,01,,,,,,,충청북도 청주시청,043-201-7397,2025-10-31
오송카랜드,03,충청북도 청주시 흥덕구 오송읍 미호천길 1010,충청북도 청주시 흥덕구 오송읍 쌍청리 497-16,36.635376,127.343095,2014-06-20,660,01,,,,,,,충청북도 청주시청,043-201-7397,2025-10-31
애니카랜드 복대점,03,충청북도 청주시 흥덕구 내수동로 29,충청북도 청주시 흥덕구 복대동 854-8,36.633065,127.450784,2010-02-19,162,01,,,,,,,충청북도 청주시청,043-201-7397,2025-10-31
애니카랜드 봉명점,03,충청북도 청주시 흥덕구 직지대로 650,충청북도 청주시 흥덕구 봉명동 764,36.642628,127.465216,2009-03-06,189,01,,,,,,,충청북도 청주시청,043-201-7397,2025-10-31
애니카랜드 영운점,03,충청북도 청주시 상당구 단재로 136,충청북도 청주시 상당구 영운동 173-8,36.617138,127.498386,2019-08-16,436,01,,,,,,,충청북도 청주시청,043-201-5393,2025-10-31
애니카랜드 오창점,03,충청북도 청주시 청원구 오창읍 두릉유리로 1073,충청북도 청주시 청원구 오창읍 장대리 403-7,36.740682,127.448123,2004-05-03,351,01,,,,,,,충청북도 청주시청,043-201-8392,2025-10-31
애니카랜드 율량점,03,충청북도 청주시 청원구 1순환로 108,충청북도 청주시 청원구 율량동 2228,36.664123,127.500688,1998-05-21,361.3,01,,,,,,,충청북도 청주시청,043-201-8392,2025-10-31
양심카부분정비공업사,03,충청북도 청주시 서원구 청남로2005번길 22-8,충청북도 청주시 서원구 분평동 244-1,36.611344,127.483664,2000-04-22,79.2,01,,,,,,,충청북도 청주시청,043-201-6392,2025-10-31
양지카부분정비공업사,03,충청북도 청주시 청원구 율천북로 187,충청북도 청주시 청원구 율량동 1011-4,36.665191,127.491169,2005-05-25,105,01,,,,,,,충청북도 청주시청,043-201-8392,2025-10-31
에덴모터스,03,충청북도 청주시 상당구 수영로217번길 2,충청북도 청주시 상당구 금천동 100-32,36.624245,127.5035997,2011-08-23,83.12,01,,,,,,,충청북도 청주시청,043-201-5393,2025-10-31
에스알오토(SRAUTO),03,충청북도 청주시 청원구 내수읍 묵방국동로 24,충청북도 청주시 청원구 내수읍 묵방리 370-3,36.695005,127.523348,2023-09-05,2090,01,,,,,,,충청북도 청주시청,043-201-8392,2025-10-31
에스피코리아(주)부분정비공업사,03,충청북도 청주시 청원구 교서로 224,충청북도 청주시 청원구 내덕동 700-5,36.654971,127.477020,2004-10-15,646,01,,,,,,,충청북도 청주시청,043-201-8392,2025-10-31
에어스핀(AIR SPIN),03,충청북도 청주시 청원구 우암로 44,충청북도 청주시 청원구 우암동 362-20,36.652923,127.484539,2015-10-12,166.4,01,,,,,,,충청북도 청주시청,043-201-8392,2025-10-31
에이플러스모터스,03,충청북도 청주시 상당구 사북로 136-1,충청북도 청주시 상당구 영동 4-2,36.644731,127.485987,2014-06-02,392.8,01,,,,,,,충청북도 청주시청,043-201-5393,2025-10-31
엠시티자동차서비스,03,충청북도 청주시 상당구 1순환로1594번길 56-2,충청북도 청주시 상당구 용정동 460-11,36.633436,127.5198695,2015-10-05,163.62,01,,,,,,,충청북도 청주시청,043-201-5393,2025-10-31
연안카센타,03,충청북도 청주시 서원구 수영로65번길 35,충청북도 청주시 서원구 수곡동 21-1,36.617291,127.492473,2020-05-19,191.7,01,,,,,,,충청북도 청주시청,043-201-6392,2025-10-31
연일종합카센타,03,충청북도 청주시 상당구 남일면 고은길 25-36,충청북도 청주시 상당구 남일면 고은리 531-2,36.574193,127.511867,2006-10-26,109.25,01,,,,,,,충청북도 청주시청,043-201-5393,2025-10-31
스피드메이트 청주복대점,03,충청북도 청주시 흥덕구 사직대로 37-1,충청북도 청주시 흥덕구 복대동 834-12,36.634718,127.451649,2018-01-08,449,01,,,,,,,충청북도 청주시청,043-201-7397,2025-10-31
스피드메이트 청주점,03,충청북도 청주시 청원구 2순환로160번길 3,충청북도 청주시 청원구 주성동 122-2,36.673408,127.501317,2015-03-12,1122,01,,,,,,,충청북도 청주시청,043-201-8392,2025-10-31
승부오일,03,충청북도 청주시 흥덕구 1순환로594번길 16-1,충청북도 청주시 흥덕구 봉명동 197-1,36.641001,127.459924,1999-11-16,165.3,01,,,,,,,충청북도 청주시청,043-201-7397,2025-10-31
시스템 게러지,03,충청북도 청주시 서원구 남이면 양촌3길 7-8,충청북도 청주시 서원구 남이면 양촌리 29,36.592364,127.471231,2018-04-06,181.5,01,,,,,,,충청북도 청주시청,043-201-6392,2025-10-31
신광카부분정비공업사,03,충청북도 청주시 서원구 청남로 2155 (모충동),충청북도 청주시 서원구 모충동 118-9,36.624577,127.4883591,1999-12-30,78.6,01,,,,,,,충청북도 청주시청,043-201-6392,2025-10-31
신성모터스,03,충청북도 청주시 흥덕구 2순환로 944,충청북도 청주시 흥덕구 향정동 103,36.650903,127.422936,2019-12-06,114,01,,,,,,,충청북도 청주시청,043-201-7397,2025-10-31
신화종합정비,03,충청북도 청주시 청원구 토성로 80,충청북도 청주시 청원구 정하동 95-1,36.674076,127.463989,2008-01-03,397,01,,,,,,,충청북도 청주시청,043-201-8392,2025-10-31
신흥자동차부분정비공업사,03,충청북도 청주시 청원구 오창읍 오창시내2길 8-5,충청북도 청주시 청원구 오창읍 장대리 59-1,36.742007,127.458772,2000-08-03,121.5,01,,,,,,,충청북도 청주시청,043-201-8392,2025-10-31
신흥자동차정비공업사,03,충청북도 청주시 상당구 용암북로6번길 7,충청북도 청주시 상당구 용암동 667-2,36.614935,127.501791,2006-05-04,127.2,01,,,,,,,충청북도 청주시청,043-201-5393,2025-10-31
쌍용자동차오창서비스프라자,03,충청북도 청주시 청원구 오창읍 양청송대길 127,충청북도 청주시 청원구 오창읍 송대리 317-2,36.721669,127.445558,2008-07-01,600.6,01,,,,,,,충청북도 청주시청,043-201-8392,2025-10-31
쌍용카부분정비공업사,03,충청북도 청주시 청원구 율천북로 187,충청북도 청주시 청원구 율량동 1011-4,36.665191,127.491169,2013-09-27,330.6,01,,,,,,,충청북도 청주시청,043-201-8392,2025-10-31
아우토모빌,03,충청북도 청주시 청원구 오창읍 각리가곡로 461,충청북도 청주시 청원구 오창읍 탑리 228-4,36.706424,127.449831,2021-02-02,1398,01,,,,,,,충청북도 청주시청,043-201-8392,2025-10-31
아이스컴퍼니,03,충청북도 청주시 흥덕구 강서로 17,충청북도 청주시 흥덕구 강서동 171-2,36.618345,127.422417,2016-10-07,1007,01,,,,,,,충청북도 청주시청,043-201-7397,2025-10-31
안치용 카프로,03,충청북도 청주시 상당구 용암북로 22-1,충청북도 청주시 상당구 용암동 1130,36.615929,127.502367,2008-03-18,184.53,01,,,,,,,충청북도 청주시청,043-201-5393,2025-10-31
애니카랜드 금천점,03,충청북도 청주시 상당구 탑동로 71,충청북도 청주시 상당구 탑동 47-2,36.631388,127.5010799,2001-10-10,500.6,01,,,,,,,충청북도 청주시청,043-201-5393,2025-10-31
성화카부분정비공업사,03,충청북도 청주시 서원구 성봉로192번길 34-16,충청북도 청주시 서원구 개신동 281-7,36.623892,127.451878,2004-07-23,79.84,01,,,,,,,충청북도 청주시청,043-201-6392,2025-10-31
세계자동차부분정비공업사,03,충청북도 청주시 흥덕구 직지대로 23,충청북도 청주시 흥덕구 서촌동 532,36.645986,127.396016,2005-04-26,105.14,01,,,,,,,충청북도 청주시청,043-201-7397,2025-10-31
세종모터스,03,충청북도 청주시 서원구 호국로 166,충청북도 청주시 서원구 사직동 239-8,36.642715,127.475722,2009-07-15,83.94,01,,,,,,,충청북도 청주시청,043-201-6392,2025-10-31
수름재점 현대자동차,03,충청북도 청주시 청원구 공항로 238-2,충청북도 청주시 청원구 주중동 575-12,36.678289,127.484632,2003-11-01,1875,01,,,,,,,충청북도 청주시청,043-201-8392,2025-10-31
수정카공업사,03,충청북도 청주시 서원구 수영로 53,충청북도 청주시 서원구 수곡동 24-17,36.615758,127.491965,2011-06-29,495,01,,,,,,,충청북도 청주시청,043-201-6392,2025-10-31
스마트 카 서비스,03,충청북도 청주시 흥덕구 경산로44번길 8,충청북도 청주시 흥덕구 가경동 174-6,36.624145,127.437011,2006-06-29,108,01,,,,,,,충청북도 청주시청,043-201-7397,2025-10-31
스마트 카 클리닉,03,충청북도 청주시 흥덕구 직지대로 572,충청북도 청주시 흥덕구 봉명동 168-21,36.642945,127.4563998,2000-05-06,229.5,01,,,,,,,충청북도 청주시청,043-201-7397,2025-10-31
스피드메이트 갑진점,03,충청북도 청주시 서원구 청남로2005번길 2,충청북도 청주시 서원구 분평동 246-3,36.611684,127.484476,2022-01-12,2048,01,,,,,,,충청북도 청주시청,043-201-6392,2025-10-31
스피드메이트 강서점,03,충청북도 청주시 흥덕구 가로수로1164번길 26-1,충청북도 청주시 흥덕구 강서동 17-16,36.625809,127.426608,2005-08-11,147.3,01,,,,,,,충청북도 청주시청,043-201-7397,2025-10-31
스피드메이트 서원경점,03,충청북도 청주시 흥덕구 직지대로 579,충청북도 청주시 흥덕구 봉명동 1614,36.643685,127.457242,2010-01-26,112.5,01,,,,,,,충청북도 청주시청,043-201-7397,2025-10-31
스피드메이트 오창IC점,03,충청북도 청주시 청원구 오창읍 오창대로 415,충청북도 청주시 청원구 오창읍 각리 84-4,36.706843,127.437431,2010-01-22,1411,01,,,,,,,충청북도 청주시청,043-201-8392,2025-10-31
스피드메이트 용암점,03,충청북도 청주시 상당구 중고개로 295,충청북도 청주시 상당구 금천동 220-14,36.628585,127.507503,2005-07-28,127.29,01,,,,,,,충청북도 청주시청,043-201-5393,2025-10-31
스피드메이트 율량점,03,충청북도 청주시 청원구 율천북로 161,충청북도 청주시 청원구 율량동 957-1,36.6659176,127.488266,2000-09-22,82,01,,,,,,,충청북도 청주시청,043-201-8392,2025-10-31
상상카라이프,03,충청북도 청주시 청원구 북이면 팔결신대로 521,충청북도 청주시 청원구 북이면 대율리 160-12,36.735635,127.521327,2008-07-01,835,01,,,,,,,충청북도 청주시청,043-201-8392,2025-10-31
서광자동차정비,03,충청북도 청주시 흥덕구 경산로 58-10,충청북도 청주시 흥덕구 가경동 166-7,36.624489,127.438466,2002-04-23,105,01,,,,,,,충청북도 청주시청,043-201-7397,2025-10-31
서부자동차정비,03,충청북도 청주시 청원구 오창읍 양청농소길 80,충청북도 청주시 청원구 오창읍 각리 60-26,36.708572,127.439311,2012-06-13,800,01,,,,,,,충청북도 청주시청,043-201-8392,2025-10-31
서울카클리닉,03,충청북도 청주시 상당구 수영로 194,충청북도 청주시 상당구 금천동 139,36.621925,127.503168,2007-07-24,124,01,,,,,,,충청북도 청주시청,043-201-5393,2025-10-31
서원경자동차부분정비공업사,03,충청북도 청주시 흥덕구 천석로 68,충청북도 청주시 흥덕구 봉명동 839,36.641532,127.465637,2005-09-14,98,01,,,,,,,충청북도 청주시청,043-201-7397,2025-10-31
서원카,03,충청북도 청주시 흥덕구 2순환로 1134,충청북도 청주시 흥덕구 비하동 236-40,36.633728,127.424285,2004-02-27,113,01,,,,,,,충청북도 청주시청,043-201-7397,2025-10-31
서율 모터스,03,충청북도 청주시 흥덕구 장구봉로 27-1,충청북도 청주시 흥덕구 가경동 1487-12,36.621657,127.4371997,2002-01-31,209,01,,,,,,,충청북도 청주시청,043-201-7397,2025-10-31
선진카센타,03,충청북도 청주시 서원구 남이면 청남로 1083,충청북도 청주시 서원구 남이면 외천리 452-2,36.549083,127.430392,2001-04-11,330,01,,,,,,,충청북도 청주시청,043-201-6392,2025-10-31
성광카부분정비,03,충청북도 청주시 청원구 무심동로 560-1,충청북도 청주시 청원구 우암동 818-10,36.650122,127.480346,2008-03-05,196,01,,,,,,,충청북도 청주시청,043-201-8392,2025-10-31
성대카,03,충청북도 청주시 청원구 교서로 246,충청북도 청주시 청원구 내덕동 693-5,36.656597,127.475971,2003-12-29,319,01,,,,,,,충청북도 청주시청,043-201-8392,2025-10-31
성신카부분정비공업사,03,충청북도 청주시 서원구 모충로 45,충청북도 청주시 서원구 개신동 438-92,36.625897,127.468759,2002-12-24,223,01,,,,,,,충청북도 청주시청,043-201-6392,2025-10-31
성실카부분정비공업사,03,충청북도 청주시 흥덕구 내수동로 27,충청북도 청주시 흥덕구 복대동 852-14,36.633098,127.450494,1999-10-26,98.4,01,,,,,,,충청북도 청주시청,043-201-7397,2025-10-31
성심카부분정비공업사,03,충청북도 청주시 청원구 1순환로 272,충청북도 청주시 청원구 내덕동 584-3,36.662191,127.482968,2000-04-12,130.61,01,,,,,,,충청북도 청주시청,043-201-8392,2025-10-31
성용카센타,03,충청북도 청주시 서원구 사북로 83,충청북도 청주시 서원구 사직동 142-15,36.644208,127.480267,2011-04-25,441.3,01,,,,,,,충청북도 청주시청,043-201-6392,2025-10-31
성원3급자동차부분정비공업사,03,충청북도 청주시 상당구 단재로 122-8,충청북도 청주시 상당구 영운동 170-18,36.618328,127.497198,1999-02-12,114,01,,,,,,,충청북도 청주시청,043-201-5393,2025-10-31
성원카공업사,03,충청북도 청주시 흥덕구 동촌로 6,충청북도 청주시 흥덕구 지동동 317-1,36.647278,127.410481,2007-01-25,697,01,,,,,,,충청북도 청주시청,043-201-7397,2025-10-31
분평카부분정비공업사,03,충청북도 청주시 서원구 1순환로 1130-2,충청북도 청주시 서원구 분평동 85-1,36.605899,127.491757,1999-12-24,149.6,01,,,,,,,충청북도 청주시청,043-201-6392,2025-10-31
붕붕자동차,03,충청북도 청주시 상당구 용암북로94번길 8,충청북도 청주시 상당구 용암동 2443,36.619207,127.509013,2002-10-11,92,01,,,,,,,충청북도 청주시청,043-201-5393,2025-10-31
빙고카랜드,03,충청북도 청주시 청원구 새터로 242,충청북도 청주시 청원구 사천동 541-1,36.668132,127.469141,2014-04-18,463,01,,,,,,,충청북도 청주시청,043-201-8392,2025-10-31
사람들과 자동차,03,충청북도 청주시 상당구 수영로 246번길 33,충청북도 청주시 상당구 금천동 90,36.626413,127.506605,2015-12-08,544,01,,,,,,,충청북도 청주시청,043-201-5393,2025-10-31
사직점 현대자동차,03,충청북도 청주시 서원구 사운로 115,충청북도 청주시 서원구 사직동 255-4,36.639392,127.478711,1998-03-20,479,01,,,,,,,충청북도 청주시청,043-201-6392,2025-10-31
삼보오토샵,03,충청북도 청주시 서원구 용호로 30,충청북도 청주시 서원구 성화동 152,36.61168034,127.447409,2002-05-27,142.2,01,,,,,,,충청북도 청주시청,043-201-6392,2025-10-31
매닉모스포츠,03,충청북도 청주시 흥덕구 진재로 85-11,충청북도 청주시 흥덕구 복대동 497-3,36.638476,127.429424,2013-01-22,101.49,01,,,,,,,충청북도 청주시청,043-201-7397,2025-10-31
멋쟁이자동차부분정비공업사,03,충청북도 청주시 서원구 두꺼비로28번길 2,충청북도 청주시 서원구 산남동 917,36.609018,127.467689,2008-01-30,237,01,,,,,,,충청북도 청주시청,043-201-6392,2025-10-31
명가카,03,충청북도 청주시 서원구 성화로 73,충청북도 청주시 서원구 죽림동 357,36.611772,127.445751,2018-06-29,288,01,,,,,,,충청북도 청주시청,043-201-6392,2025-10-31
명성카써비스,03,충청북도 청주시 서원구 무심서로 453,충청북도 청주시 서원구 사직동 710-21,36.63198008,127.480559,2004-03-13,84,01,,,,,,,충청북도 청주시청,043-201-6392,2025-10-31
모든카부분정비공업사,03,충청북도 청주시 서원구 구룡산로 263,충청북도 청주시 서원구 수곡동 887,36.617443,127.473728,1999-05-17,95.76,01,,,,,,,충청북도 청주시청,043-201-6392,2025-10-31
모충형제카,03,충청북도 청주시 서원구 모충로104번길 65,충청북도 청주시 서원구 모충동 410-15,36.628322,127.477927,2013-04-08,266,01,,,,,,,충청북도 청주시청,043-201-6392,2025-10-31
모터프라자,03,충청북도 청주시 흥덕구 1순환로 430,충청북도 청주시 흥덕구 신봉동 58-1,36.652527,127.470299,2005-02-05,97.74,01,,,,,,,충청북도 청주시청,043-201-7397,2025-10-31
미래자동차부분정비공업사,03,충청북도 청주시 흥덕구 복대로229번길 10-2,충청북도 청주시 흥덕구 복대동 234-3,36.637056,127.440319,1998-10-19,102.9,01,,,,,,,충청북도 청주시청,043-201-7397,2025-10-31
민호3급부분정비,03,충청북도 청주시 서원구 창직로 114,충청북도 청주시 서원구 사직동 631-186,36.629951,127.474166,2005-07-01,70.02,01,,,,,,,충청북도 청주시청,043-201-6392,2025-10-31
믿음카프라자,03,충청북도 청주시 청원구 공항로44번길 3,충청북도 청주시 청원구 내덕동 380-5,36.661221,127.487574,2008-03-18,105,01,,,,,,,충청북도 청주시청,043-201-8392,2025-10-31
밀레니엄카센타,03,충청북도 청주시 흥덕구 직지대로 588,충청북도 청주시 흥덕구 봉명동 169-2,36.642901,127.458263,2000-09-25,138.3,01,,,,,,,충청북도 청주시청,043-201-7397,2025-10-31
바로카 정비,03,충청북도 청주시 청원구 율천북로 137,충청북도 청주시 청원구 율량동 1789-2,36.664876,127.485854,2008-08-08,97.2,01,,,,,,,충청북도 청주시청,043-201-8392,2025-10-31
바르다 모터스,03,충청북도 청주시 상당구 단재로 93,충청북도 청주시 상당구 영운동 139-1,36.62097501,127.4964761,2024-06-17,221.86,01,,,,,,,충청북도 청주시청,043-201-5393,2025-10-31
드래곤타이어 청주점,03,충청북도 청주시 서원구 1순환로 1172,충청북도 청주시 서원구 분평동 493,36.60575616,127.4969097,2023-09-18,113.45,01,,,,,,,충청북도 청주시청,043-201-6392,2025-10-31
드림모터스,03,충청북도 청주시 청원구 교서로162번길 19,충청북도 청주시 청원구 우암동 386-31,36.6507085,127.4816476,2017-04-12,289.6,01,,,,,,,충청북도 청주시청,043-201-8392,2025-10-31
드림카센타,03,충청북도 청주시 상당구 중고개로273번길 9,충청북도 청주시 상당구 금천동 52,36.626892,127.508494,2014-10-14,212,01,,,,,,,충청북도 청주시청,043-201-5393,2025-10-31
또또카부분정비공업사,03,충청북도 청주시 흥덕구 복대로163번길 30,충청북도 청주시 흥덕구 복대동 51-16,36.631263,127.439083,2003-09-19,198.8,01,,,,,,,충청북도 청주시청,043-201-7397,2025-10-31
라인 모터스,03,충청북도 청주시 서원구 성화로62번길 4,충청북도 청주시 서원구 성화동 184-1,36.610874,127.446788,2021-11-11,709,01,,,,,,,충청북도 청주시청,043-201-6392,2025-10-31
레고 카 서비스,03,충청북도 청주시 흥덕구 서부로1101번길 37,충청북도 청주시 흥덕구 강서동 248-5,36.61120091,127.4231155,2023-04-25,842,01,,,,,,,충청북도 청주시청,043-201-7397,2025-10-31
레어템(Rare-Tem),03,충청북도 청주시 청원구 충청대로71번길 4,충청북도 청주시 청원구 내덕동 426-10,36.66332774,127.4923014,2017-08-17,320,01,,,,,,,충청북도 청주시청,043-201-8392,2025-10-31
레이스카자동차부분정비공업사,03,충청북도 청주시 청원구 내수읍 충청대로 832-5,충청북도 청주시 청원구 내수읍 마산리 54-5,36.716045,127.5395996,2005-03-30,600,01,,,,,,,충청북도 청주시청,043-201-8392,2025-10-31
로얄카,03,충청북도 청주시 상당구 영운천로 7,충청북도 청주시 상당구 영운동 209-23,36.615432,127.500792,2014-04-10,257,01,,,,,,,충청북도 청주시청,043-201-5393,2025-10-31
르노코리아자동차 서비스코너 분평점(주),03,충청북도 청주시 서원구 1순환로 1098,충청북도 청주시 서원구 분평동 160-7,36.606003,127.488726,2017-04-21,231.75,01,,,,,,,충청북도 청주시청,043-201-6392,2025-10-31
르노코리아 서비스코너 서운점,03,충청북도 청주시 상당구 대성로 45,충청북도 청주시 상당구 서운동 28-20,36.629317,127.492863,2006-10-19,535.6,01,,,,,,,충청북도 청주시청,043-201-5393,2025-10-31
르노코리아자동차서비스코너 율량점,03,충청북도 청주시 청원구 공항로 132,충청북도 청주시 청원구 율량동 894-5,36.668809,127.485272,2011-01-19,146.4,01,,,,,,,충청북도 청주시청,043-201-8392,2025-10-31
리더스카부분정비공업사,03,충청북도 청주시 상당구 영운천로127번길 7,충청북도 청주시 상당구 용정동 345-1,36.621184,127.511186,2004-04-17,221,01,,,,,,,충청북도 청주시청,043-201-5393,2025-10-31
마스터카모터스,03,충청북도 청주시 흥덕구 1순환로 505,충청북도 청주시 흥덕구 봉명동 460-1,36.647212,127.465821,2000-03-03,154.4,01,,,,,,,충청북도 청주시청,043-201-7397,2025-10-31
마이카삽,03,충청북도 청주시 서원구 수영로 55,충청북도 청주시 서원구 수곡동 24-18,36.61591034,127.4922082,2023-01-03,424.4,01,,,,,,,충청북도 청주시청,043-201-6392,2025-10-31
만도모터스,03,충청북도 청주시 흥덕구 오송읍 정중상봉길 312,충청북도 청주시 흥덕구 오송읍 상봉리 238-3,36.63762866,127.2873244,2022-12-01,840,01,,,,,,,충청북도 청주시청,043-201-7397,2025-10-31
덱스크루 청주점,03,충청북도 청주시 서원구 청남로 2040-1,충청북도 청주시 서원구 수곡동 76-11,36.614265,127.486165,2018-05-21,78.78,01,,,,,,,충청북도 청주시청,043-201-6392,2025-10-31
도순카서비스,03,충청북도 청주시 흥덕구 오송읍 가로수로 15,충청북도 청주시 흥덕구 오송읍 봉산리 604-20,36.604575,127.3080304,1998-02-24,450,01,,,,,,,충청북도 청주시청,043-201-7397,2025-10-31
동남점 현대자동차,03,충청북도 청주시 상당구 목련로 213-37,충청북도 청주시 상당구 운동동 214-7,36.607433,127.524285,2003-06-24,1460,01,,,,,,,충청북도 청주시청,043-201-5393,2025-10-31
동명카부분정비공업사,03,충청북도 청주시 흥덕구 1순환로512번길 46,충청북도 청주시 흥덕구 봉명동 91-5,36.647186,127.462435,2007-01-24,251,01,,,,,,,충청북도 청주시청,043-201-7397,2025-10-31
동문카 공업사,03,충청북도 청주시 상당구 가덕면 단재로 1615,충청북도 청주시 상당구 가덕면 금거리 171-1,36.583614,127.594336,2006-11-28,229.5,01,,,,,,,충청북도 청주시청,043-201-5393,2025-10-31
동방카부분정비공업사,03,충청북도 청주시 서원구 구룡산로405번길 108,충청북도 청주시 서원구 모충동 92-27,36.622923,127.490010,1999-11-20,76.32,01,,,,,,,충청북도 청주시청,043-201-6392,2025-10-31
동양S자동차정비공업사,03,충청북도 청주시 흥덕구 월명로35번길 102,충청북도 청주시 흥덕구 복대동 85,36.637737,127.447721,1998-08-31,113.6,01,,,,,,,충청북도 청주시청,043-201-7397,2025-10-31
동양카센타,03,충청북도 청주시 상당구 탑동로 61-1,충청북도 청주시 상당구 탑동 40-1,36.631047,127.500618,2014-06-11,810.5,01,,,,,,,충청북도 청주시청,043-201-5393,2025-10-31
동양카센터,03,충청북도 청주시 청원구 1순환로 241,충청북도 청주시 청원구 내덕동 553-5,36.663377,127.486022,2003-09-25,187,01,,,,,,,충청북도 청주시청,043-201-8392,2025-10-31
동양카전문정비공업사,03,충청북도 청주시 흥덕구 대신로38번길 1-1,충청북도 청주시 흥덕구 복대동 350-20,36.636312,127.436217,2002-12-13,185.88,01,,,,,,,충청북도 청주시청,043-201-7397,2025-10-31
동진자동차부분정비공업사,03,충청북도 청주시 청원구 우암로 67,충청북도 청주시 청원구 내덕동 297-11,36.654356,127.486267,1998-09-23,185,01,,,,,,,충청북도 청주시청,043-201-8392,2025-10-31
동화카센타,03,충청북도 청주시 청원구 1순환로 244,충청북도 청주시 청원구 내덕동 565-5,36.663689,127.4855299,1999-11-04,163.88,01,,,,,,,충청북도 청주시청,043-201-8392,2025-10-31
돼지카센터,03,충청북도 청주시 서원구 현도면 청남로 506-27,충청북도 청주시 서원구 현도면 우록리 513-1,36.500729,127.428003,2000-05-19,210,01,,,,,,,충청북도 청주시청,043-201-6392,2025-10-31
두진카부분정비공업사,03,충청북도 청주시 흥덕구 1순환로 394,충청북도 청주시 흥덕구 신봉동 35-5,36.655871,127.471689,2002-08-13,75.6,01,,,,,,,충청북도 청주시청,043-201-7397,2025-10-31
둥이카,03,충청북도 청주시 상당구 영운로 65,충청북도 청주시 상당구 영운동 152-51,36.621328,127.495210,2002-09-12,98,01,,,,,,,충청북도 청주시청,043-201-5393,2025-10-31
대성모터스,03,충청북도 청주시 청원구 내수읍 충청대로 832-8,충청북도 청주시 청원구 내수읍 도원리 118-5,36.715681,127.5396399,2020-10-30,856,01,,,,,,,충청북도 청주시청,043-201-8392,2025-10-31
대성밧데리부분정비공업사,03,충청북도 청주시 청원구 1순환로342번길 34,충청북도 청주시 청원구 내덕동 749-3,36.659772,127.475617,1999-02-12,104,01,,,,,,,충청북도 청주시청,043-201-8392,2025-10-31
대성자동차부분정비공업사,03,충청북도 청주시 청원구 교서로 202,충청북도 청주시 청원구 우암동 410-37,36.653164,127.478461,1991-01-15,170,01,,,,,,,충청북도 청주시청,043-201-8392,2025-10-31
대성캠핑카,03,충청북도 청주시 서원구 남이면 남이가좌1길 41-58,충청북도 청주시 서원구 남이면 가좌리 133,36.571673,127.465706,2021-06-03,2132,01,,,,,,,충청북도 청주시청,043-201-6392,2025-10-31
대신공업사,03,충청북도 청주시 청원구 토성로 422,충청북도 청주시 청원구 오동동 63-8,36.698074,127.476998,2013-12-13,918,01,,,,,,,충청북도 청주시청,043-201-8392,2025-10-31
대신카테크,03,충청북도 청주시 흥덕구 봉명로 149,충청북도 청주시 흥덕구 봉명동 207-3,36.639462,127.458058,2007-03-15,389.1,01,,,,,,,충청북도 청주시청,043-201-7397,2025-10-31
대영카,03,충청북도 청주시 흥덕구 신성로 115,충청북도 청주시 흥덕구 신성동 197-3,36.654653,127.412209,2003-12-22,76,01,,,,,,,충청북도 청주시청,043-201-7397,2025-10-31
대웅모터스,03,충청북도 청주시 상당구 산성로101번길 8-11,충청북도 청주시 상당구 용담동 166-1,36.632941,127.503549,2018-02-27,346,01,,,,,,,충청북도 청주시청,043-201-5393,2025-10-31
대원공업사,03,충청북도 청주시 흥덕구 강촌로 292,충청북도 청주시 흥덕구 지동동 783,36.645014,127.397027,2013-10-10,351,01,,,,,,,충청북도 청주시청,043-201-7397,2025-10-31
대원산업주식회사,03,충청북도 청주시 청원구 북이면 대율내추길 301,충청북도 청주시 청원구 북이면 장양리 2-5,36.755204,127.545479,2013-12-19,894,01,,,,,,,충청북도 청주시청,043-201-8392,2025-10-31
대인카프라자,03,충청북도 청주시 흥덕구 1순환로394번길 18,충청북도 청주시 흥덕구 신봉동 33-1,36.656355,127.471646,1999-06-14,367,01,,,,,,,충청북도 청주시청,043-201-7397,2025-10-31
대진카부분정비공업사,03,충청북도 청주시 상당구 영운천로 3,충청북도 청주시 상당구 영운동 215-18,36.615333,127.500639,1999-09-02,112,01,,,,,,,충청북도 청주시청,043-201-5393,2025-10-31
더 스토리,03,충청북도 청주시 상당구 다리실로 112-40(운동동),충청북도 청주시 상당구 월오동 362-2,36.610988,127.5336673,2023-07-03,1220,01,,,,,,,충청북도 청주시청,043-201-5393,2025-10-31
더존픽업,03,충청북도 청주시 청원구 내수읍 충청대로 539,충청북도 청주시 청원구 내수읍 묵방리 382-1,36.695568,127.521701,2018-12-11,1485,01,,,,,,,충청북도 청주시청,043-201-8392,2025-10-31
덕성자동차부분정비공업사,03,충청북도 청주시 청원구 공항로 100-1,충청북도 청주시 청원구 율량동 926-1,36.666419,127.486761,1999-11-06,131,01,,,,,,,충청북도 청주시청,043-201-8392,2025-10-31
넥센타이어 사창점,03,충청북도 청주시 서원구 사직대로 131,충청북도 청주시 서원구 사창동 231-9,36.635304,127.462033,2020-01-03,333.7,01,,,,,,,충청북도 청주시청,043-201-6392,2025-10-31
넥센타이어 산단점,03,충청북도 청주시 청원구 오창읍 중부로 1005,충청북도 청주시 청원구 오창읍 송대리 333,36.730748,127.450951,2013-05-29,168.99,01,,,,,,,충청북도 청주시청,043-201-8392,2025-10-31
누리카센타,03,충청북도 청주시 흥덕구 강내면 가로수로 647,충청북도 청주시 흥덕구 강내면 월곡리 183,36.62430769,127.3718235,2023-10-31,717,01,,,,,,,충청북도 청주시청,043-201-7397,2025-10-31
뉴월드카,03,충청북도 청주시 청원구 교서로 116번길 9,충청북도 청주시 청원구 우암동 335-8,36.647039,127.483847,1999-10-21,243,01,,,,,,,충청북도 청주시청,043-201-8392,2025-10-31
다이아몬드카클럽,03,충청북도 청주시 서원구 창직로 105,충청북도 청주시 서원구 사직동 630-3,36.630349,127.473446,2001-06-28,248,01,,,,,,,충청북도 청주시청,043-201-6392,2025-10-31
달려라카서비스,03,충청북도 청주시 서원구 탑골로 42,충청북도 청주시 서원구 산남동 1246,36.609252,127.476438,2005-11-17,208.92,01,,,,,,,충청북도 청주시청,043-201-6392,2025-10-31
당신카매니저,03,충청북도 청주시 상당구 수영로101번길 4-1,충청북도 청주시 상당구 영운동 187-18,36.616454,127.497183,2001-04-03,294,01,,,,,,,충청북도 청주시청,043-201-5393,2025-10-31
대건모터스,03,충청북도 청주시 흥덕구 내수동로 21,충청북도 청주시 흥덕구 복대동 852-9,36.633289,127.4499095,2006-04-13,44,01,,,,,,,충청북도 청주시청,043-201-7397,2025-10-31
대경카공업사,03,충청북도 청주시 서원구 2순환로 1814-22,충청북도 청주시 서원구 장성동 115-30,36.5933475,127.477915,2004-06-03,921,01,,,,,,,충청북도 청주시청,043-201-6392,2025-10-31
대광카클리닉,03,충청북도 청주시 흥덕구 봉명로 220-1,충청북도 청주시 흥덕구 봉명동 1187,36.639709,127.466077,2004-06-23,70.8,01,,,,,,,충청북도 청주시청,043-201-7397,2025-10-31
대교카부분정비공업사,03,충청북도 청주시 상당구 무심동로372번길 2-15,충청북도 청주시 상당구 서문동 198-21,36.633367,127.483493,2000-09-01,141,01,,,,,,,충청북도 청주시청,043-201-5393,2025-10-31
대륙사,03,충청북도 청주시 서원구 남이면 척산2길 19,충청북도 청주시 서원구 남이면 척산리 382-3,36.56452829,127.439475,2024-05-13,620.9,01,,,,,,,충청북도 청주시청,043-201-6392,2025-10-31
대림카3급공업사,03,충청북도 청주시 흥덕구 가로수로1154번길 71,충청북도 청주시 흥덕구 강서동 52-1,36.623628,127.425655,2005-01-04,84,01,,,,,,,충청북도 청주시청,043-201-7397,2025-10-31
대명카센터,03,충청북도 청주시 청원구 교서로 240,충청북도 청주시 청원구 내덕동 696-5,36.656205,127.476268,2006-12-19,75,01,,,,,,,충청북도 청주시청,043-201-8392,2025-10-31
대성3급부분정비공업사,03,충청북도 청주시 흥덕구 강내면 태성탑연로 370,충청북도 청주시 흥덕구 강내면 탑연리 333-3,36.615699,127.355097,2004-06-28,975,01,,,,,,,충청북도 청주시청,043-201-7397,2025-10-31
금호타이어 동청주점,03,충청북도 청주시 청원구 주성로 59,충청북도 청주시 청원구 사천동 223-10,36.667567,127.474157,2017-08-28,1130,01,,,,,,,충청북도 청주시청,043-201-8392,2025-10-31
금호타이어청남판매(주)용암지점,03,충청북도 청주시 상당구 이정골로 11-1,충청북도 청주시 상당구 용정동 405-5,36.629066,127.520329,2006-08-18,166,01,,,,,,,충청북도 청주시청,043-201-5393,2025-10-31
기능장모터스,03,"충청북도 청주시 청원구 율천북로13번길 3,102호",충청북도 청주시 청원구 사천동 680,36.660333,127.473892,2021-09-29,1563,01,,,,,,,충청북도 청주시청,043-201-8392,2025-10-31
기쁨카크리닉,03,충청북도 청주시 청원구 1순환로 252-1(내덕동),충청북도 청주시 청원구 내덕동 565-23,36.663244,127.484876,2003-04-10,190,01,,,,,,,충청북도 청주시청,043-201-8392,2025-10-31
기아 BIKE,03,충청북도 청주시 청원구 무심동로 562,충청북도 청주시 청원구 우암동 818-2,36.650213,127.480286,2020-09-03,290,01,,,,,,,충청북도 청주시청,043-201-8392,2025-10-31
기아종합자동차부분정비공업사,03,충청북도 청주시 청원구 교서로 236,충청북도 청주시 청원구 내덕동 696-12,36.655888,127.476369,1998-08-27,84,01,,,,,,,충청북도 청주시청,043-201-8392,2025-10-31
기아카센타,03,충청북도 청주시 흥덕구 봉명로 194,충청북도 청주시 흥덕구 봉명동 1109,36.639647,127.463087,1998-11-03,104.4,01,,,,,,,충청북도 청주시청,043-201-7397,2025-10-31
기찬정비,03,충청북도 청주시 흥덕구 봉명로 151,충청북도 청주시 흥덕구 봉명동 209-1,36.639582,127.458404,2008-01-16,126,01,,,,,,,충청북도 청주시청,043-201-7397,2025-10-31
김평석 카클리닉,03,충청북도 청주시 청원구 향군로 75,충청북도 청주시 청원구 우암동 381-18,36.651854,127.483698,2006-11-20,187,01,,,,,,,충청북도 청주시청,043-201-8392,2025-10-31
나도카센타,03,충청북도 청주시 서원구 남이면 청남로 991,충청북도 청주시 서원구 남이면 부용외천리 264-1,36.540856,127.429842,2020-06-17,1443,01,,,,,,,충청북도 청주시청,043-201-6392,2025-10-31
남부카센타,03,충청북도 청주시 상당구 가덕면 가덕시동길 93,충청북도 청주시 상당구 가덕면 시동리 109-1,36.574099,127.569557,2009-06-30,495,01,,,,,,,충청북도 청주시청,043-201-5393,2025-10-31
남성카부분정비공업사,03,충청북도 청주시 서원구 수영로 58,충청북도 청주시 서원구 수곡동 31-15,36.615452,127.492369,1999-10-04,119.5,01,,,,,,,충청북도 청주시청,043-201-6392,2025-10-31
내덕점 현대자동차 주식회사,03,충청북도 청주시 청원구 1순환로 252-2,충청북도 청주시 청원구 내덕동 565-30,36.66347282,127.485058,2008-05-30,384.08,01,,,,,,,충청북도 청주시청,043-201-8392,2025-10-31
내덕카공업사,03,충청북도 청주시 청원구 향군로94번길 19,충청북도 청주시 청원구 우암동 376-19,36.65401038,127.483723,2016-10-11,365.6,01,,,,,,,충청북도 청주시청,043-201-8392,2025-10-31
내수자동차정비공업사,03,충청북도 청주시 청원구 내수읍 마산길 78,충청북도 청주시 청원구 내수읍 마산리 120-5,36.721958,127.534963,1998-03-20,133,01,,,,,,,충청북도 청주시청,043-201-8392,2025-10-31
경희카클리닉,03,충청북도 청주시 청원구 공항로52번길 30,충청북도 청주시 청원구 내덕동 393-8,36.661936,127.488906,2018-04-25,162,01,,,,,,,충청북도 청주시청,043-201-8392,2025-10-31
고속자동차부분정비공업사,03,충청북도 청주시 상당구 미원면 미원초정로 76,충청북도 청주시 상당구 미원면 내산리 136-6,36.642887,127.658632,1999-04-14,108,01,,,,,,,충청북도 청주시청,043-201-5393,2025-10-31
공룡자동차 부분정비공업사,03,충청북도 청주시 흥덕구 천석로77번길 14,충청북도 청주시 흥덕구 봉명동 770-1,36.642535,127.464629,2012-06-22,174.5,01,,,,,,,충청북도 청주시청,043-201-7397,2025-10-31
공사자동차부분정비공업사,03,충청북도 청주시 상당구 남일면 단재로 460,충청북도 청주시 상당구 남일면 효촌리 89-1,36.589903,127.5067301,1999-06-22,185,01,,,,,,,충청북도 청주시청,043-201-5393,2025-10-31
광명자동차부분정비공업사,03,충청북도 청주시 청원구 교서로 254,충청북도 청주시 청원구 내덕동 674-2,36.657295,127.475462,1998-11-27,88,01,,,,,,,충청북도 청주시청,043-201-8392,2025-10-31
광수정비소,03,충청북도 청주시 흥덕구 무심서로 885,충청북도 청주시 흥덕구 송절동 61-8,36.665958,127.463661,2022-05-30,648,01,,,,,,,충청북도 청주시청,043-201-7397,2025-10-31
광장카,03,충청북도 청주시 상당구 산성로 113,충청북도 청주시 상당구 용담동 164-1,36.632803,127.5039103,2010-12-29,1159,01,,,,,,,충청북도 청주시청,043-201-5393,2025-10-31
굿모닝카서비스,03,충청북도 청주시 흥덕구 덕암로29번길 38,충청북도 청주시 흥덕구 봉명동 2438,36.654823,127.457777,2014-11-11,470.2,01,,,,,,,충청북도 청주시청,043-201-7397,2025-10-31
그랜드주유소,03,충청북도 청주시 청원구 오창읍 꽃화산1길 126-33,충청북도 청주시 청원구 오창읍 용두리 73-3,36.728285,127.394211,2015-04-23,6122,01,,,,,,,충청북도 청주시청,043-201-8392,2025-10-31
근태카클리닉,03,충청북도 청주시 흥덕구 대신로38번길 61-1,충청북도 청주시 흥덕구 복대동 197-7,36.6348295,127.438394,2000-08-25,75.07,01,,,,,,,충청북도 청주시청,043-201-7397,2025-10-31
금강자동차정비,03,충청북도 청주시 청원구 새터로 163,충청북도 청주시 청원구 사천동 400-2,36.661865,127.473867,2002-08-29,154,01,,,,,,,충청북도 청주시청,043-201-8392,2025-10-31
금강카매니저,03,충청북도 청주시 흥덕구 1순환로 605,충청북도 청주시 흥덕구 봉명동 1058,36.639434,127.460416,2008-06-04,682.5,01,,,,,,,충청북도 청주시청,043-201-7397,2025-10-31
금강카부분정비공업사,03,충청북도 청주시 서원구 사운로145번길 3,충청북도 청주시 서원구 사직동 245-1,36.642034,127.4789918,1998-08-17,73.36,01,,,,,,,충청북도 청주시청,043-201-6392,2025-10-31
금호오토마스타,03,충청북도 청주시 서원구 대원로 26,충청북도 청주시 서원구 사직동 255-1,36.639928,127.478895,2001-05-15,159.7,01,,,,,,,충청북도 청주시청,043-201-6392,2025-10-31
금호타이어 내수점,03,충청북도 청주시 청원구 내수읍 초정약수로 194-5,충청북도 청주시 청원구 내수읍 마산리 178,36.720037,127.5316904,2008-10-02,613,01,,,,,,,충청북도 청주시청,043-201-8392,2025-10-31
SNP모터스,03,충청북도 청주시 청원구 교서로 224,충청북도 청주시 청원구 내덕동 700-5,36.654971,127.477020,2016-08-31,646.1,01,,,,,,,충청북도 청주시청,043-201-8392,2025-10-31
SW모터스,03,충청북도 청주시 흥덕구 덕암로6번길 78,충청북도 청주시 흥덕구 봉명동 2880,36.649763,127.455573,2008-07-02,210.3,01,,,,,,,충청북도 청주시청,043-201-7397,2025-10-31
가경점 기아오토큐,03,충청북도 청주시 흥덕구 풍산로48번길 14,충청북도 청주시 흥덕구 가경동 415-2,36.626264,127.435843,2006-12-15,119.2,01,,,,,,,충청북도 청주시청,043-201-7397,2025-10-31
가경점현대자동차(주),03,충청북도 청주시 흥덕구 가경로101번길 27,충청북도 청주시 흥덕구 가경동 174-27,36.623796,127.437674,2004-09-14,446,01,,,,,,,충청북도 청주시청,043-201-7397,2025-10-31
가경카센터,03,충청북도 청주시 흥덕구 장구봉로 33-1,충청북도 청주시 흥덕구 가경동 1488-12,36.621851,127.437764,2012-03-30,204,01,,,,,,,충청북도 청주시청,043-201-7397,2025-10-31
가온카라반,03,충청북도 청주시 흥덕구 서부로 863,충청북도 청주시 흥덕구 신전동 321,36.59783042,127.4039692,2020-12-16,1190,01,,,,,,,충청북도 청주시청,043-201-7397,2025-10-31
가족카정비,03,충청북도 청주시 서원구 산미로 85,충청북도 청주시 서원구 미평동 195-1,36.605561,127.470568,1999-12-14,970,01,,,,,,,충청북도 청주시청,043-201-6392,2025-10-31
강내자동차공업사,03,충청북도 청주시 흥덕구 강내면 태성탑연로 413,충청북도 청주시 흥덕구 강내면 탑연리 311-10,36.619515,127.357614,2004-10-06,738,01,,,,,,,충청북도 청주시청,043-201-7397,2025-10-31
강우카,03,충청북도 청주시 청원구 북이면 팔결신대로 521,충청북도 청주시 청원구 북이면 대율리 160-12,36.735635,127.521327,2015-09-03,835,01,,,,,,,충청북도 청주시청,043-201-8392,2025-10-31
개신점 오토큐 기아모터스,03,충청북도 청주시 서원구 1순환로 761,충청북도 청주시 서원구 개신동 50,36.625999,127.463676,2007-04-19,144.3,01,,,,,,,충청북도 청주시청,043-201-6392,2025-10-31
개신점 현대자동차,03,충청북도 청주시 서원구 성봉로 161,충청북도 청주시 서원구 개신동 680,36.61966049,127.451212,2004-05-04,255.84,01,,,,,,,충청북도 청주시청,043-201-6392,2025-10-31
거산자동차전문정비공업사,03,충청북도 청주시 청원구 1순환로 184,충청북도 청주시 청원구 율량동 1093-1,36.66485006,127.492156,1998-06-18,263.5,01,,,,,,,충청북도 청주시청,043-201-8392,2025-10-31
건국카센타,03,충청북도 청주시 흥덕구 직지대로 95-2,충청북도 청주시 흥덕구 지동동 512,36.64703687,127.4033611,2023-11-27,198,01,,,,,,,충청북도 청주시청,043-201-7397,2025-10-31
건민카센타,03,충청북도 청주시 청원구 주성로 32-1,충청북도 청주시 청원구 사천동 208-3,36.665215,127.472421,2019-12-06,154.4,01,,,,,,,충청북도 청주시청,043-201-8392,2025-10-31
건태공업사,03,충청북도 청주시 흥덕구 1순환로 424,충청북도 청주시 흥덕구 신봉동 152,36.653456,127.470232,2006-06-30,622,01,,,,,,,충청북도 청주시청,043-201-7397,2025-10-31
경재카부분정비공업사,03,충청북도 청주시 흥덕구 월명로60번길 74,충청북도 청주시 흥덕구 봉명동 206-9,36.640609,127.457625,1999-12-10,74.64,01,,,,,,,충청북도 청주시청,043-201-7397,2025-10-31
GM대우율량바로정비,03,충청북도 청주시 청원구 공항로 96-2,충청북도 청주시 청원구 율량동 951,36.665857,127.486991,2008-06-12,425,01,,,,,,,충청북도 청주시청,043-201-8392,2025-10-31
GM모터스,03,충청북도 청주시 서원구 사북로 11,충청북도 청주시 서원구 사직동 741,36.641928,127.472906,2005-03-17,141,01,,,,,,,충청북도 청주시청,043-201-6392,2025-10-31
GT모터스,03,충청북도 청주시 흥덕구 덕암로35번길 10,충청북도 청주시 흥덕구 봉명동 2465-2,36.653527,127.458348,2007-10-17,246,01,,,,,,,충청북도 청주시청,043-201-7397,2025-10-31
HJ모터스,03,충청북도 청주시 서원구 안뜸로 47,충청북도 청주시 서원구 분평동 307,36.612223,127.482652,2019-06-04,289,01,,,,,,,충청북도 청주시청,043-201-6392,2025-10-31
HM 카닥터,03,충청북도 청주시 상당구 단재로 66,충청북도 청주시 상당구 금천동 163-13,36.622854,127.494486,2011-11-15,99.48,01,,,,,,,충청북도 청주시청,043-201-5393,2025-10-31
JD모터스,03,충청북도 청주시 상당구 남일면 효촌송암길 18-32,충청북도 청주시 상당구 남일면 효촌리 242-2,36.589148,127.508314,2013-10-08,178,01,,,,,,,충청북도 청주시청,043-201-5393,2025-10-31
JK모터스,03,충청북도 청주시 서원구 산미로 34-2,충청북도 청주시 서원구 미평동 222-16,36.601048,127.468428,2012-10-26,1942,01,,,,,,,충청북도 청주시청,043-201-6392,2025-10-31
JMTS(제이엠티에스),03,충청북도 청주시 청원구 외남로 70-55,충청북도 청주시 청원구 외남동 44,36.696418,127.488652,2020-02-28,931,01,,,,,,,충청북도 청주시청,043-201-8392,2025-10-31
JP모터스,03,충청북도 청주시 서원구 구룡산로 399,충청북도 청주시 서원구 수곡동 51-44,36.618275,127.488708,2013-04-02,188.9,01,,,,,,,충청북도 청주시청,043-201-6392,2025-10-31
K.T.AN(케이티안),03,충청북도 청주시 흥덕구 옥산면 오송가락로 899,충청북도 청주시 흥덕구 옥산면 가락리 641,36.666649,127.380475,2006-09-25,1010,01,,,,,,,충청북도 청주시청,043-201-7397,2025-10-31
M·H 모터스,03,충청북도 청주시 흥덕구 직지대로240번길 27,충청북도 청주시 흥덕구 지동동 886,36.645316,127.420189,2016-05-16,715,01,,,,,,,충청북도 청주시청,043-201-7397,2025-10-31
OK모터스,03,충청북도 청주시 서원구 남이면 대림로 109,충청북도 청주시 서원구 남이면 대련리 76-1,36.582197,127.444927,2021-01-18,975,01,,,,,,,충청북도 청주시청,043-201-6392,2025-10-31
OK카크리닉,03,충청북도 청주시 서원구 1순환로 743,충청북도 청주시 서원구 개신동 42-1,36.627538,127.4630703,2007-11-19,124,01,,,,,,,충청북도 청주시청,043-201-6392,2025-10-31
PIT IN(피트인),03,충청북도 청주시 흥덕구 가포산로 160,충청북도 청주시 흥덕구 강서동 372,36.616311,127.417427,2017-05-02,2087,01,,,,,,,충청북도 청주시청,043-201-7397,2025-10-31
PRIME MOTORS,03,충청북도 청주시 서원구 남이면 2순환로 1638-1,충청북도 청주시 서원구 남이면 가마리 250-6,36.600472,127.460853,2012-11-13,484,01,,,,,,,충청북도 청주시청,043-201-6392,2025-10-31
SJ모터스,03,충청북도 청주시 서원구 1순환로 1164(분평동),충청북도 청주시 서원구 분평동 516,36.60578704,127.495900,2014-10-06,253,01,,,,,,,충청북도 청주시청,043-201-6392,2025-10-31
(주)삼천리모터스,03,충청북도 청주시 흥덕구 가로수로754번길 24,충청북도 청주시 흥덕구 석소동 21,36.619491,127.382586,2019-05-24,1646,01,,,,,,,충청북도 청주시청,043-201-7397,2025-10-31
(주)세븐타이어,03,충청북도 청주시 서원구 용호로 46,충청북도 청주시 서원구 성화동 169,36.611005,127.448826,2018-11-16,1040,01,,,,,,,충청북도 청주시청,043-201-6392,2025-10-31
(주)아우토반브이에이지,03,충청북도 청주시 흥덕구 청주역로 132,충청북도 청주시 흥덕구 석소동 97,36.628094,127.381166,2019-11-06,3457,01,,,,,,,충청북도 청주시청,043-201-7397,2025-10-31
(주)에이치모터스 청주서비스센터,03,충청북도 청주시 서원구 남이면 2순환로 1786-1,충청북도 청주시 서원구 남이면 양촌리 6-1,36.59408542,127.4759742,2024-05-21,2089,01,,,,,,,충청북도 청주시청,043-201-6392,2025-10-31
(주)충청특판,03,충청북도 청주시 흥덕구 직지대로 644,충청북도 청주시 흥덕구 봉명동 763,36.64265991,127.464422,2014-05-14,425.3,01,,,,,,,충청북도 청주시청,043-201-7397,2025-10-31
(주)카랜드몰,03,충청북도 청주시 청원구 무심동로 738,충청북도 청주시 청원구 사천동 462-15,36.663524,127.469847,2019-04-18,1125,01,,,,,,,충청북도 청주시청,043-201-8392,2025-10-31
(주)카멘토,03,충청북도 청주시 서원구 남이면 청남로 1822,충청북도 청주시 서원구 남이면 가마리 5,36.598261,127.473268,2009-09-07,200,01,,,,,,,충청북도 청주시청,043-201-6392,2025-10-31
1등타이어 청주점,03,충청북도 청주시 상당구 단재로 267,충청북도 청주시 상당구 용암동 1010,36.606258,127.501189,1999-04-29,412,01,,,,,,,충청북도 청주시청,043-201-5393,2025-10-31
21C자동차부분정비공업사,03,충청북도 청주시 청원구 사뜸로 45,충청북도 청주시 청원구 율량동 1454,36.666232,127.481325,2005-04-20,104,01,,,,,,,충청북도 청주시청,043-201-8392,2025-10-31
25시카테크,03,충청북도 청주시 서원구 수곡로 110,충청북도 청주시 서원구 수곡동 622,36.621179,127.470188,2010-10-20,315,01,,,,,,,충청북도 청주시청,043-201-6392,2025-10-31
2CYCLE(2싸이클),03,충청북도 청주시 청원구 율천남로 128,충청북도 청주시 청원구 내덕동 565-11,36.663706,127.485235,2018-08-14,845,01,,,,,,,충청북도 청주시청,043-201-8392,2025-10-31
3급태성부분정비공업사,03,충청북도 청주시 청원구 교서로 113,충청북도 청주시 청원구 우암동 294-9,36.646333,127.4831097,1999-05-15,143,01,,,,,,,충청북도 청주시청,043-201-8392,2025-10-31
BK카크리닉,03,충청북도 청주시 청원구 주성로 224,충청북도 청주시 청원구 율량동 726-2,36.671286,127.491072,2008-04-17,281,01,,,,,,,충청북도 청주시청,043-201-8392,2025-10-31
BT MOTORS,03,충청북도 청주시 흥덕구 1순환로 541,충청북도 청주시 흥덕구 봉명동 642,36.64434558,127.4637463,1999-03-20,76.5,01,,,,,,,충청북도 청주시청,043-201-7397,2025-10-31
CM모터스,03,충청북도 청주시 청원구 1순환로 344,충청북도 청주시 청원구 내덕동 716-14,36.658445,127.476343,2008-04-28,831,01,,,,,,,충청북도 청주시청,043-201-8392,2025-10-31
F1자동차부분정비공업사,03,충청북도 청주시 청원구 무심동로 508,충청북도 청주시 청원구 우암동 294-21,36.645988,127.483004,2004-11-17,220,01,,,,,,,충청북도 청주시청,043-201-8392,2025-10-31
드림특장,01,충청북도 청주시 청원구 내수읍 도원세교로 243,충청북도 청주시 청원구 내수읍 덕암리 270,36.699219,127.549478,2025-07-29,498.8,01,,,,,,,충청북도 청주시청,043-201-8392,2025-10-31
오창모터스,03,충청북도 청주시 청원구 오창읍 모정4길 1-4,충청북도 청주시 청원구 오창읍 모정리 322-27,36.746042,127.461391,2025-08-22,124,01,,,,,,,충청북도 청주시청,043-201-8392,2025-10-31
에이원카독크,02,충청북도 청주시 청원구 내수읍 내수로 306,충청북도 청주시 청원구 내수읍 구성리 376-1,36.699115,127.508848,2012-07-10,1334,01,,,,,,,충청북도 청주시청,043-201-2897,2025-10-31
율량자동차정비공업사,02,충청북도 청주시 청원구 새터로176번길 68,충청북도 청주시 청원구 사천동 219-5,36.666003,127.473282,2006-06-22,735,01,,,,,,,충청북도 청주시청,043-201-2897,2025-10-31
비엠모터스,03,충청북도 청주시 흥덕구 남석로 524,충청북도 청주시 흥덕구 석곡동 120-4,36.60160477,127.426398,2024-09-11,1433,01,,,,,,,충청북도 청주시청,043-201-7397,2025-10-31
정비소 정직,03,충청북도 청주시 흥덕구 덕암로35번길 63,충청북도 청주시 흥덕구 봉명동 2352,36.65598729,127.457988,2024-11-27,467.9,01,,,,,,,충청북도 청주시청,043-201-7397,2025-10-31
불스원 스페셜티 홈플러스 청주점,03,충청북도 청주시 흥덕구 서부로 1291,충청북도 청주시 흥덕구 가경동 1696,36.61543439,127.442245,2025-01-02,122.27,01,,,,,,,충청북도 청주시청,043-201-7397,2025-10-31
에이치에스효성더클래스,03,충청북도 청주시 흥덕구 가로수로 236,충청북도 청주시 흥덕구 오송리 33,36.612381,127.330394,2025-01-24,1597.45,01,,,,,,,충청북도 청주시청,043-201-7397,2025-10-31
현대카튜닝,03,충청북도 청주시 흥덕구 직지대로 199,충청북도 청주시 흥덕구 지동동 389-1,36.64725477,127.4166091,2025-06-18,1796,01,,,,,,,충청북도 청주시청,043-201-7397,2025-10-31
㈜아우토플라츠 청주서비스,03,충청북도 청주시 흥덕구 신성로 6-16,충청북도 청주시 흥덕구 향정동 110-1,36.65017666,127.4219896,2025-11-03,3382,01,,,,,,,충청북도 청주시청,043-201-7397,2025-10-31
이룸모터스,02,충청북도 청주시 흥덕구 신성로 75-1,충청북도 청주시 흥덕구 신성동 60-3,36.652302,127.4159095,2006-09-21,1154.5,01,,,,,,,충청북도 청주시청,043-201-2897,2025-10-31
주성소형자동차정비공업사,02,충청북도 청주시 청원구 내수읍 충청대로 729-23,충청북도 청주시 청원구 내수읍 은곡리 233,36.711504,127.530449,2013-03-15,965,01,,,,,,,충청북도 청주시청,043-201-2897,2025-10-31
주식회사 삼천리모터스,02,충청북도 청주시 흥덕구 가로수로754번길 15,충청북도 청주시 흥덕구 석소동 13-18,36.619789,127.383059,2004-07-29,862,01,,,,,,,충청북도 청주시청,043-201-2897,2025-10-31
GTA모터스,03,충청북도 청주시 서원구 남이면 대림로 351-9,충청북도 청주시 서원구 남이면 석판리 43-2,36.6025159,127.439530,2024-09-06,199.5,01,,,,,,,충청북도 청주시청,043-201-6392,2025-10-31
테크마스터,03,충청북도 청주시 서원구 2순환로 1505,충청북도 청주시 서원구 성화동 237-7,36.60705316,127.4485459,2024-10-31,325.74,01,,,,,,,충청북도 청주시청,043-201-6392,2025-10-31
세종대형타이어,03,충청북도 청주시 서원구 남이면 청남로 852,충청북도 청주시 서원구 남이면 부용외천리 451-1,36.530236,127.4295561,2024-12-31,132,01,,,,,,,충청북도 청주시청,043-201-6392,2025-10-31
고진모터스㈜아우디청주서비스센터,03,충청북도 청주시 서원구 남이면 2순환로 1675,충청북도 청주시 서원구 남이면 가마리 146-5,36.59938479,127.465288,2025-04-02,1222.2,01,,,,,,,충청북도 청주시청,043-201-6392,2025-10-31
오일토피아 청주점,03,충청북도 청주시 서원구 남이면 청남로 1416,충청북도 청주시 서원구 남이면 수대리 271-1,36.56734049,127.450748,2025-05-14,228.96,01,,,,,,,충청북도 청주시청,043-201-6392,2025-10-31
더타이어샵장성점,03,충청북도 청주시 서원구 2순환로 1814-20,충청북도 청주시 서원구 장성동 115-26,36.59338149,127.4782159,2025-09-01,199.67,01,,,,,,,충청북도 청주시청,043-201-6392,2025-10-31
주식회사 원일자동차정비공업사,02,충청북도 청주시 서원구 성화로 6,충청북도 청주시 서원구 성화동 250,36.607202,127.4496299,2001-11-17,2149,01,,,,,,,충청북도 청주시청,043-201-2897,2025-10-31
주식회사 카랜드앤카페알지,02,충청북도 청주시 서원구 2순환로 1814-7,충청북도 청주시 서원구 장성동 97-11,36.59282173,127.4796979,2023-10-12,1271.8,01,,,,,,,충청북도 청주시청,043-201-2897,2025-10-31
중부공업사,02,충청북도 청주시 청원구 2순환로160번길 2,충청북도 청주시 청원구 주성동 91-1,36.672279,127.5021395,2019-10-02,500,01,,,,,,,충청북도 청주시청,043-201-2897,2025-10-31
퀀텀모빌리티,02,충청북도 청주시 서원구 2순환로 1460-10,충청북도 청주시 서원구 죽림동 73,36.608432,127.443273,2019-03-20,4718,01,,,,,,,충청북도 청주시청,043-201-2897,2025-10-31
타이탄 게라지스,02,충청북도 청주시 흥덕구 가로수로 1065-12,충청북도 청주시 흥덕구 비하동 94-2,36.626946,127.414665,2019-08-09,828,01,,,,,,,충청북도 청주시청,043-201-2897,2025-10-31
태광모터스,02,충청북도 청주시 청원구 공항로 238-3,충청북도 청주시 청원구 주중동 575-15,36.678425,127.485012,2015-09-09,330,01,,,,,,,충청북도 청주시청,043-201-2897,2025-10-31
태원자동차공업사,02,충청북도 청주시 서원구 성화로69번길 43-39,충청북도 청주시 서원구 성화동 197-2,36.609997,127.446356,2017-07-13,1339,01,,,,,,,충청북도 청주시청,043-201-2897,2025-10-31
하나공업사,02,충청북도 청주시 흥덕구 신성로 63-2,충청북도 청주시 흥덕구 신성동 58-1,36.652334,127.416251,2006-07-04,924,01,,,,,,,충청북도 청주시청,043-201-2897,2025-10-31
한마음자동차공업사,02,충청북도 청주시 청원구 공항로329번길 227,충청북도 청주시 청원구 정상동 103-1,36.683715,127.4692602,2019-10-08,526.78,01,,,,,,,충청북도 청주시청,043-201-2897,2025-10-31
(주)85모터스,03,충청북도 청주시 청원구 오창읍 중심상업2로 47-31,충청북도 청주시 청원구 오창읍 양청리 796-3,36.716548,127.430708,2019-12-02,1527,01,,,,,,,충청북도 청주시청,043-201-8392,2025-10-31
(주)디피에푸서비스코리아,03,충청북도 청주시 서원구 현도면 우록길 15-18,충청북도 청주시 서원구 현도면 우록리 528,36.503766,127.429973,2021-04-16,1498,01,,,,,,,충청북도 청주시청,043-201-6392,2025-10-31
현대자동차(주)청주서비스센터,01,충청북도 청주시 흥덕구 직지대로 257,충청북도 청주시 흥덕구 비하동 321-2,36.647217,127.421417,2003-01-17,15218,01,,,,,,,충청북도 청주시청,043-201-2897,2025-10-31
현대자동차청주상용서비스(주),01,충청북도 청주시 청원구 팔결로 67-26,충청북도 청주시 청원구 오동동 6-1,36.691111,127.4806898,2018-10-25,10456,01,,,,,,,충청북도 청주시청,043-201-2897,2025-10-31
현도공업사,01,충청북도 청주시 서원구 현도면 청남로 205,충청북도 청주시 서원구 현도면 매봉리 133,36.47361029,127.425492,2005-03-16,1167,01,,,,,,,충청북도 청주시청,043-201-2897,2025-10-31
(주)드림모터스,02,충청북도 청주시 서원구 2순환로1502번길 32,충청북도 청주시 서원구 성화동 218,36.605736,127.446278,2000-01-27,893,01,,,,,,,충청북도 청주시청,043-201-2897,2025-10-31
YM모터스,02,충청북도 청주시 흥덕구 직지대로 116,충청북도 청주시 흥덕구 지동동 547,36.646395,127.405855,2004-03-24,1106,01,,,,,,,충청북도 청주시청,043-201-2897,2025-10-31
엔에스모터스,02,충청북도 청주시 청원구 내수읍 은곡길 72-56,충청북도 청주시 청원구 내수읍 덕암리 559,36.70365039,127.5366701,2019-06-13,832.43,01,,,,,,,충청북도 청주시청,043-201-2897,2025-10-31
누리모터스,02,충청북도 청주시 서원구 남이면 가좌신송로 40-14,충청북도 청주시 서원구 남이면 가좌리 99-12,36.57671666,127.4639382,2023-07-17,1394,01,,,,,,,충청북도 청주시청,043-201-2897,2025-10-31
대경공업사,02,충청북도 청주시 서원구 남이면 갈원팔봉길 23,충청북도 청주시 서원구 남이면 갈원리 108-2,36.573007,127.397943,2013-10-29,4386,01,,,,,,,충청북도 청주시청,043-201-2897,2025-10-31
수도카센타,03,충청북도 청주시 상당구 가덕면 미천고은로 122,충청북도 청주시 상당구 가덕면 국전리 137,36.53483423,127.5048205,2025-04-24,199,01,,,,,,,충청북도 청주시청,043-201-5393,2025-10-31
다온모터스,03,충청북도 청주시 상당구 이정골로 51(용정동),충청북도 청주시 상당구 용정동 428,36.63200413,127.5210972,2025-07-23,300,01,,,,,,,충청북도 청주시청,043-201-5393,2025-10-31
대산자동차공업사,02,충청북도 청주시 상당구 1순환로1594번길 56,충청북도 청주시 상당구 용정동 460-8,36.63324986,127.5186998,2015-01-30,534,01,,,,,,,충청북도 청주시청,043-201-2897,2025-10-31
대흥모터스,02,충청북도 청주시 청원구 공항로 213,충청북도 청주시 청원구 사천동 17-1,36.675909,127.482707,2016-03-31,830,01,,,,,,,충청북도 청주시청,043-201-2897,2025-10-31
더클래스효성(주)청주지점,02,충청북도 청주시 서원구 남이면 2순환로 1728,충청북도 청주시 서원구 남이면 가마리 61-11,36.596331,127.470138,2014-01-29,688,01,,,,,,,충청북도 청주시청,043-201-2897,2025-10-31
명성자동차공업사,02,충청북도 청주시 상당구 가덕면 단재로 1607,충청북도 청주시 상당구 가덕면 금거리 173-1,36.583881,127.594063,2009-07-02,655.77,01,,,,,,,충청북도 청주시청,043-201-2897,2025-10-31
바른모터스,02,충청북도 청주시 서원구 남이면 외천척산길 52-12,충청북도 청주시 서원구 남이면 척산리 337-1,36.560733,127.439854,2009-10-30,874,01,,,,,,,충청북도 청주시청,043-201-2897,2025-10-31
삼성자동차정비공업사,02,충청북도 청주시 흥덕구 사운로 380,충청북도 청주시 흥덕구 신봉동 254-1,36.659921,127.465902,1995-04-14,558,01,,,,,,,충청북도 청주시청,043-201-2897,2025-10-31
붕붕자동차정비공업사,02,충청북도 청주시 흥덕구 화계로 16,충청북도 청주시 흥덕구 송절동 425,36.657804,127.446078,2002-08-28,1535,01,,,,,,,충청북도 청주시청,043-201-2897,2025-10-31
스피드공업사,02,충청북도 청주시 청원구 오창읍 괴정길 44-1,충청북도 청주시 청원구 오창읍 괴정리 494,36.729276,127.462923,2015-09-08,1323,01,,,,,,,충청북도 청주시청,043-201-2897,2025-10-31
청신운수 주식회사,01,충청북도 청주시 서원구 남이면 서부로 710,충청북도 청주시 서원구 남이면 상발리 30-1,36.586965,127.394549,2014-01-09,9924,01,,,,,,,충청북도 청주시청,043-201-2897,2025-10-31
청주광림모터스,01,충청북도 청주시 흥덕구 사운로404번길 3,충청북도 청주시 흥덕구 송절동 84,36.660752,127.4638999,2009-07-14,1435,01,,,,,,,충청북도 청주시청,043-201-2897,2025-10-31
청주모터스,01,충청북도 청주시 서원구 남지로 72,충청북도 청주시 서원구 미평동 254,36.599988,127.4677703,2011-05-02,2507,01,,,,,,,충청북도 청주시청,043-201-2897,2025-10-31
청주자동차공업사,01,충청북도 청주시 흥덕구 무심서로 799,충청북도 청주시 흥덕구 신봉동 236-2,36.660068,127.469077,2004-08-31,1965,01,,,,,,,충청북도 청주시청,043-201-2897,2025-10-31
충북1급자동차공업사,01,충청북도 청주시 흥덕구 송절로 37,충청북도 청주시 흥덕구 송절동 393-2,36.658723,127.452493,2012-02-21,1311,01,,,,,,,충청북도 청주시청,043-201-2897,2025-10-31
충청자동차정비공업사,01,충청북도 청주시 흥덕구 무심서로 771-2,충청북도 청주시 흥덕구 신봉동 18-2,36.657379,127.471423,2004-11-19,1217.5,01,,,,,,,충청북도 청주시청,043-201-2897,2025-10-31
히아브코리아(주),01,충청북도 청주시 흥덕구 강내면 황탄리길 64,충청북도 청주시 흥덕구 강내면 태성리 356,36.592095,127.349881,2002-07-26,1523.7,01,,,,,,,충청북도 청주시청,043-201-2897,2025-10-31
카엔조이모터스,01,충청북도 청주시 서원구 궁뜰로80번길 14,충청북도 청주시 서원구 장성동 38,36.596768,127.483013,2011-01-13,1100,01,,,,,,,충청북도 청주시청,043-201-2897,2025-10-31
케이지모빌리티청주서비스센터㈜,01,충청북도 청주시 흥덕구 무심서로 789,충청북도 청주시 흥덕구 신봉동 14-2,36.659022,127.470289,2002-07-29,5390,01,,,,,,,충청북도 청주시청,043-201-2897,2025-10-31
코리아카독크(주),01,충청북도 청주시 서원구 청남로 1833-46,충청북도 청주시 서원구 미평동 164-3,36.59980024,127.470891,2002-06-28,2315,01,,,,,,,충청북도 청주시청,043-201-2897,2025-10-31
코리아카독크서부검사정비,01,충청북도 청주시 흥덕구 죽천로 13,충청북도 청주시 흥덕구 비하동 287,36.638872,127.424376,1998-05-15,1062,01,,,,,,,충청북도 청주시청,043-201-2897,2025-10-31
타이어테크 청주오창점,01,충청북도 청주시 청원구 오창읍 중부로 546,충청북도 청주시 청원구 오창읍 각리 407,36.69645565,127.4216611,2021-11-30,2955,01,,,,,,,충청북도 청주시청,043-201-2897,2025-10-31
태경자동차서비스,01,충청북도 청주시 흥덕구 서부로 1093-11,충청북도 청주시 흥덕구 강서동 286-14,36.61039594,127.422347,2018-04-17,1157,02,,2025-05-08,2026-05-07,,,,충청북도 청주시청,043-201-2897,2025-10-31
태성자동차종합정비,01,충청북도 청주시 상당구 가덕면 단재로 1467-5,충청북도 청주시 상당구 가덕면 병암리 309-30,36.580734,127.579077,2013-04-19,3808,01,,,,,,,충청북도 청주시청,043-201-2897,2025-10-31
한성자동차공업사,01,충청북도 청주시 청원구 2순환로 409-13,충청북도 청주시 청원구 사천동 160-3,36.670686,127.475873,2012-09-10,1289,01,,,,,,,충청북도 청주시청,043-201-2897,2025-10-31
한세이프 주식회사,01,충청북도 청주시 흥덕구 2순환로894번길 57,충청북도 청주시 흥덕구 외북동 311,36.65726281,127.4260473,2023-07-13,11899.5,01,,,,,,,충청북도 청주시청,043-201-2897,2025-10-31
오창자동차정비공업사,01,충청북도 청주시 청원구 오창읍 괴정2길 144,충청북도 청주시 청원구 오창읍 괴정리 610,36.733973,127.455012,2009-11-02,2140,01,,,,,,,충청북도 청주시청,043-201-2897,2025-10-31
우림자동차공업사,01,충청북도 청주시 흥덕구 사운로396번길 35,충청북도 청주시 흥덕구 신봉동 526-1,36.662158,127.465806,2013-04-05,1420,01,,,,,,,충청북도 청주시청,043-201-2897,2025-10-31
우일자동차정비공업사,01,충청북도 청주시 흥덕구 1순환로436번길 30,충청북도 청주시 흥덕구 신봉동 150,36.653755,127.469716,1999-05-12,2254,01,,,,,,,충청북도 청주시청,043-201-2897,2025-10-31
웰컴모터스,01,충청북도 청주시 서원구 청남로 1833-58,충청북도 청주시 서원구 미평동 165-5,36.600127,127.470469,2007-01-02,992,01,,,,,,,충청북도 청주시청,043-201-2897,2025-10-31
유진1급자동차정비공업주식회사,01,충청북도 청주시 흥덕구 죽천로 97-7,충청북도 청주시 흥덕구 복대동 328-7,36.638375,127.4337801,2004-05-13,2338,01,,,,,,,충청북도 청주시청,043-201-2897,2025-10-31
이재신모터스,01,충청북도 청주시 흥덕구 직지대로 126-2,충청북도 청주시 흥덕구 지동동 544,36.645643,127.406101,2016-04-15,1185,01,,,,,,,충청북도 청주시청,043-201-2897,2025-10-31
자일청주서비스 주식회사,01,충청북도 청주시 흥덕구 사운로 370,충청북도 청주시 흥덕구 신봉동 241-2,36.658979,127.466805,2003-11-01,9486,01,,,,,,,충청북도 청주시청,043-201-2897,2025-10-31
주식회사 손오공자동차정비공업사,01,충청북도 청주시 서원구 가장로355번길 153,충청북도 청주시 서원구 장성동 89,36.593425,127.481351,2012-07-02,1539,01,,,,,,,충청북도 청주시청,043-201-2897,2025-10-31
주식회사 오토샤인,01,충청북도 청주시 흥덕구 강내면 태성탑연로 16,충청북도 청주시 흥덕구 강내면 태성리 148-1,36.588081,127.357021,2016-01-25,2618,01,,,,,,,충청북도 청주시청,043-201-2897,2025-10-31
주식회사 장성1급자동차공업사,01,충청북도 청주시 서원구 궁뜰로 73,충청북도 청주시 서원구 장성동 16-2,36.597833,127.483969,2001-05-25,1953,01,,,,,,,충청북도 청주시청,043-201-2897,2025-10-31
중부1급모터스,01,충청북도 청주시 흥덕구 지동로 6,충청북도 청주시 흥덕구 지동동 228-1,36.646306,127.414494,2017-01-23,1632.24,01,,,,,,,충청북도 청주시청,043-201-2897,2025-10-31
차사랑 자동차공업사,01,충청북도 청주시 상당구 목련로 302-30,충청북도 청주시 상당구 월오동 520,36.609739,127.534727,2019-04-30,3821,01,,,,,,,충청북도 청주시청,043-201-2897,2025-10-31
청남현대서비스주식회사,01,충청북도 청주시 서원구 남이면 청남로 1817,충청북도 청주시 서원구 남이면 가마리 30,36.597586,127.4721001,2004-05-28,3707,01,,,,,,,충청북도 청주시청,043-201-2897,2025-10-31
삼화자동차공업사,01,충청북도 청주시 흥덕구 1순환로438번길 39-18,충청북도 청주시 흥덕구 신봉동 146-1,36.653697,127.467346,2009-12-28,3621,01,,,,,,,충청북도 청주시청,043-201-2897,2025-10-31
서청주서비스기아오토큐 주식회사,01,충청북도 청주시 흥덕구 강서로 25,충청북도 청주시 흥덕구 강서동 172-1,36.618891,127.422489,2004-10-04,2469,01,,,,,,,충청북도 청주시청,043-201-2897,2025-10-31
선진자동차공업사,01,충청북도 청주시 청원구 오창읍 두릉유리로 871,충청북도 청주시 청원구 오창읍 성산리 55-1,36.74030978,127.425624,2019-02-18,2678,01,,,,,,,충청북도 청주시청,043-201-2897,2025-10-31
세종특장,01,충청북도 청주시 서원구 남이면 남석로 135-12,충청북도 청주시 서원구 남이면 척북리 123,36.568355,127.427045,2014-02-14,4265,01,,,,,,,충청북도 청주시청,043-201-2897,2025-10-31
스카이모터스,01,충청북도 청주시 흥덕구 청주역로 565,충청북도 청주시 흥덕구 신촌동 288-47,36.659383,127.3802196,2006-05-11,1404,01,,,,,,,충청북도 청주시청,043-201-2897,2025-10-31
신세계써비스,01,충청북도 청주시 청원구 팔결로 106,충청북도 청주시 청원구 주중동 420-5,36.692814,127.483003,2013-09-02,5141,01,,,,,,,충청북도 청주시청,043-201-2897,2025-10-31
씨에스기계(주),01,충청북도 청주시 청원구 북이면 장재금대로 109-8,충청북도 청주시 청원구 북이면 금암리 228-6,36.746282,127.554314,2000-05-29,1790,01,,,,,,,충청북도 청주시청,043-201-2897,2025-10-31
아일공업(주),01,충청북도 청주시 흥덕구 사운로386번길 45,충청북도 청주시 흥덕구 신봉동 261-6,36.661291,127.467712,1967-12-01,6581,01,,,,,,,충청북도 청주시청,043-201-2897,2025-10-31
아주자동차공업사,01,충청북도 청주시 흥덕구 사운로374번길 66,충청북도 청주시 흥덕구 신봉동 226-12,36.659427,127.4688195,2003-12-18,4458,01,,,,,,,충청북도 청주시청,043-201-2897,2025-10-31
아진1급자동차정비,01,충청북도 청주시 청원구 공항로 410-10,충청북도 청주시 청원구 오동동 49,36.69374567,127.4784275,2008-04-04,1774,01,,,,,,,충청북도 청주시청,043-201-2897,2025-10-31
아진테크,01,충청북도 청주시 흥덕구 사운로 393,충청북도 청주시 흥덕구 신봉동 270-1,36.660619,127.464414,1991-12-03,2058,01,,,,,,,충청북도 청주시청,043-201-2897,2025-10-31
양지공업사,01,충청북도 청주시 청원구 율천북로 133-1,충청북도 청주시 청원구 율량동 1777,36.664729,127.4849397,1975-12-30,4103,02,,2025-06-10,2026-06-09,,,,충청북도 청주시청,043-201-2897,2025-10-31
제이제이모터스,01,충청북도 청주시 흥덕구 서부로1168번길 8,충청북도 청주시 흥덕구 석곡동 23-13,36.609147,127.4314998,2014-08-04,2083,01,,,,,,,충청북도 청주시청,043-201-2897,2025-10-31
주식회사 대풍산업특장,01,충청북도 청주시 서원구 현도면 선동2길 232,충청북도 청주시 서원구 현도면 선동리 93-1,36.494015,127.4306295,2007-10-09,3139.52,01,,,,,,,충청북도 청주시청,043-201-2897,2025-10-31
오송현대서비스(주),01,충청북도 청주시 흥덕구 강내면 가로수로 485,충청북도 청주시 흥덕구 강내면 탑연리 260-9,36.623786,127.353639,2001-11-24,2924,01,,,,,,,충청북도 청주시청,043-201-2897,2025-10-31
오창1급대한공업사,01,충청북도 청주시 청원구 오창읍 두릉유리로 769,충청북도 청주시 청원구 오창읍 성산리 154-8,36.735386,127.417165,2018-08-07,5156,01,,,,,,,충청북도 청주시청,043-201-2897,2025-10-31
남이공업사 송절점,01,충청북도 청주시 흥덕구 사운로404번길 22,충청북도 청주시 흥덕구 송절동 560-10,36.662404,127.465051,2019-08-02,1565.54,01,,,,,,,충청북도 청주시청,043-201-2897,2025-10-31
남청원현대서비스(주),01,충청북도 청주시 청원구 2순환로 463,충청북도 청주시 청원구 사천동 546,36.66846736,127.4703823,2023-06-20,4675,01,,,,,,,충청북도 청주시청,043-201-2897,2025-10-31
남청주서비스기아오토큐,01,충청북도 청주시 서원구 남이면 대림로 279-1,충청북도 청주시 서원구 남이면 석판리 140-1,36.595359,127.440843,2020-12-14,3380,01,,,,,,,충청북도 청주시청,043-201-2897,2025-10-31
남청주특장,01,충청북도 청주시 서원구 남이면 청남로 857,충청북도 청주시 서원구 남이면 부용외천리 465,36.529505,127.428787,2003-03-13,1098,01,,,,,,,충청북도 청주시청,043-201-2897,2025-10-31
늘푸른자동차공업사,01,충청북도 청주시 서원구 남이면 부용외천1길 8,충청북도 청주시 서원구 남이면 부용외천리 523,36.534137,127.427046,2009-07-07,1090,01,,,,,,,충청북도 청주시청,043-201-2897,2025-10-31
대성카독크자동차정비공업사,01,충청북도 청주시 흥덕구 화계로 12,충청북도 청주시 흥덕구 송절동 422,36.657367,127.446427,2003-11-22,1450,01,,,,,,,충청북도 청주시청,043-201-2897,2025-10-31
동부자동차정비공업(주),01,충청북도 청주시 청원구 북이면 현암길 5,충청북도 청주시 청원구 북이면 현암리 50-12,36.742544,127.544176,2002-12-12,2406,01,,,,,,,충청북도 청주시청,043-201-2897,2025-10-31
동양1급자동차공업사,01,충청북도 청주시 흥덕구 송절로 39,충청북도 청주시 흥덕구 송절동 392-3,36.658815,127.453016,2012-05-23,1682,01,,,,,,,충청북도 청주시청,043-201-2897,2025-10-31
동일운수 주식회사,01,충청북도 청주시 서원구 궁뜰로 22,충청북도 청주시 서원구 미평동 96-1,36.600326,127.4787195,2015-07-08,1170,01,,,,,,,충청북도 청주시청,043-201-2897,2025-10-31
르노코리아 청주정비사업소 주식회사,01,충청북도 청주시 흥덕구 2순환로 1033,충청북도 청주시 흥덕구 비하동 345-1,36.641694,127.423167,2002-09-24,2668,01,,,,,,,충청북도 청주시청,043-201-2897,2025-10-31
리본1급모터스,01,충청북도 청주시 서원구 월평로 25,충청북도 청주시 서원구 분평동 1211,36.61129036,127.4880596,2021-12-21,1610,01,,,,,,,충청북도 청주시청,043-201-2897,2025-10-31
명진자동차공업사,01,충청북도 청주시 서원구 남이면 2순환로 1675,충청북도 청주시 서원구 남이면 가마리 146-5,36.599385,127.465207,2010-09-08,2408,01,,,,,,,충청북도 청주시청,043-201-2897,2025-10-31
미원1급종합자동차공업사,01,충청북도 청주시 상당구 미원면 단재로 2343,충청북도 청주시 상당구 미원면 미원리 647-1,36.630751,127.648535,2007-10-17,3528,01,,,,,,,충청북도 청주시청,043-201-2897,2025-10-31
밀레니엄1급종합공업사,01,충청북도 청주시 청원구 팔결로 86,충청북도 청주시 청원구 주중동 422-16,36.69075049,127.4831689,2022-08-11,3212,01,,,,,,,충청북도 청주시청,043-201-2897,2025-10-31
반도기계,01,충청북도 청주시 서원구 남이면 청남로 1625-7,충청북도 청주시 서원구 남이면 가좌리 69-1,36.582449,127.462678,2003-09-05,1460.6,01,,,,,,,충청북도 청주시청,043-201-2897,2025-10-31
비알오토솔루션 청주센터,01,충청북도 청주시 청원구 외남로 140,충청북도 청주시 청원구 외평동 171-9,36.69942704,127.4946209,2024-06-03,2472,01,,,,,,,충청북도 청주시청,043-201-2897,2025-10-31
(주)한국자동차공업사,01,충청북도 청주시 흥덕구 공단로 104,충청북도 청주시 흥덕구 복대동 271-15,36.640975,127.438319,1994-05-01,1590,01,,,,,,,충청북도 청주시청,043-201-2897,2025-10-31
1급동인자동차공업사,01,충청북도 청주시 서원구 궁뜰로38번길 111,충청북도 청주시 서원구 장성동 173,36.598695,127.475015,2001-08-03,1661.9,01,,,,,,,충청북도 청주시청,043-201-2897,2025-10-31
1급솔밭자동차공업사,01,충청북도 청주시 청원구 내수읍 충청대로 510,충청북도 청주시 청원구 내수읍 묵방리 652,36.693739,127.520251,2010-01-08,1577,01,,,,,,,충청북도 청주시청,043-201-2897,2025-10-31
1급오창호수모터스,01,충청북도 청주시 청원구 오창읍 각리가곡로 459,충청북도 청주시 청원구 오창읍 탑리 228-1,36.705873,127.4496602,2016-08-05,1632.09,01,,,,,,,충청북도 청주시청,043-201-2897,2025-10-31
1급합동모터스,01,충청북도 청주시 서원구 남이면 연청로 1288-8,충청북도 청주시 서원구 남이면 부용외천리 911,36.530503,127.414859,2015-02-27,5566,01,,,,,,,충청북도 청주시청,043-201-2897,2025-10-31
1급현대공업사종합정비(주)강서2공장지점,01,충청북도 청주시 흥덕구 호암로 94,충청북도 청주시 흥덕구 강서동 252-3,36.612389,127.422727,2018-08-17,2542,02,,2025-08-07,2026-08-06,,,,충청북도 청주시청,043-201-2897,2025-10-31
1급현대기아자동차공업사,01,충청북도 청주시 서원구 2순환로 1460-11,충청북도 청주시 서원구 죽림동 76-1,36.608151,127.443884,2015-07-28,1904,01,,,,,,,충청북도 청주시청,043-201-2897,2025-10-31
강내서비스기아오토큐(주),01,충청북도 청주시 흥덕구 강내면 탑연월곡길 34,충청북도 청주시 흥덕구 강내면 탑연리 113,36.62061971,127.362464,2016-12-30,2102.38,01,,,,,,,충청북도 청주시청,043-201-2897,2025-10-31
건태자동차공업사,01,충청북도 청주시 흥덕구 1순환로 424,충청북도 청주시 흥덕구 신봉동 152,36.653456,127.470232,1993-02-17,1608,01,,,,,,,충청북도 청주시청,043-201-2897,2025-10-31
고려리프트,01,충청북도 청주시 서원구 현도면 선동2길 212,충청북도 청주시 서원구 현도면 선동리 90-1,36.493317,127.432377,2008-09-19,1845,01,,,,,,,충청북도 청주시청,043-201-2897,2025-10-31
광림탑차,01,충청북도 청주시 서원구 현도면 죽전길 134-9,충청북도 청주시 서원구 현도면 죽전리 360-2,36.498636,127.421594,2015-07-30,4300,01,,,,,,,충청북도 청주시청,043-201-2897,2025-10-31
궁민1급자동차공업사,01,충청북도 청주시 서원구 궁뜰로38번길 65-1,충청북도 청주시 서원구 장성동 164-1,36.599717,127.4775502,2008-06-17,3901,01,,,,,,,충청북도 청주시청,043-201-2897,2025-10-31
글로벌서비스(주),01,충청북도 청주시 서원구 현도면 우록길 15-26,충청북도 청주시 서원구 현도면 우록리 546-1,36.50388991,127.430368,2003-04-01,9679,01,,,,,,,충청북도 청주시청,043-201-2897,2025-10-31
글로벌특장공업사,01,충청북도 청주시 청원구 내수읍 충청대로 563-25,충청북도 청주시 청원구 내수읍 묵방리 420,36.699266,127.522193,2011-11-28,1851,01,,,,,,,충청북도 청주시청,043-201-2897,2025-10-31
금강카독크,01,충청북도 청주시 청원구 공항로 211,충청북도 청주시 청원구 사천동 17-7,36.675545,127.482727,2000-06-19,1836.39,01,,,,,,,충청북도 청주시청,043-201-2897,2025-10-31
기아자동차(주)청주서비스센터,01,충청북도 청주시 흥덕구 사운로 315,충청북도 청주시 흥덕구 신봉동 158,36.655091,127.469273,2003-11-04,8661,01,,,,,,,충청북도 청주시청,043-201-2897,2025-10-31
(주)1급뉴충북공업사,01,충청북도 청주시 흥덕구 직지대로 212-1,충청북도 청주시 흥덕구 지동동 386,36.64572974,127.415851,2012-03-07,2775,01,,,,,,,충청북도 청주시청,043-201-2897,2025-10-31
(주)공단공업사,01,충청북도 청주시 흥덕구 월명로201번길 2,충청북도 청주시 흥덕구 봉명동 365-1,36.653529,127.453434,1990-12-27,6515,01,,,,,,,충청북도 청주시청,043-201-2897,2025-10-31
(주)공항공업사,01,충청북도 청주시 청원구 발산로 6-2,충청북도 청주시 청원구 주중동 525,36.679424,127.482497,2013-07-19,3020,01,,,,,,,충청북도 청주시청,043-201-2897,2025-10-31
(주)광림,01,충청북도 청주시 서원구 현도면 청남로 484,충청북도 청주시 서원구 현도면 죽전리 65-11,36.497644,127.428756,2006-04-10,56167,01,,,,,,,충청북도 청주시청,043-201-2897,2025-10-31
(주)대성특장,01,충청북도 청주시 흥덕구 강내면 서부로 180-27,충청북도 청주시 흥덕구 강내면 태성리 546,36.58348145,127.3408317,2013-05-07,1500,01,,,,,,,충청북도 청주시청,043-201-2897,2025-10-31
(주)상당모터스,01,충청북도 청주시 상당구 1순환로1480번길 3,충청북도 청주시 상당구 용정동 271-3,36.624522,127.5198697,2013-02-25,2456,01,,,,,,,충청북도 청주시청,043-201-2897,2025-10-31
(주)상지공업사,01,충청북도 청주시 청원구 토성로362번길 92,충청북도 청주시 청원구 오동동 26-11,36.691681,127.476211,2015-07-08,3751,01,,,,,,,충청북도 청주시청,043-201-2897,2025-10-31
(주)선광모터스,01,충청북도 청주시 서원구 현도면 선동2길 241,충청북도 청주시 서원구 현도면 선동리 122-1,36.494369,127.428982,2007-10-04,1000,01,,,,,,,충청북도 청주시청,043-201-2897,2025-10-31
(주)신성공업사,01,충청북도 청주시 서원구 남이면 청남로 1827-11,충청북도 청주시 서원구 남이면 가마리 39,36.598286,127.4719102,2009-07-13,3401,01,,,,,,,충청북도 청주시청,043-201-2897,2025-10-31
(주)오창1급현대공업사,01,충청북도 청주시 청원구 오창읍 두릉유리로 1327,충청북도 청주시 청원구 오창읍 모정리 193-2,36.75262656,127.4711769,2022-02-10,9463,01,,,,,,,충청북도 청주시청,043-201-2897,2025-10-31
(주)일급서울정비공업사,01,충청북도 청주시 서원구 남이면 양촌4길 5,충청북도 청주시 서원구 남이면 양촌리 3-35,36.593788,127.474784,2008-03-20,8247,01,,,,,,,충청북도 청주시청,043-201-2897,2025-10-31
(주)제이케이 모터스,01,충청북도 청주시 서원구 청남로 1865-13,충청북도 청주시 서원구 미평동 139-5,36.602237,127.474872,2021-07-28,3505,01,,,,,,,충청북도 청주시청,043-201-2897,2025-10-31
(주)충북종합정비,01,충청북도 청주시 흥덕구 무심서로 793,충청북도 청주시 흥덕구 신봉동 229-3,36.659554,127.469774,1990-11-27,5065,01,,,,,,,충청북도 청주시청,043-201-2897,2025-10-31
(주)코르사테크센터,01,충청북도 청주시 청원구 토성로 424-16,충청북도 청주시 청원구 오동동 63-9,36.697998,127.4772498,2020-10-19,4329,01,,,,,,,충청북도 청주시청,043-201-2897,2025-10-31
(주)풀특장,01,충청북도 청주시 서원구 현도면 죽전3길 12,충청북도 청주시 서원구 현도면 우록리 501-1,36.500671,127.430088,2005-04-18,2707,01,,,,,,,충청북도 청주시청,043-201-2897,2025-10-31
디엔씨모터스,02,충청북도 청주시 흥덕구 가로수로 1065-4(비하동),충청북도 청주시 흥덕구 비하동 281,36.62670587,127.4147423,2025-01-22,802,01,,,,,,,충청북도 청주시청,043-201-2897,2025-10-31
(주)수레바퀴,01,충청북도 청주시 서원구 현도면 가구마을길 36-3,충청북도 청주시 서원구 현도면 우록리 743-1,36.52095578,127.4278774,2024-11-15,1060,01,,,,,,,충청북도 청주시청,043-201-2897,2025-10-31
삼천리모터스BMW청주 서비스팩토리,02,충청북도 청주시 흥덕구 월탄2길 65-10(월탄리),충청북도 청주시 흥덕구 강내면 월탄리 235-1,36.611583,127.3511665,2024-09-23,6806,01,,,,,,,충청북도 청주시청,043-201-2897,2025-10-31
청주대형차공업사,01,충청북도 청주시 상당구 남일면 단재로 1323,충청북도 청주시 상당구 남일면 은행리 77-3,36.573902,127.5664103,2025-09-09,4461,01,,,,,,,충청북도 청주시청,043-201-2897,2025-10-31
주식회사 한내일급공업사,01,충청북도 청주시 청원구 오창읍 성산2길 47-30(성산리),충청북도 청주시 청원구 오창읍 성산리 113-7,36.7397416,127.4193387,2025-08-07,4643,01,,,,,,,충청북도 청주시청,043-201-2897,2025-10-31
